"Id","Name","Lat","Lng","Rating","Nb_Rating","Type"
"ChIJlx8EMbRt5kcRZkddcZKXeKc","Boulevard Périphérique","48.8912712","2.3956951",NA,NA,"route"
"ChIJtxV9gbZt5kcRtV6Szmn8UT4","Parking De Paris","48.890241","2.395471","4.8","4","parking point_of_interest establishment"
"ChIJKTPeELVt5kcRJrAB0CnwGZU","Parking Q-Park Paris Philharmonie","48.8905669","2.39509","3.1","85","parking point_of_interest establishment"
"ChIJu0snj7Zt5kcRlxWJyTOqchg","Espace tri de la Porte de Pantin","48.8901457","2.396105","4.3","18","point_of_interest establishment"
"ChIJn2vvg7Zt5kcRhCZ4VTgG3xg","Transport Logistique Service","48.8901696","2.3955202",NA,NA,"point_of_interest establishment"
"ChIJD7fiBh9u5kcRYJSMaMOCCwQ","Paris","48.856614","2.3522219",NA,NA,"locality political"
