"Id","Name","Lat","Lng","Price_level","Rating","Nb_Rating","Type"
"ChIJy7uJ9j9u5kcRMp-3jgnzjDs","75-67 Rue la Fayette","48.8761847","2.3451332",NA,NA,NA,"route"
"ChIJNZ3J-z9u5kcR44wSzEROmkQ","Hôtel Villa Lafayette Paris IX","48.8760943","2.3456526",NA,"4.3","248","lodging point_of_interest establishment"
"ChIJQ3bJ-j9u5kcRWOD3tsgbwV8","Hotel Pax Opera","48.8757424","2.3454368",NA,"3.8","368","lodging point_of_interest establishment"
"ChIJidCwC0Bu5kcRhyADcTSSsrY","Mi Ranchito Paisa","48.876457","2.344879","2","4.4","1238","restaurant food point_of_interest establishment"
"ChIJ0fcbsD5u5kcREGxuQ92l7TY","Starbucks","48.8762611","2.3446206","2","4","674","bakery cafe restaurant food point_of_interest store establishment"
"ChIJaRZciz9u5kcRgV3dyATad68","Mandel Serge","48.8762269","2.344596",NA,"3.7","37","doctor health point_of_interest establishment"
"ChIJGxwfm0xu5kcRXs4V65lxsJc","Paris Espace Eco - Capital Air Santé","48.8764247","2.3450824",NA,"2.8","6","general_contractor point_of_interest store establishment"
"ChIJVVVO8z9u5kcRsXichBJL8Ns","France Cosmetics et Compagnie","48.875974","2.344747",NA,"5","2","beauty_salon point_of_interest clothing_store store establishment"
"ChIJiSng8z9u5kcR2X49lp0OS-s","Dragan Architecture","48.8759492","2.3449473",NA,NA,NA,"point_of_interest establishment"
"ChIJh2Qt9D9u5kcR-dljaKHPitQ","A3TS","48.8762502","2.3449767",NA,"5","1","point_of_interest establishment"
"ChIJn9Cp9T9u5kcR7gbV-BWJaiw","Cocoricom","48.8762933","2.3448136",NA,NA,NA,"point_of_interest establishment"
"ChIJjZfrxD5u5kcRcVyuGqEWSco","Docteur Gwenaelle d'Acremont","48.8760913","2.3454635",NA,"5","12","doctor health point_of_interest establishment"
"ChIJVVVO8z9u5kcRL1klT2Z1kO4","Cruzère","48.8759741","2.3447469",NA,NA,NA,"point_of_interest establishment"
"ChIJ_WoH9T9u5kcRgmZGkDJznro","Mathiaud Boucard Courtage d'Assurances","48.8762933","2.3448136",NA,NA,NA,"insurance_agency point_of_interest establishment"
"ChIJg5xyahRu5kcRz3_tgjYZ-pw","Smith en Face","48.8759492","2.3449473",NA,NA,NA,"point_of_interest establishment"
"ChIJQajB9j9u5kcRKZLVPafFxj0","Optical Discount Paris Lafayette","48.8761161","2.3452927",NA,"4.6","22","health point_of_interest store establishment"
"ChIJ2TeV8z9u5kcR4TsX_XaGH2s","Psy 24","48.8759399","2.3449903",NA,NA,NA,"health point_of_interest establishment"
"ChIJH9hr8j9u5kcRoXrVdRHu9TQ","Emergence cinéma","48.8759492","2.3449474",NA,NA,NA,"movie_theater point_of_interest establishment"
"ChIJH9hr8j9u5kcRUYiKpmoFYXg","LYRA","48.8759246","2.3452019",NA,NA,NA,"health point_of_interest establishment"
"ChIJD7fiBh9u5kcRYJSMaMOCCwQ","Paris","48.856614","2.3522219",NA,NA,NA,"locality political"
"ChIJN0EBCEBu5kcR1SWFaq4ygjw","Actuel Sté","48.8763609","2.3453741",NA,"3.3","26","real_estate_agency point_of_interest establishment"
"ChIJA6Vr9T9u5kcRF13w7E5w5qg","Dentaire","48.8763001","2.3448657",NA,NA,NA,"dentist health point_of_interest establishment"
"ChIJA6Vr9T9u5kcRIhxsjbKKnDs","Dr Benjamin Ohayon - Dentiste Paris 9","48.8763001","2.3448657",NA,"4","236","dentist health point_of_interest establishment"
"ChIJE2aX-T9u5kcRUroHYkk76MQ","Galliot Christelle","48.8760913","2.3454635",NA,"4.6","11","doctor health point_of_interest establishment"
"ChIJJ-K9Rz9u5kcRZpLP_X3ow84","evolution","48.8763101","2.3448598",NA,"5","3","clothing_store point_of_interest store establishment"
"ChIJcT_GCUBu5kcRnfhtdiY5WPA","Agiraf","48.876383","2.3451943",NA,"5","1","point_of_interest establishment"
"ChIJA6Vr9T9u5kcRJogJWiNB3pU","B O","48.8762933","2.3448136",NA,"5","14","doctor health point_of_interest establishment"
"ChIJA6Vr9T9u5kcRy5NzGlRuUiA","Foundation Search Social","48.8762933","2.3448136",NA,"4","1","point_of_interest establishment"
"ChIJA6Vr9T9u5kcRtJXFrfemnms","Opticien Direct Optic","48.8762765","2.3447928",NA,"4.8","64","health point_of_interest store establishment"
"ChIJwQ41RRVu5kcRYUmuHriQ5us","AVANT LES RUES","48.876094","2.3454999",NA,NA,NA,"point_of_interest establishment"
"ChIJwQ41RRVu5kcRwYdNwf95Pg0","HomeSick","48.876094","2.3454999",NA,NA,NA,"point_of_interest establishment"
"ChIJ5RQd8z9u5kcR3w_l2mqrsDw","Artipec Architecture d'intérieur","48.8759741","2.3447469",NA,"1","1","general_contractor point_of_interest establishment"
"ChIJv33-Owxu5kcRPrcbyS6ZSfA","Abies","48.8759741","2.3447469",NA,NA,NA,"point_of_interest establishment"
"ChIJWzlH8z9u5kcRLV-cnPgk7-o","Le Salon coiffeur nm modish","48.8759741","2.3447469",NA,"4.8","25","hair_care point_of_interest establishment"
"ChIJw-MXiz9u5kcRkEY076cF3yQ","Dr Caroline Moughnie","48.8761641","2.3446118",NA,"5","6","dentist health point_of_interest establishment"
"ChIJzzT-_7Nx5kcRNIszViurxLA","Docteur Ramona Dumitru","48.8761641","2.3446118",NA,"5","4","dentist health point_of_interest establishment"
"ChIJYQ8-iz9u5kcRcqlCbYxRUDQ","Docteur Nadine Guez","48.8761641","2.3446118",NA,"4","6","dentist health point_of_interest establishment"
"ChIJeSJrCEBu5kcRu0D7LmfvXX8","Parallaxe","48.8764329","2.3453509",NA,NA,NA,"point_of_interest establishment"
"ChIJw3YQfTdu5kcRcqLHLG9YBzQ","Officéo - Aide administrative partout en France","48.8764329","2.3453509",NA,"4.5","119","point_of_interest establishment"
"ChIJaRZciz9u5kcR3SlYGrGANbQ","lafayette dental office","48.8761462","2.3445712",NA,"2.4","9","dentist health point_of_interest establishment"
"ChIJ9Z7yCkBu5kcRdKAaAf3SGg8","F.e.f.a","48.8764402","2.3448665",NA,"4","1","bar point_of_interest establishment"
"ChIJWzlH8z9u5kcRLkRwoB-diYk","The Goji Bar","48.8759371","2.3446826","1","4.7","99","cafe restaurant food point_of_interest store establishment"
"ChIJeSJrCEBu5kcRc5v-WvvdeaQ","Cabinet d'avocat Marion HAVARD","48.8764475","2.3453612",NA,NA,NA,"lawyer point_of_interest establishment"
"ChIJH9hr8j9u5kcRbjfIIoXW6y8","Royal Punk","48.875795","2.3449121",NA,NA,NA,"point_of_interest establishment"
"ChIJH9hr8j9u5kcRpYUXDo4xhXk","ICONE LINGERIE","48.875795","2.3449121",NA,NA,NA,"point_of_interest establishment"
"ChIJew_B8D9u5kcR8YGT5JzKSDo","GACD Votre Métier, Notre Combat","48.875795","2.3449121",NA,"3.7","12","health point_of_interest store establishment"
"ChIJH9hr8j9u5kcRFennXsjpvM0","Perspective Films","48.8757877","2.3449112",NA,NA,NA,"point_of_interest establishment"
"ChIJH9hr8j9u5kcR95dXSP_SHlM","Académie des Muses","48.8757877","2.3449112",NA,NA,NA,"point_of_interest establishment"
"ChIJR0t9jD9u5kcRDChiy_nwpTU","Fukushiyama","48.875932","2.344617",NA,"3.8","46","restaurant food point_of_interest establishment"
"ChIJN1GdCUBu5kcRXuSAkk1lPKw","DP2I","48.8765236","2.3450574",NA,NA,NA,"point_of_interest establishment"
"ChIJ1RDthExu5kcRzDer-doj7Mc","CEM PROTECTION","48.8765227","2.3449993",NA,"5","1","point_of_interest establishment"
"ChIJY8NUCkBu5kcRDQO-C2S31MI","Capital Air Santé","48.8765117","2.3449193",NA,"5","1","point_of_interest establishment"
"ChIJN1GdCUBu5kcRmwn-bk_L-N8","Harmony Water France","48.8765376","2.3450568",NA,NA,NA,"point_of_interest establishment"
"ChIJAQCwXBVu5kcRuLx-7M0utik","Gambler","48.876094","2.3454999",NA,NA,NA,"point_of_interest establishment"
"ChIJDScFCkBu5kcRKaq1JwQGHxw","JYD Conseil","48.8763918","2.3450376",NA,NA,NA,"point_of_interest establishment"
"ChIJAQDQCUBu5kcRRQ3NxIaufvo","Thierry's","48.8763916","2.3452028",NA,NA,NA,"point_of_interest establishment"
"ChIJOd3F_j9u5kcR2HzLG4D0vk8","Coiff&Co - Coiffeur Paris","48.8762495","2.3457591",NA,"3.7","77","beauty_salon hair_care point_of_interest establishment"
"ChIJ9cQ-dUBu5kcRt_EJdYZj3uE","Apr de France","48.876455","2.344655",NA,"4.2","6","point_of_interest establishment"
"ChIJeSJrCEBu5kcR5-F-sKK1_Dg","Cabinet NKS","48.8764329","2.3453509",NA,NA,NA,"lawyer point_of_interest establishment"
"ChIJeSJrCEBu5kcRcpDuISy0rGk","Cabinet Marie FAVA","48.8764329","2.3453509",NA,"4.5","8","lawyer point_of_interest establishment"
