"Id","Name","Lat","Lng","Rating","Nb_Rating","Type"
"ChIJIVeiA35y5kcRj5YEs82ilsQ","41-35 Boulevard Davout","48.8502563","2.4111043",NA,NA,"route"
"ChIJsRLfA35y5kcRZrPdF8RVy2U","EPN20 Porte de Montreuil","48.8503253","2.4109112","2.5","2","point_of_interest establishment"
"ChIJMZM6BX5y5kcR3aWPwNo8HKs","NICELOOK","48.8503503","2.4110822",NA,NA,"point_of_interest establishment"
"ChIJVyU__w23zhIRN7eJsfuQGCI","Chauvin Jean-Paul Robert Hen","48.8500972","2.4107498",NA,NA,"food point_of_interest establishment"
"ChIJVyU__w23zhIRBS3wC755K-I","Olivier Chauvin Odette Josephine Hel","48.8500972","2.4107498",NA,NA,"food point_of_interest establishment"
"ChIJ3a7Q_31y5kcRibWyTeefxdQ","Faty Mohamed","48.8502142","2.4109324","5","1","electronics_store home_goods_store point_of_interest store establishment"
"ChIJRweU765z5kcRtSMpurCAMZ8","Club davout","48.8502954","2.4108899",NA,NA,"point_of_interest establishment"
"ChIJK7pUBH5y5kcRnBA16FbyNL8","Vine Pascale","48.8502854","2.410913",NA,NA,"point_of_interest establishment"
"ChIJD7fiBh9u5kcRYJSMaMOCCwQ","Paris","48.856614","2.3522219",NA,NA,"locality political"
