"Id","Name","Lat","Lng","Rating","Nb_Rating","Type"
"ChIJV4iWjG5u5kcRlA4SbtVJo50","107-101 Rue de Maubeuge","48.8823086","2.354602",NA,NA,"route"
"ChIJt9kw5y9v5kcRPsrWSJAMWZc","Costa Café","48.8823221","2.3546218","3","1","cafe food point_of_interest establishment"
"ChIJqzKB9G5u5kcRhzKErHCGj_E","Ecolines Bus Stop","48.882599","2.3547482","2","1","point_of_interest establishment"
"ChIJmYV88m5u5kcRYX060F8x8X4","Hélisurface","48.8826356","2.3544126",NA,NA,"airport point_of_interest establishment"
"ChIJF8g-8m5u5kcRuVnafcFJXbo","Helipad","48.8827098","2.3544913",NA,NA,"airport point_of_interest establishment"
"ChIJD7fiBh9u5kcRYJSMaMOCCwQ","Paris","48.856614","2.3522219",NA,NA,"locality political"
