"Id","Name","Lat","Lng","Price_level","Rating","Nb_Rating","Type"
"ChIJ9QErEHhu5kcRwD2nQqUGHWs","20-26 Rue du Maroc","48.8867169","2.3687832",NA,NA,NA,"route"
"ChIJ7VbsD3hu5kcRgmcP7OThVi8","Ntv","48.886844","2.3694212",NA,NA,NA,"point_of_interest establishment"
"ChIJ08uxDHhu5kcRaz-fHrZNFx8","S-ACTIVE Biographies et Edition","48.8869794","2.3694894",NA,NA,NA,"point_of_interest establishment"
"ChIJAQCQCnhu5kcRxW7Egz1sN0Q","la pomme qui rit","48.887072","2.369476",NA,NA,NA,"point_of_interest establishment"
"ChIJNdKXEXhu5kcRmdfljdxnXCU","Vivre ensemble à Maroc Tanger","48.8868657","2.3685862",NA,"5","1","point_of_interest establishment"
"ChIJreVOEXhu5kcRXg3YV0C_iP4","El-Amari Taoufik","48.8869444","2.3683333",NA,"4.1","13","doctor health point_of_interest establishment"
"ChIJo2lsFHhu5kcRZzHTHjFB8SE","Les Piqueurs de glingues","48.8869892","2.3683966",NA,NA,NA,"point_of_interest establishment"
"ChIJo2lsFHhu5kcRAMyQXoONyz0","Docmeetoo","48.8869892","2.3683966",NA,NA,NA,"point_of_interest establishment"
"ChIJs0_meRRv5kcRrbLVNOQfi6s","Akak Yamina","48.8869255","2.3683755",NA,"5","2","health point_of_interest establishment"
"ChIJ0UTNCHhu5kcROgb5tuOZwGo","Pizzeria","48.8867834","2.3692656","1","4.5","44","restaurant food point_of_interest establishment"
"ChIJF8Q8D3hu5kcRyZ80Ruc_ldU","La Résidence D'agadir","48.8866835","2.3690627",NA,NA,NA,"point_of_interest establishment"
"ChIJS2ReDnhu5kcRQHUtkxyenms","Ouslimane","48.886675","2.3691046",NA,"2.6","5","bakery food point_of_interest store establishment"
"ChIJ08uxDHhu5kcRCcCoHmwqRqQ","Déco Meuble","48.887072","2.369476",NA,"3.8","22","furniture_store home_goods_store point_of_interest store establishment"
"ChIJk6jiCHhu5kcRVRu5VTs_jeQ","Pizza Mia","48.8867212","2.3692683",NA,NA,NA,"restaurant food point_of_interest establishment"
"ChIJvZeInkNv5kcRUqloNK3-QRE","Cabinet d'infirmière","48.8866256","2.3688567",NA,"5","1","health point_of_interest establishment"
"ChIJx4XQD3hu5kcRvE_bT5ewwKM","Le Miracle café Bar PMU","48.8866256","2.3688567",NA,NA,NA,"bar point_of_interest establishment"
"ChIJnbK8CXhu5kcRA1RUuc38_0U","S.r.t.p.","48.8867816","2.3693643",NA,NA,NA,"point_of_interest establishment"
"ChIJhe2_3ddt5kcRIaCpK1o6Mbw","amriou maintenance","48.8873935","2.369151",NA,NA,NA,"point_of_interest establishment"
"ChIJO7T0EHhu5kcRgpXPzeahmQI","Le Miracle Café","48.8866583","2.3685885","1","4.4","14","bar point_of_interest establishment"
"ChIJD7fiBh9u5kcRYJSMaMOCCwQ","Paris","48.856614","2.3522219",NA,NA,NA,"locality political"
"ChIJjfQHqhFv5kcRVYnPSUwsupY","Saint Fargeau","48.8866081","2.3690828",NA,NA,NA,"pharmacy health point_of_interest store establishment"
"ChIJmVJFD3hu5kcRWU3zJUHWaMo","Magasin Parabole","48.8866081","2.3690828",NA,NA,NA,"store point_of_interest establishment"
