"Id","Name","Lat","Lng","Rating","Nb_Rating","Type"
"ChIJXUlO4tVt5kcRZMcBobKTAIY","Villa Curial","48.8911662","2.3708628",NA,NA,"route"
"ChIJC14A4dVt5kcR98u6ndoweHI","Gally Fantasy","48.8910343","2.3710517",NA,NA,"jewelry_store point_of_interest store establishment"
"ChIJC14A4dVt5kcRtOlC5bFsDP4","Artemis Frealle Riby","48.8910979","2.3710782",NA,NA,"point_of_interest establishment"
"ChIJwRqPke9t5kcR_-a1bHN9pU0","Loby Adeline","48.8910343","2.3710517",NA,NA,"health point_of_interest establishment"
"ChIJAQBc4tVt5kcRriK6HDRcx78","Fifty Five","48.8910403","2.3707532",NA,NA,"point_of_interest establishment"
"ChIJge9y49Vt5kcRx1hjpmzMSL4","Ciret Ctre Internat Recherc Etudes Tra","48.8910403","2.3707532",NA,NA,"point_of_interest establishment"
"ChIJkSJVd9Zt5kcRWu8x6cBmyGE","Villa Curial","48.8909888","2.3712377","5","1","point_of_interest establishment"
"ChIJwTpR_NVt5kcRzw29oS6yNh0","Pera Int-Forms Et Productions","48.8911307","2.3703674",NA,NA,"point_of_interest establishment"
"ChIJD7fiBh9u5kcRYJSMaMOCCwQ","Paris","48.856614","2.3522219",NA,NA,"locality political"
