"Id","Name","Lat","Lng","Price_level","Rating","Nb_Rating","Type"
"ChIJbxH1v35y5kcRsc1lJPCdU28","40-50 Rue des Maraîchers","48.8511622","2.4071959",NA,NA,NA,"route"
"ChIJ6ZoixH5y5kcR-UD0_x0YDHA","Eglise Adventiste du Septieme Jour de Paris Sud-Est","48.8515138","2.4068878",NA,"4.2","20","church place_of_worship point_of_interest establishment"
"ChIJRW-X3H5y5kcRAjI_Nr5mRss","Laure Melikian","48.8517108","2.4070869",NA,"4.3","6","health point_of_interest establishment"
"ChIJD4ZSw35y5kcRqxcKo4dbqgs","Charles Guba Ostéopathe D.O.","48.8517846","2.4070648",NA,"4.8","21","health point_of_interest establishment"
"ChIJy3PgyH5y5kcRJaZwbnGDgFA","Odette et Charlus Pyrénées","48.8514591","2.4064857","2","4.2","86","restaurant food point_of_interest establishment"
"ChIJb_JQzn5y5kcRyin4BKYKfBc","alain pere et fils","48.8516756","2.4064267",NA,"3.6","14","plumber electrician locksmith home_goods_store general_contractor point_of_interest store establishment"
"ChIJq5_O42py5kcRatuS3-pLdKU","Sophie Leboucher Sophrologue certifiée RNCP et praticienne en hypnose Paris","48.8516756","2.4064267",NA,"4.9","12","health point_of_interest establishment"
"ChIJMy5d235y5kcRlcgoHJzossQ","Lenoir Aurelie","48.8519475","2.4069903",NA,NA,NA,"point_of_interest establishment"
"ChIJCy5d235y5kcRTuMXKGPDNek","Ouattara Nouho","48.8519475","2.4069903",NA,NA,NA,"point_of_interest establishment"
"ChIJXSvXx35y5kcRbweppoKPg3g","Scoot Pyrenees","48.8513036","2.4064486",NA,"4.9","7","car_repair point_of_interest establishment"
"ChIJXSvXx35y5kcRd2SdBN5QNRg","A 2 ROUES","48.8513036","2.4064486",NA,"4.3","59","car_repair point_of_interest establishment"
"ChIJWw6DwX5y5kcR3a_kvOxU5kQ","A.C.M.S Maraîchers","48.8515175","2.4071764",NA,NA,NA,"health point_of_interest establishment"
"ChIJc7A9wH5y5kcRM_bFScAXgds","Fabre Coline","48.8512735","2.4072465",NA,NA,NA,"point_of_interest establishment"
"ChIJydfcxX5y5kcRTaVHVZc2sEU","Le Provencal","48.8515184","2.4066388",NA,"4.4","85","restaurant food point_of_interest establishment"
"ChIJhUq0xX5y5kcRzXRIolk65MY","Secours Adventiste","48.851564","2.4068146",NA,NA,NA,"point_of_interest establishment"
"ChIJPQxaw35y5kcRgf_C47vqBcg","Espace Santé Des Grands Champs","48.8517524","2.4070246",NA,NA,NA,"point_of_interest establishment"
"ChIJEcFvwn5y5kcRQLHTsWFFrCQ","Laure Collart Dutilleul","48.8515854","2.4072872",NA,NA,NA,"point_of_interest establishment"
"ChIJR2R9wn5y5kcRvXyGdm32Dlo","Rémon Martine","48.8515854","2.4072872",NA,NA,NA,"health point_of_interest establishment"
"ChIJDcTHlX5y5kcRrflSlpqjjsQ","Hermant Christophe","48.851373","2.4070175",NA,NA,NA,"point_of_interest establishment"
"ChIJD7fiBh9u5kcRYJSMaMOCCwQ","Paris","48.856614","2.3522219",NA,NA,NA,"locality political"
"ChIJWX9Nw35y5kcR9rsM8oYuZ2Q","Relaxalex","48.851783","2.407046",NA,"5","4","health point_of_interest establishment"
"ChIJcWMMxn5y5kcRQCjpdkXkDsQ","Sarl Thier","48.8514602","2.4067045",NA,NA,NA,"restaurant food point_of_interest establishment"
"ChIJm8sYwX5y5kcRE90-d3EsG3s","Hattab","48.8513418","2.4069854",NA,NA,NA,"point_of_interest establishment"
"ChIJm8sYwX5y5kcRM61_Hiu8T-o","Cottenot Alexandre Gerard","48.8513198","2.4069302",NA,NA,NA,"point_of_interest establishment"
"ChIJQ4IA3X5y5kcRk55QSj9BU0U","Charmoille Jean-Damien Frederic","48.8517955","2.4073261",NA,NA,NA,"point_of_interest establishment"
"ChIJDTMVP0lz5kcRgO-7VuRYo7E","Carole Trouchaud - Psychologue Clinicienne","48.8518911","2.4071165",NA,NA,NA,"health point_of_interest establishment"
"ChIJuZFmZnZz5kcRBoy8XErwEFc","Rébecca PAINVIN","48.8519104","2.4070318",NA,NA,NA,"health point_of_interest establishment"
"ChIJ5yKYwn5y5kcRPGP-oJ0nBVM","Froissac Pierre","48.8519465","2.4072034",NA,NA,NA,"point_of_interest establishment"
"ChIJb_JQzn5y5kcR05pmbDi6ILo","Stan","48.8516756","2.4064267",NA,NA,NA,"point_of_interest establishment"
"ChIJM7ZfBYZt5kcR_roFFNu96fs","Baby Phone","48.8514102","2.4064483",NA,NA,NA,"point_of_interest establishment"
"ChIJy3PgyH5y5kcRhAG-f4yCYwc","Au levain des Pyrénées","48.8514102","2.4064483",NA,"4.3","56","bakery food point_of_interest store establishment"
"ChIJ__-P535y5kcRp6-qqN0SmfM","Mboa Tv","48.8519033","2.4074067",NA,NA,NA,"point_of_interest establishment"
"ChIJ_VWqoJtz5kcR7o9FGXc6daU","ACME","48.8517177","2.4076338",NA,NA,NA,"point_of_interest establishment"
