"Id","Name","Lat","Lng","Rating","Nb_Rating","Type"
"ChIJ1XeetJJt5kcR_lfFSL6PTiQ","6-14 Rue Elisa Borey","48.866292","2.3904139",NA,NA,"route"
"ChIJB-qC36565kcRgmPXwkI1A5U","Grimac","48.8664697","2.3899128","4.6","14","hardware_store point_of_interest store establishment"
"ChIJ5dlVs5Jt5kcRmHXqZzcWIa8","Cadot Guillaume","48.8662396","2.3903117",NA,NA,"point_of_interest establishment"
"ChIJ7YY8tZJt5kcRxXuedshUYzk","Square Elisa-Borey","48.866505","2.3903761","3.5","14","park tourist_attraction point_of_interest establishment"
"ChIJUZFXITNt5kcRK7xs9zUBcE0","Café Brunch - Vingt sur vingt","48.8661214","2.3908486","4.8","5","bakery cafe restaurant food point_of_interest store establishment"
"ChIJP9RZsJJt5kcRmxo1Hy3Laeo","Le Garage Numérique","48.8661214","2.3908486","5","4","point_of_interest establishment"
"ChIJV_0ht5Jt5kcRii-PeZ1tqLk","Djekou Jacqueline","48.8661214","2.3908486",NA,NA,"point_of_interest establishment"
"ChIJ_9lVpZJt5kcRzSkBl0FShd0","Monclus Franck","48.8659389","2.390961",NA,NA,"point_of_interest establishment"
"ChIJD7fiBh9u5kcRYJSMaMOCCwQ","Paris","48.856614","2.3522219",NA,NA,"locality political"
