"Id","Name","Lat","Lng","Price_level","Rating","Nb_Rating","Type"
"ChIJSXtmAlBu5kcRDnhDKS_Nxyk","41-35 Rue Durantin","48.8866977","2.3353034",NA,NA,NA,"route"
"ChIJx_JX-k9u5kcRmCffWSdRj6o","Hotel Des Arts","48.886209","2.33524",NA,"4.5","312","lodging point_of_interest establishment"
"ChIJ5yecqlpu5kcRmo4Cw2naQUA","Best Western Plus Hôtel Littéraire Marcel Aymé","48.8864912","2.3356547",NA,"4","302","lodging point_of_interest establishment"
"ChIJxWatA1Bu5kcRj3RmT5431Lo","Aurore Serpolier","48.886743","2.335254",NA,NA,NA,"spa health point_of_interest establishment"
"ChIJJQsB_k9u5kcRVSO-qKKekGQ","Le Petit Moulin","48.8865913","2.3355275","2","4.7","229","bar restaurant food point_of_interest establishment"
"ChIJqctnAlBu5kcR0CiBoeQO5v0","Pulsio","48.886765","2.335373",NA,NA,NA,"point_of_interest establishment"
"ChIJu3hHAlBu5kcRjjn2qJdkXWs","Limousin Alexis","48.8867646","2.3352707",NA,NA,NA,"point_of_interest establishment"
"ChIJw3RTHVBu5kcRqeCwK4iS5Yo","Kent","48.8866996","2.3350786",NA,NA,NA,"point_of_interest establishment"
"ChIJcQupxxfC_EcRfi9yHSaG35M","MAISON CAULIÈRES","48.886765","2.335271",NA,NA,NA,"point_of_interest establishment"
"ChIJWwjM_k9u5kcRk8d5hcvQ0i4","PimliKo","48.8863262","2.3355422",NA,NA,NA,"point_of_interest establishment"
"ChIJ72VFAlBu5kcRpUgJpemk3eU","Vin'Age","48.8867444","2.335255",NA,NA,NA,"liquor_store food point_of_interest store establishment"
"ChIJAQBMAlBu5kcR8j0GjveyVpk","Agence Calliopé","48.8867646","2.3352707",NA,NA,NA,"point_of_interest establishment"
"ChIJFzrAqlpu5kcRifywCb8ZDQI","Track Films","48.8865977","2.3357404",NA,NA,NA,"point_of_interest establishment"
"ChIJ__8r_09u5kcRhai9WvswTBE","Bento","48.8863262","2.3355422",NA,NA,NA,"point_of_interest establishment"
"ChIJIeo5AFBu5kcRDej69g8CRZA","Mélissa Epaminondi","48.8866838","2.3355978",NA,NA,NA,"point_of_interest establishment"
"ChIJGebj_k9u5kcRGc7USf3x-oU","Last Minute Travel","48.8864776","2.3356561",NA,"1","1","lodging point_of_interest establishment"
"ChIJ42s0-E9u5kcRLm7P40b07ZI","Studio 28","48.8861413","2.3354377",NA,"4.7","343","movie_theater point_of_interest establishment"
"ChIJEbC75k9u5kcRkH_HOtqzuBQ","– Integrative Consulting","48.8862745","2.3345792",NA,NA,NA,"point_of_interest establishment"
"ChIJ2feaHlBu5kcRMcrjGa0yBww","A S C E P L","48.8867954","2.3346197",NA,"4.4","11","point_of_interest establishment"
"ChIJD7fiBh9u5kcRYJSMaMOCCwQ","Paris","48.856614","2.3522219",NA,NA,NA,"locality political"
"ChIJ_ZOG-09u5kcRyZmJyCSARJU","Corbel Pascale","48.8863231","2.3351327",NA,"5","22","veterinary_care point_of_interest establishment"
"ChIJ_ZOG-09u5kcRMrTwd3KWg0E","Guitar Lessons Paris 18","48.8863231","2.3351327",NA,NA,NA,"school point_of_interest establishment"
"ChIJ_xutA1Bu5kcRGExz6D5CKB4","Sarl Le Nde","48.8866377","2.3352316",NA,NA,NA,"point_of_interest establishment"
"ChIJxWatA1Bu5kcRzq9JGtr13oU","HG Consulting","48.8866377","2.3352316",NA,NA,NA,"point_of_interest establishment"
"ChIJ_xutA1Bu5kcR-WkFbNxgw9s","Bousquet Marie-Christine","48.8866377","2.3352316",NA,NA,NA,"point_of_interest establishment"
"ChIJd9s7fYFv5kcRmKhzgUd154k","Fhal & Roch immobilier","48.8864485","2.3353326",NA,"5","5","real_estate_agency point_of_interest establishment"
"ChIJ8XXGAlBu5kcRYeRkRp6roYg","Reese Studio","48.8867315","2.3349604",NA,"5","1","painter point_of_interest establishment"
"ChIJ72VFAlBu5kcRNiHaWxmE8qk","Piu Prod","48.886743","2.335254",NA,NA,NA,"point_of_interest establishment"
"ChIJS4PD09Jv5kcR6qDmGaFmTI4","It's French Juice","48.8867444","2.335255",NA,"5","12","point_of_interest establishment"
"ChIJ72VFAlBu5kcRaUCgb6S4-e4","COMPTOIR DE CANA.","48.8867444","2.335255",NA,NA,NA,"point_of_interest establishment"
"ChIJkzoqAlBu5kcREh3NLwlsyPc","Dadafilms","48.8867654","2.3353727",NA,NA,NA,"point_of_interest establishment"
"ChIJU_wjHVBu5kcR9Ji8ti_48OM","Bombardier Alice","48.8868396","2.3351463",NA,NA,NA,"point_of_interest establishment"
"ChIJtdN2KR9v5kcRBesXd-3J5Rs","Théâtre Jules","48.8865388","2.3355589",NA,NA,NA,"point_of_interest establishment"
"ChIJMa2p_09u5kcRd-h_Z9dAk2U","Наш Отель","48.8864453","2.3355704",NA,"5","1","restaurant food point_of_interest establishment"
"ChIJNyq0HFBu5kcRY1RaQBW4dnk","Fuchs Julien","48.8868789","2.335017",NA,NA,NA,"point_of_interest establishment"
"ChIJ0WLAHlBu5kcR6IEjLzU3I0c","Froment Jean-Pierre","48.8868789","2.335017",NA,NA,NA,"point_of_interest establishment"
"ChIJ__8r_09u5kcRptACipTZ4WA","Pleasure Little Treasure","48.8863262","2.3355422",NA,NA,NA,"point_of_interest establishment"
"ChIJE9rmJ7Rv5kcRONA2sCZGt8M","Bibiche","48.8862627","2.3346776",NA,"5","9","restaurant food point_of_interest establishment"
"ChIJEbC75k9u5kcREVS75FxQ7LM","Dom Garcia","48.8862745","2.3345792",NA,NA,NA,"point_of_interest establishment"
"ChIJ42s0-E9u5kcRE7L4inxIFwU","Roulleau Alain","48.8861447","2.3353301",NA,NA,NA,"point_of_interest establishment"
"ChIJOd18WjFv5kcRt94kRHRHdpQ","Street art","48.8865772","2.3357145",NA,NA,NA,"point_of_interest establishment"
"ChIJ278OAFBu5kcRS3UZ6PYDehU","Atelier Holozé","48.8866727","2.3356972",NA,"4","1","point_of_interest establishment"
"ChIJ5Tc_qplv5kcRSKC5QAu_pJU","Atelier Véron","48.8861173","2.3348623",NA,"4.8","4","art_gallery point_of_interest establishment"
"ChIJvSXAHlBu5kcRZ1Nw8zpV9ak","Capoeira Viola","48.8868263","2.3345625",NA,"3","2","point_of_interest establishment"
"ChIJq8Mn7k9u5kcRx56v5VfQ-bk","Beauté Ongles Montmartre","48.8860754","2.3351482",NA,"4.3","9","beauty_salon point_of_interest establishment"
"ChIJMQRPVUVu5kcRXYrYyR9mIVI","Amg Multi-Services","48.8865854","2.3357739",NA,NA,NA,"point_of_interest establishment"
"ChIJr7rd_09u5kcRsjWifx3SOfU","Proibido Bar Galerie","48.8865854","2.3357739","1","4.4","336","bar point_of_interest establishment"
