"Id","Name","Lat","Lng","Rating","Nb_Rating","Type"
"ChIJe76xa7pt5kcR3H-PcbnP5w4","Boulevard Périphérique","48.8841408","2.3988371",NA,NA,"route"
"ChIJe9hyRrpt5kcRyHSpxYDA5oc","Mellot Emmanuelle","48.8834722","2.3989978",NA,NA,"point_of_interest establishment"
"ChIJ3ZAuSbpt5kcRRXS5rtScbF8","Sébastien Gosset","48.8834722","2.3989978","5","4","point_of_interest establishment"
"ChIJw5hERrpt5kcRaWiyJow8-rI","JELENA REMETIN, Visual Artist","48.883545","2.3990242","5","1","point_of_interest establishment"
"ChIJA6dPNLpt5kcR-b1E0JTToCY","JC Corporate","48.8830296","2.3985397",NA,NA,"point_of_interest establishment"
"ChIJVVUlRrpt5kcRsMk3RoM67rE","Safyka","48.8834722","2.3989978",NA,NA,"point_of_interest establishment"
"ChIJVVUlRrpt5kcR3Cd8JRAiEms","DEM-ZEN Déménagement & Transport","48.8834722","2.3989978","3.4","10","moving_company point_of_interest establishment"
"ChIJQ3UKebtt5kcR7uyUX6chMM0","Krafft-Lamy Patricia","48.8830296","2.3985397",NA,NA,"point_of_interest establishment"
"ChIJD7fiBh9u5kcRYJSMaMOCCwQ","Paris","48.856614","2.3522219",NA,NA,"locality political"
