"Id","Name","Lat","Lng","Price_level","Rating","Nb_Rating","Type"
"ChIJOR7Nb1xu5kcRw_vf9Iy6DUM","129-125 Rue Caulaincourt","48.8897873","2.3423854",NA,NA,NA,"route"
"ChIJB1NfLVBu5kcR76ZnJHYFycc","BELOM - Montmartre","48.8891988","2.3419082",NA,"4.5","146","hair_care health point_of_interest establishment"
"ChIJqaazaFxu5kcRgJ8sdRIQLYk","Francis Labutte","48.8896875","2.3427149",NA,"4.1","704","bar restaurant food point_of_interest establishment"
"ChIJueGRelxu5kcRBXcyU6FZ0uw","Au Bout Du Champ - Caulaincourt","48.8895808","2.3421617",NA,"4.6","80","food point_of_interest store establishment"
"ChIJCdePflxu5kcRllEt8LJpNP0","Paris Music Productions","48.8892083","2.3418581",NA,NA,NA,"electronics_store home_goods_store point_of_interest store establishment"
"ChIJtZmEeFxu5kcRMymjA7M_VAg","URBANAKTORS","48.8894151","2.341728",NA,NA,NA,"point_of_interest establishment"
"ChIJn7IfZFxu5kcRVejfOpB5zys","FMC","48.8895063","2.3425095",NA,"5","3","point_of_interest establishment"
"ChIJ55czeFxu5kcRrjxsRvIPHNE","Kerautret Jérome","48.8895898","2.3417524",NA,"4.4","7","physiotherapist health point_of_interest establishment"
"ChIJ4SCRh1xu5kcRi4mSszda2sc","Cie Alto","48.8889468","2.3421749",NA,NA,NA,"point_of_interest establishment"
"ChIJz_EdcFxu5kcR2YaOmfswjVA","NATURALIA","48.8896382","2.3421613",NA,"3.9","67","grocery_or_supermarket food point_of_interest store establishment"
"ChIJP4peY1xu5kcRnN70piFF7ms","Au Relais","48.8892821","2.3424291","2","4","282","restaurant food point_of_interest establishment"
"ChIJz_TOYlxu5kcR0d-MjAFu1JI","Soul Kitchen","48.8891424","2.3422785","2","4.6","710","cafe restaurant food point_of_interest store establishment"
"ChIJD8IbfFxu5kcRRt2rQcOsO9o","Centre d'accueil Franco Japonais","48.8891988","2.3419082",NA,NA,NA,"point_of_interest establishment"
"ChIJq-p3b1xu5kcR-k-w66MuAa8","Okinawa","48.8896916","2.3424522",NA,"4.1","94","bar restaurant food point_of_interest establishment"
"ChIJw7PMZFxu5kcRTHzqUvr55DQ","Baudot Christine","48.8894202","2.3422811",NA,NA,NA,"point_of_interest establishment"
"ChIJP4peY1xu5kcRBqRSpOaXyzM","Cotte Denis","48.8893191","2.3423939",NA,NA,NA,"point_of_interest establishment"
"ChIJ5UwKpAxv5kcR_LLQFxPqdTI","L’Arcane","48.889402","2.342061",NA,"4.8","4","restaurant food point_of_interest establishment"
"ChIJQaiie1xu5kcRCx_fcSme2uU","ラルカーヌ","48.889402","2.342061",NA,NA,NA,"point_of_interest establishment"
"ChIJlWsmgVtu5kcRhBNCJZBoIoE","L'Arcane","48.889402","2.342061","3","4.7","244","restaurant food point_of_interest establishment"
"ChIJD7fiBh9u5kcRYJSMaMOCCwQ","Paris","48.856614","2.3522219",NA,NA,NA,"locality political"
"ChIJueGRelxu5kcR_w_rY1Y3fy4","Auger Gabriel","48.8895808","2.3421617",NA,NA,NA,"point_of_interest establishment"
"ChIJz_EdcFxu5kcRyk5Y0lfOjHQ","Synd Copro Du 118 Rue Caulaincourt","48.8895808","2.3421617",NA,NA,NA,"real_estate_agency point_of_interest establishment"
"ChIJG8MxY1xu5kcRQ0y6p_dz254","Simone Moreau","48.889103","2.3422318",NA,NA,NA,"point_of_interest establishment"
"ChIJ44aCflxu5kcRqXEhFiYriX8","Prise Dominique","48.8891988","2.3419082",NA,NA,NA,"point_of_interest establishment"
"ChIJD8IbfFxu5kcRKpjOPt8iIs0","Vogt Maurice","48.8891988","2.3419082",NA,NA,NA,"electronics_store home_goods_store point_of_interest store establishment"
"ChIJJyyiflxu5kcR85PNgj1tm1c","VIA COACHING / Agnès Grange - Coach de vie pour particuliers","48.8891988","2.3419082",NA,"5","1","health point_of_interest establishment"
"ChIJq-p3b1xu5kcRjdDEUbT3r5o","Sarl Le Panier de Montmartre","48.8896504","2.3424088",NA,"1","2","point_of_interest store establishment"
"ChIJueGRelxu5kcRTjgvvkygVhs","Nul","48.8896862","2.3421794",NA,NA,NA,"health point_of_interest establishment"
"ChIJg61jO0tv5kcRnBWfXeKlUQs","Pizza Di Loretta","48.8896263","2.3425825",NA,"4","12","restaurant food point_of_interest establishment"
"ChIJy4toAipv5kcRBcLJct6AVeA","Doular Frogerpuais","48.8896263","2.3425825",NA,NA,NA,"point_of_interest establishment"
"ChIJj2r7TqZv5kcRnRjbxLppbA8","Maison des Epicuriens","48.889225","2.3427454",NA,"4.9","22","cafe restaurant food point_of_interest store establishment"
"ChIJAcYeZ1xu5kcROKItCD754fg","Sophie Texier","48.8893997","2.3428249",NA,"5","1","health point_of_interest establishment"
"ChIJVVVR1Mdv5kcRwPP044cyEJQ","Institut Scientis","48.8894565","2.3416706",NA,NA,NA,"point_of_interest establishment"
"ChIJudryeFxu5kcRNsBpIMgimCI","3 Owls","48.8894565","2.3416706",NA,"4.8","11","food point_of_interest establishment"
"ChIJ55czeFxu5kcRr1yBMhM32SI","Catherine MANGEL","48.8895898","2.3417524",NA,NA,NA,"physiotherapist health point_of_interest establishment"
"ChIJ55czeFxu5kcRfFmCIy5X7hM","Françoise SAPHORES","48.8895898","2.3417524",NA,NA,NA,"physiotherapist health point_of_interest establishment"
"ChIJLwmucFxu5kcRww9bJfWUzf4","Thomas GRANDJEAN","48.8895898","2.3417524",NA,"5","5","doctor health point_of_interest establishment"
"ChIJLwmucFxu5kcR-vBxh5R47uE","Olivier Armande","48.8895898","2.3417524",NA,NA,NA,"point_of_interest establishment"
"ChIJLwmucFxu5kcRhOeiPulYBAQ","Saignes Paqueton Louise Armande","48.8895898","2.3417524",NA,NA,NA,"point_of_interest establishment"
"ChIJySuOgFtu5kcRp88QHxXcycg","Alix et Mika - Tartares sur mesure","48.8892716","2.3416276","2","4.6","173","restaurant food point_of_interest establishment"
"ChIJ4SuRYVxu5kcRY0hSgAiNQxU","Lamarck - Mont Cenis","48.8891009","2.3427793",NA,"1","1","transit_station point_of_interest establishment"
"ChIJ55czeFxu5kcRKIHgWTm1Ob8","Montmartre Photo & Phone","48.8896489","2.3416827",NA,"4.2","12","point_of_interest establishment"
