"Id","Name","Lat","Lng","Rating","Nb_Rating","Type"
"ChIJ2QhrASps5kcRXDP7RLIaeXo","Boulevard Périphérique","48.9007876","2.371008",NA,NA,"route"
"ChIJ1fxOjSls5kcRzl_Z959vVgE","Location2salle","48.9015534","2.3715219",NA,NA,"point_of_interest establishment"
"ChIJkz3t9Cls5kcR-_4sqcyouLU","Images Et Music","48.9012243","2.3719857",NA,NA,"point_of_interest establishment"
"ChIJc-0ZMDdt5kcRpuAaXuG5YoM","Manufacture de la mode","48.9011481","2.372065",NA,NA,"point_of_interest establishment"
"ChIJN2x69Cls5kcRzcVsMdji5Qo","Parc du Millenaire","48.90138","2.371921",NA,NA,"transit_station point_of_interest establishment"
"ChIJYxOYjCls5kcRwg3wodY8WA8","Parc du Millenaire","48.901335","2.372193","4","1","transit_station point_of_interest establishment"
"ChIJkY448Cls5kcRZe5nn5jf8fs","Réveillon Au Cirque","48.9015563","2.3715533",NA,NA,"point_of_interest establishment"
"ChIJzTY4jSls5kcRbg49RsQYt8I","Lucky","48.9015317","2.3721843",NA,NA,"point_of_interest establishment"
"ChIJD7fiBh9u5kcRYJSMaMOCCwQ","Paris","48.856614","2.3522219",NA,NA,"locality political"
