"Id","Name","Lat","Lng","Price_level","Rating","Nb_Rating","Type"
"ChIJ6_0gWgxu5kcR2UX91FkEJ80","44-50 Rue des Vinaigriers","48.8731916","2.3607372",NA,NA,NA,"route"
"ChIJFXy6Wxpu5kcRaZ7rfDTeDCQ","Alternative Bike Paris","48.8726351","2.3596561",NA,"3.4","92","bicycle_store car_repair point_of_interest store establishment"
"ChIJ-5LEVgxu5kcR1j-j3Sl7J_4","La Paella","48.87325","2.3603222","2","3.9","272","bar restaurant food point_of_interest establishment"
"ChIJ8UDYpQ1u5kcRtlL1qJUl4R8","Doctor Laurence Touitou - Dentist Paris 10","48.87312","2.360033",NA,"3","12","dentist health point_of_interest establishment"
"ChIJQ6WkTgxu5kcRWwogBIklkDU","UNPLV","48.8726401","2.3602688",NA,NA,NA,"point_of_interest establishment"
"ChIJQ6WkTgxu5kcR3UjKzvk9ns8","Constructa Asset Management","48.8726401","2.3602688",NA,NA,NA,"point_of_interest establishment"
"ChIJn8yhUAxu5kcRSwIduGFeyXg","Homelidays - HomeAway France","48.87264","2.360269",NA,"1.8","86","real_estate_agency travel_agency point_of_interest establishment"
"ChIJrapOUgxu5kcRPfKZEfIlg5Q","Clara Albert","48.873038","2.360151",NA,"5","4","dentist health point_of_interest establishment"
"ChIJVVVJUgxu5kcRtJR4VTdEgUY","La Madeleine dans l'Alambic","48.8730381","2.3601511",NA,NA,NA,"point_of_interest establishment"
"ChIJAQAQUQxu5kcR_vrvxviG76E","Production PILOCATABASE","48.8730922","2.3603973",NA,NA,NA,"point_of_interest establishment"
"ChIJVVUFUQxu5kcRtRk0iHdleJk","Oracle et Salesforce trouvent un terrain d'entente dans le cloud","48.8731122","2.360377",NA,NA,NA,"point_of_interest establishment"
"ChIJQQBVUwxu5kcRT-9A4k0Y7Xk","HORIZON MULTISERVICES","48.8731029","2.3598708",NA,NA,NA,"general_contractor point_of_interest establishment"
"ChIJjYwJVAxu5kcRUhUpzU1pk5U","I.E.C. Reprographie","48.8732593","2.3601406",NA,"4.7","18","point_of_interest store establishment"
"ChIJ9RDDUAxu5kcR-2zkxhOF27g","Arty Family","48.8731421","2.3604969",NA,"5","5","store point_of_interest establishment"
"ChIJEZv6OvFt5kcR0gwR2tVO97o","Merci Handy","48.8731252","2.3605526",NA,"4.2","36","point_of_interest establishment"
"ChIJQ6WkTgxu5kcRcQ-h-EqMgIY","AXILLA EXPERTISE","48.8731252","2.3605526",NA,NA,NA,"accounting finance point_of_interest establishment"
"ChIJP1RyrA1u5kcRw_f35EDNfSI","Cabinet Bl","48.8730462","2.3597562",NA,NA,NA,"point_of_interest establishment"
"ChIJP1RyrA1u5kcRAX7BdDfVZDo","Cabinet BL Laude Jean Michel Laude Jean Michel","48.8730462","2.3597562",NA,NA,NA,"point_of_interest establishment"
"ChIJq6oGrQ1u5kcRYqHL5wkygY8","Qqf","48.8730462","2.3597562",NA,"5","1","point_of_interest establishment"
"ChIJD7fiBh9u5kcRYJSMaMOCCwQ","Paris","48.856614","2.3522219",NA,NA,NA,"locality political"
"ChIJnT6WLWJu5kcRRuxt0yNLR4o","AIRINOV","48.8731279","2.360628",NA,"3.1","7","point_of_interest establishment"
"ChIJ-5LEVgxu5kcROQZ_SEAyNtM","Future Seafood","48.8732453","2.3604172",NA,NA,NA,"food point_of_interest establishment"
"ChIJOX-utg1u5kcRTo_Ccn-0DDE","Mille et Une Productions","48.8726351","2.3596561",NA,"3","1","point_of_interest establishment"
"ChIJV5WxtQ1u5kcRTdbxb1nRylk","Laho Laurent Abitbol Holding","48.8726351","2.3596561",NA,NA,NA,"finance point_of_interest establishment"
"ChIJFbAEsw1u5kcRLTuSfCwSmMo","Sutter Marie-Odile","48.8726351","2.3596561",NA,"5","3","veterinary_care point_of_interest establishment"
"ChIJr2jvsw1u5kcRS4lVKZWVRvM","Fédération des Détaillants en Chaussures de France (F.D.C.F)","48.8726351","2.3596561",NA,"5","1","point_of_interest establishment"
"ChIJ7RFFUQxu5kcRGvfPZPttgkQ","La Taverne de Zhao","48.8731454","2.3603226","2","4.4","468","restaurant food point_of_interest establishment"
"ChIJw_w4Uwxu5kcRuxpGX_Z9HSA","Anne Deval Coaching","48.8731311","2.3599745",NA,"5","3","health point_of_interest establishment"
"ChIJ0X-2Wgxu5kcRl61nT_AUz5I","Centre Interentreprises et Artisanal de Médecine du Travail C.I.A.M.T","48.8730957","2.3607748",NA,"4","1","health point_of_interest establishment"
"ChIJjSM4Wgxu5kcRGB-hnn9G8eY","Ciamt","48.8731303","2.3607503",NA,NA,NA,"point_of_interest establishment"
"ChIJrdY62xBu5kcRv0mXQKBQ7D4","Artlove","48.8726351","2.3596561",NA,"2.7","3","point_of_interest clothing_store store establishment"
"ChIJ__-Psw1u5kcRfYbVP9MfyQY","THE HANGER","48.8726351","2.3596561",NA,"3","1","point_of_interest establishment"
"ChIJX5a2rQ1u5kcRDgiRPST6J7U","Scissors by Cindy","48.8731788","2.3597338",NA,"4.4","52","hair_care point_of_interest establishment"
"ChIJNePHTgxu5kcRODDTiD_Yffg","Locations de Vacances Paris","48.8730685","2.3605931",NA,NA,NA,"travel_agency point_of_interest establishment"
"ChIJD_XwUgxu5kcRZ10n-I9Qws4","Chez Dom","48.8730381","2.3601511",NA,"4.1","33","restaurant food point_of_interest establishment"
"ChIJ8UDYpQ1u5kcRUXzQ9mPb0XI","Chelly Muriel","48.8730381","2.3601511",NA,NA,NA,"dentist health point_of_interest establishment"
"ChIJ4QgeLKBv5kcR1GRxOM-Oc20","Carrefour Drive","48.8731003","2.3600299",NA,NA,NA,"supermarket grocery_or_supermarket food point_of_interest store establishment"
"ChIJcc_DWOZv5kcRfb8qCD5QXjg","Carrefour Drive Piéton","48.8731003","2.3600299",NA,NA,NA,"supermarket grocery_or_supermarket food point_of_interest store establishment"
"ChIJK4ZdUQxu5kcRjdUR5U2DtjE","Les Belles Heures","48.8731341","2.3602992",NA,NA,NA,"point_of_interest establishment"
"ChIJK4ZdUQxu5kcRGrL4CRCXaN8","L'atelier-Boutique Tête de Linotte","48.8731341","2.3602992",NA,NA,NA,"store point_of_interest establishment"
"ChIJHxeJgAtu5kcREZqXw89UDqU","Kann Design","48.873131","2.359975",NA,"4.3","17","furniture_store home_goods_store point_of_interest store establishment"
"ChIJxfw4Uwxu5kcRrNqRoIbB1X4","Michèle Sauvalle","48.8731311","2.3599746",NA,NA,NA,"point_of_interest establishment"
"ChIJw_w4Uwxu5kcRIr4zZtF54J0","LHEURE BLEUE PRODUCTIONS","48.8731311","2.3599745",NA,NA,NA,"point_of_interest establishment"
"ChIJOymtClVv5kcRAsVWVh9BqvY","Dr Coralie ARZOUNI","48.8731311","2.3599745",NA,"5","2","dentist health point_of_interest establishment"
"ChIJc9nh6zNv5kcRtvmYv8gLc7Y","BANOI Vinaigriers","48.8731311","2.3599745",NA,NA,NA,"restaurant food point_of_interest establishment"
"ChIJVVUFUQxu5kcRApXyRi3zDWM","Le Mezze du Chef Çiğ Köfte Vinaigriers","48.8731426","2.3604449","1","4.5","80","restaurant food point_of_interest establishment"
"ChIJt54M3LBv5kcRMx7Ypw_FdMk","ABC Print","48.8731221","2.3598944",NA,"5","2","point_of_interest store establishment"
"ChIJ___LrA1u5kcRMKO8KZLYq6M","Ape","48.8731221","2.3598944",NA,NA,NA,"point_of_interest establishment"
"ChIJKTVLoShv5kcRQTEawC2nAjo","Photo Stage Paris","48.873122","2.359894",NA,NA,NA,"university point_of_interest establishment"
"ChIJg-OVUAxu5kcR2voBW7BEY8w","Images Et Impressions","48.8731252","2.3605526",NA,NA,NA,"point_of_interest establishment"
"ChIJn8yhUAxu5kcRr8iRdoebp80","Immeuble","48.8731252","2.3605526",NA,NA,NA,"finance point_of_interest establishment"
"ChIJScOkoBRu5kcRRFjqBBne8S0","Regatta France","48.8731252","2.3605526",NA,NA,NA,"point_of_interest establishment"
"ChIJi-GuKuRv5kcRrfZdiaveGGE","La retraite","48.8730462","2.3597562",NA,"4.7","23","bar restaurant food point_of_interest establishment"
"ChIJq6oGrQ1u5kcRKTp-niVzStI","Le Plombier du Canal","48.8730462","2.3597562",NA,NA,NA,"plumber point_of_interest establishment"
"ChIJMzZT0QRu5kcRD_Q6p-8dZOw","A Kitchen Paris","48.8730462","2.3597562",NA,"5","1","point_of_interest establishment"
"ChIJX5a2rQ1u5kcRIBmkp8FLFkU","Pitoun Martine","48.8730462","2.3597562",NA,NA,NA,"point_of_interest establishment"
"ChIJ7Zn9BOJt5kcRv6Yf7y3iCms","Maartin","48.873046","2.359756",NA,"5","2","point_of_interest establishment"
"ChIJDRxtgKVv5kcRCzYtWm25mko","Airbn","48.8732145","2.360201",NA,NA,NA,"lodging point_of_interest establishment"
"ChIJp7n-sA1u5kcRRRBUDxB1DeE","Association Aza","48.8726351","2.3596561",NA,"5","2","school gym health point_of_interest establishment"
"ChIJp7n-sA1u5kcR8xb61ZReH08","Between","48.8726351","2.3596561",NA,NA,NA,"point_of_interest establishment"
