"Id","Name","Lat","Lng","Price_level","Rating","Nb_Rating","Type"
"ChIJD7fiBh9u5kcRYJSMaMOCCwQ","Paris","48.856614","2.3522219",NA,NA,NA,"locality political"
"ChIJiZFD0m1u5kcR39ZkDvnUPOs","Bonne Journée","48.881128","2.357491",NA,"3.8","21","cafe bakery restaurant food point_of_interest store establishment"
"ChIJiZFD0m1u5kcRZIUc9CcA7Tw","Pharmacie de la Gare du Nord","48.881523","2.3578431",NA,"2.9","62","pharmacy health point_of_interest store establishment"
"ChIJbQlN121u5kcRJgcnXrruTFs","segafredo","48.881366","2.357601","2","4","3","cafe food point_of_interest establishment"
"ChIJ-3os5m1u5kcRwZDNuSys7s0","Paul","48.8814108","2.3570897","2","2.2","192","bakery cafe restaurant food point_of_interest store establishment"
"ChIJE5jrVHJu5kcRnJpuP7wIOSY","celio","48.8811429","2.3573141",NA,"3.8","87","point_of_interest clothing_store store establishment"
"ChIJg9zqV25u5kcRiC9H99LNp2w","Hema","48.8811415","2.3576686",NA,"3.3","68","department_store point_of_interest store establishment"
"ChIJ0bbOAXJu5kcRUoo72-7s4uU","Christophe GLAUDEL - Photographe","48.8811412","2.3578321",NA,"5","1","point_of_interest establishment"
"ChIJI5am_3Fu5kcR5dXAfU_wdzU","UNSA Paris Nord","48.8812332","2.3579354",NA,NA,NA,"point_of_interest establishment"
"ChIJvX2WkC9v5kcR7R1q4V7JhS8","Cnbf","48.881279","2.3574834",NA,NA,NA,"point_of_interest establishment"
"ChIJr6CiAG5u5kcRQOvDzMZz2wk","Gare du Nord","48.881172","2.35749",NA,NA,NA,"bus_station transit_station point_of_interest establishment"
"ChIJC91t_nFu5kcRMWG0rCUsee8","Vishnu Cafe","48.8814007","2.3578995",NA,"3.9","124","restaurant food point_of_interest establishment"
"ChIJeZMq_G1u5kcRTeqQm07fFwY","Gare du Nord","48.880974","2.357381",NA,"5","1","bus_station transit_station point_of_interest establishment"
"ChIJ2QOa-3Fu5kcRxHNbkntpFGs","Restaurant New Pondichery","48.8815","2.358",NA,"3.8","173","restaurant food point_of_interest establishment"
"ChIJXbMnWBlv5kcR90PzGWQ_NE4","Bacheletreinet","48.8812332","2.3579354",NA,NA,NA,"point_of_interest establishment"
"ChIJI5am_3Fu5kcRn-zijwQugA4","Cerpno","48.8812332","2.3579354",NA,"4","8","travel_agency point_of_interest establishment"
"ChIJI5am_3Fu5kcRW4pdO1_RqQ8","Module Junior - UAICF","48.8812332","2.3579354",NA,NA,NA,"point_of_interest establishment"
"ChIJLxgh_3Fu5kcRm7SvEB7pXIk","Secteur Federal CGT Cheminots Paris No","48.8811745","2.357906",NA,NA,NA,"point_of_interest establishment"
"ChIJ-7-J_3Fu5kcRgJ368_uQPbA","Gare routière","48.8811358","2.3578852",NA,NA,NA,"point_of_interest establishment"
"ChIJTbMkrQxu5kcR4BqUaMOCCwU","10th arrondissement of Paris","48.8785161","2.3540347",NA,NA,NA,"sublocality_level_1 sublocality political"
"ChIJMziJ-G1u5kcRtzUMBgp1WoA","Gare du Nord","48.881153","2.3579131",NA,"4.2","15","transit_station point_of_interest establishment"
"ChIJ2QOa-3Fu5kcRhqh6997DAGw","Fasso Marie Sibylle","48.8815657","2.3579855",NA,NA,NA,"point_of_interest establishment"
"ChIJHXOuAm5u5kcRmknihiW5Tbg","Gare du Nord","48.881738","2.357763",NA,"3.4","8","transit_station point_of_interest establishment"
"ChIJJ2sCWG5u5kcRUIWr79yJlag","SEPHORA PARIS GARE DU NORD","48.8817887","2.357625","3","3.1","296","point_of_interest clothing_store store establishment"
