"Id","Name","Lat","Lng","Price_level","Rating","Nb_Rating","Type"
"ChIJL1m5LFBu5kcRqNBnO86CimA","16-22 Rue Caulaincourt","48.8871917","2.3331424",NA,NA,NA,"route"
"ChIJk-oPMVBu5kcR4INrJtxHo1c","Le Café Qui Parle","48.8875","2.3336111","2","4.2","469","cafe restaurant food point_of_interest store establishment"
"ChIJ52haJVBu5kcR8nw3stT5wHU","Studio d'enregistrement paris Montmartre Recording","48.8872789","2.333914",NA,"4.8","31","electronics_store home_goods_store point_of_interest store establishment"
"ChIJa-m8OlBu5kcRpzil7-3TnAY","Digital Smoker Tourlaque","48.8873356","2.3337101",NA,"4.6","57","point_of_interest store establishment"
"ChIJgfDqO1Bu5kcR0VefkhENSTU","Signe Ascendant Francois","48.8875272","2.3339574",NA,NA,NA,"point_of_interest establishment"
"ChIJt2DOOlBu5kcRYE4P_xn1HAE","LA FABRIQUE DE CURIOSITÉS","48.8873107","2.3337898",NA,NA,NA,"point_of_interest establishment"
"ChIJDbPvs09u5kcRfCL-zRZxwxc","Benedicte Bruel","48.8872974","2.3339142",NA,NA,NA,"point_of_interest establishment"
"ChIJk5VaJVBu5kcRMr452nym9g0","Atelier d'Art Lepic","48.8871988","2.333683",NA,"4.6","5","point_of_interest establishment"
"ChIJY65wM1Bu5kcRpTiSe65xKiw","Docteur Berreur Sylvie","48.8875731","2.3331384",NA,"4","11","doctor health point_of_interest establishment"
"ChIJWYPFLVBu5kcR7KgCP1TCjMY","Carre Blanc Imax Paris","48.8871187","2.3333224",NA,"3","2","real_estate_agency point_of_interest establishment"
"ChIJu-vjLVBu5kcRHWKTZ3_bTY8","Gontran Cherrier","48.8873138","2.3334429","2","4","335","bakery food point_of_interest store establishment"
"ChIJkWSdMlBu5kcRdQDNyEE7SME","CULTURE INDOOR PARIS 18","48.8873111","2.3330517",NA,"4.1","40","point_of_interest store establishment"
"ChIJ20RIN1Bu5kcREclzpmNzgb8","L'Immobilier Parisien","48.8876656","2.3336627",NA,"3.4","30","real_estate_agency point_of_interest establishment"
"ChIJHSK1M1Bu5kcRWd2_YdGmaKA","Virgina Montel","48.8875143","2.3331575",NA,"4.9","20","health point_of_interest establishment"
"ChIJXS8oMVBu5kcReCRijM64fCc","Damremont - Caulaincourt","48.8877231","2.3336495",NA,NA,NA,"bus_station transit_station point_of_interest establishment"
"ChIJn0vfMVBu5kcR3Kr41zwPxME","Les Tendes Années","48.8872977","2.3334242",NA,NA,NA,"point_of_interest establishment"
"ChIJnaf68Ndv5kcRoVLpy4U0mo0","innovation paris","48.8877094","2.3333251",NA,"5","1","painter general_contractor point_of_interest establishment"
"ChIJiZtI4Rdv5kcRZBYA7_uuoVo","AgenC","48.8877094","2.3333251",NA,NA,NA,"point_of_interest establishment"
"ChIJ54T1JFBu5kcRGNTZgdoPUqI","Bigot Benoit","48.8872715","2.3338728",NA,NA,NA,"general_contractor point_of_interest establishment"
"ChIJD7fiBh9u5kcRYJSMaMOCCwQ","Paris","48.856614","2.3522219",NA,NA,NA,"locality political"
"ChIJswMuLlBu5kcRrfqqTCwzAjs","Bernard Dominique","48.8875205","2.3331425",NA,"5","2","health point_of_interest establishment"
"ChIJuV5Ha6Fv5kcRDPvWG4mgd3M","Henri de Toulouse-Lautrec's House and Studio","48.8875097","2.3331344",NA,"3.7","18","museum point_of_interest establishment"
"ChIJq5-BM1Bu5kcRlldco3lIWjY","Dore Christophe","48.8875731","2.3331384",NA,"4","1","point_of_interest establishment"
"ChIJ6cGcM1Bu5kcRQ2Z59TcMr-Y","Bouix Jean-Claude","48.8875731","2.3331384",NA,"2.3","3","doctor health point_of_interest establishment"
"ChIJ6cGcM1Bu5kcRZ7AeFcC9udU","Zouari Dyna","48.8875731","2.3331384",NA,"1","1","doctor health point_of_interest establishment"
"ChIJOUb4MlBu5kcRnwC0Ue60gjU","Millaray Atelier","48.8874232","2.3331417",NA,NA,NA,"store point_of_interest establishment"
"ChIJ__8TNlBu5kcReYQ66LZdQsY","Ma Chouette Compagnie","48.8878643","2.3334276",NA,NA,NA,"point_of_interest establishment"
"ChIJU7JEI1Bu5kcRTMY-OStD-g4","Tourlaque","48.8873134","2.3341389",NA,"3","1","transit_station point_of_interest establishment"
"ChIJCwknPVBu5kcRioZXmLwFH8M","As Lepic","48.8873279","2.3342037",NA,NA,NA,"point_of_interest establishment"
"ChIJpXrPLVBu5kcRgQ00j2gqp-s","Uzan Michel","48.8871248","2.333328",NA,"4.7","26","dentist health point_of_interest establishment"
