"Id","Name","Lat","Lng","Rating","Nb_Rating","Type","Price_level"
"ChIJZ7qG42Vu5kcROMjEYbhQECY","43-35 Rue Myrha","48.8870518","2.3530268",NA,NA,"route",NA
"ChIJGeBV72Vu5kcRxpnQHVsAxfo","La Goutte D'ordinateur","48.8871724","2.3533412","5","5","point_of_interest establishment",NA
"ChIJaZCN5GVu5kcRKUuyTIvLUXU","Islamic Bookstore Sana","48.8870167","2.3530567","4.4","26","book_store point_of_interest store establishment",NA
"ChIJZ_Tb5GVu5kcRiG9yAwaQmDQ","SAWA Shoes","48.8869524","2.3531266","4.4","31","shoe_store point_of_interest store establishment",NA
"ChIJlZeb42Vu5kcRvEVHtUWGGHw","House Château Rouge","48.8870877","2.3529271","3.9","79","clothing_store point_of_interest store establishment",NA
"ChIJ7cGzrZFt5kcRTaoGur9dMDY","Acrobates Films","48.8871833","2.3529778",NA,NA,"point_of_interest establishment",NA
"ChIJmwAz_WVu5kcR6UqamC92GHg","La Régulière","48.8868925","2.3527408","4.8","106","book_store cafe food point_of_interest store establishment",NA
"ChIJXzmR6GVu5kcRl8M0n0OkYLo","L'Embuscade","48.8873253","2.3533528","4.6","10","bar point_of_interest establishment",NA
"ChIJY3tO4GVu5kcRwFn7lE9u2qs","Françoise Bricaut","48.8873524","2.3528568",NA,NA,"point_of_interest establishment",NA
"ChIJub_a_WVu5kcRSTBXbJdy0jI","Accueil Laghouat","48.8866977","2.3526839","4.6","10","point_of_interest establishment",NA
"ChIJJbUTaGVu5kcR4iL5Bj3z5nw","AU FIL DES VOIX","48.8872359","2.3536515",NA,NA,"point_of_interest establishment",NA
"ChIJQ1UJ8GVu5kcRzuhG5B4RXw4","SCM du Square Léon","48.8868256","2.3532292",NA,NA,"doctor health point_of_interest establishment",NA
"ChIJ9YJC5GVu5kcRHXGN5JWZNuM","Koyaka Kitchen Restaurant","48.8871001","2.353078","3.8","23","restaurant food point_of_interest establishment",NA
"ChIJG0i05WVu5kcRnMqDtrzDDtw","Zareen","48.8871172","2.3531834",NA,NA,"point_of_interest establishment",NA
"ChIJCWx15WVu5kcR2o4nVMnR8II","Rayan Sandw","48.8870453","2.3532559",NA,NA,"point_of_interest establishment",NA
"ChIJqXN35GVu5kcRGjE9fR4O0kE","Atelier One Planet","48.8871833","2.3529778",NA,NA,"point_of_interest establishment",NA
"ChIJx0cg5GVu5kcRkzsls7ABus0","Église Évangélique Du Nazaréen","48.8872028","2.3530921",NA,NA,"church place_of_worship point_of_interest establishment",NA
"ChIJr0eO72Vu5kcRZrJjJfG1ab0","Pala Pala Music","48.8869947","2.3533706","4","5","electronics_store home_goods_store point_of_interest store establishment",NA
"ChIJQ1UJ8GVu5kcRcGeTsYz8ekM","Coulaud Pierre","48.8868212","2.3532359",NA,NA,"doctor health point_of_interest establishment",NA
"ChIJD7fiBh9u5kcRYJSMaMOCCwQ","Paris","48.856614","2.3522219",NA,NA,"locality political",NA
"ChIJ19TM-Etv5kcRn3Upb-6plQs","Thuillierreinet","48.8868925","2.3527408",NA,NA,"point_of_interest establishment",NA
"ChIJ8cwS4mVu5kcRGM2tgt_uzNA","Pilote","48.8871398","2.3526926",NA,NA,"point_of_interest establishment",NA
"ChIJ8cwS4mVu5kcR76xD3FejmLc","mathieu-mermillon","48.8871398","2.3526926",NA,NA,"point_of_interest establishment",NA
"ChIJswEw_WVu5kcRZUML-dIDx1M","Constructions Incongrues","48.8868633","2.3527498",NA,NA,"point_of_interest establishment",NA
"ChIJATP65WVu5kcRjZZYb1C9xlc","Arawak Experience - Séjours sur mesure au Costa Rica","48.886863","2.35275","5","1","travel_agency point_of_interest establishment",NA
"ChIJQ1UJ8GVu5kcRfbcl3fRhHK8","Giannotti Agnès","48.886831","2.3533411","4.5","8","doctor health point_of_interest establishment",NA
"ChIJGQmc6GVu5kcR-vlzRNfRrXw","Haddad Samir","48.8872649","2.3532891","5","1","point_of_interest establishment",NA
"ChIJSxenq2Vv5kcRnJlR-55LDzs","Docteur Stéphanie Callard","48.8868488","2.3533787",NA,NA,"doctor health point_of_interest establishment",NA
"ChIJn8vQN7Fv5kcR_vXvfzWHpHg","Fusionvid Media","48.8868488","2.3533787",NA,NA,"point_of_interest establishment",NA
"ChIJaUWHc9Rv5kcRXwJwvN8n-RA","LATIM","48.8868488","2.3533787",NA,NA,"point_of_interest establishment",NA
"ChIJ7Wl_S_ht5kcRXsbvbqYjwtA","Dress like a parisian - personal shopper and stylist","48.8868488","2.3533787","5","29","health point_of_interest establishment",NA
"ChIJJbP57mVu5kcRmWvPhCrVLNU","Boulangerie Tembely","48.887079","2.353625","4.5","126","bakery food point_of_interest store establishment","2"
"ChIJ-ff38GVu5kcR9hAqk36_AuI","Pharmacie Hadjali","48.8868353","2.3535481","4.6","7","pharmacy health point_of_interest store establishment",NA
"ChIJxTmy_WVu5kcRoqtw04VNfzk","Atelier Bartavelle","48.8866818","2.3528132",NA,NA,"point_of_interest establishment",NA
"ChIJ1_uyX4dv5kcRwUu-J1MxYUg","Lucy Leroy","48.8873953","2.3527848",NA,NA,"point_of_interest establishment",NA
"ChIJj-eRpbNv5kcRTkClEZz8v_w","3615 radio","48.8866585","2.3528142",NA,NA,"point_of_interest establishment",NA
"ChIJxy2Q6GVu5kcRUUVonsZdvFA","Le Djamel Hallal Kebab-Chicken-Burger","48.8873773","2.3533921","4.4","11","restaurant food point_of_interest establishment",NA
"ChIJpWx86GVu5kcR-EMQuj0pVVc","Dr. Benedicte Lafarge","48.8873773","2.3533921",NA,NA,"doctor health point_of_interest establishment",NA
"ChIJN54tBmZu5kcR8TUrhqWTQKg","MSK Entreprise de rénovation générale","48.8868733","2.3524321",NA,NA,"point_of_interest establishment",NA
"ChIJN54tBmZu5kcRnINtEGgja-Y","Sow Mamadou","48.8868733","2.3524321",NA,NA,"point_of_interest establishment",NA
"ChIJpSX362Vu5kcRjq7yQ8SLwBA","Diam International","48.8868733","2.3524321","5","1","point_of_interest establishment",NA
"ChIJgRptCGZu5kcRROfO6WjzZf0","Philemon Servandieu","48.8868733","2.3524321","5","1","point_of_interest establishment",NA
"ChIJIUIPCiNv5kcRGVgX_il6_JE","Kuti","48.8872359","2.3536515","5","3","restaurant food point_of_interest establishment",NA
"ChIJASV3Fx1v5kcRQ2srgrtZWCY","JDC AFRICA","48.8874779","2.3528678",NA,NA,"grocery_or_supermarket bar liquor_store restaurant food point_of_interest store establishment",NA
"ChIJbQFNSoxv5kcRywBjOJgvFUs","SOS Pneu creve paris","48.8874779","2.3528678","5","4","point_of_interest establishment",NA
"ChIJeS-6C2Zu5kcRzuILrThFyXo","Guinee Store","48.8872819","2.3524553","4.5","2","grocery_or_supermarket food point_of_interest store establishment",NA
