"Id","Name","Lat","Lng","Price_level","Rating","Nb_Rating","Type"
"ChIJkV1HaVRu5kcR8wraHSAL4RE","249-245 Rue Marcadet","48.892795","2.3287902",NA,NA,NA,"route"
"ChIJkYFrZlRu5kcRVe6DegBIb9A","ABEL LOCATION - Monte Meubles Location","48.8926801","2.3289285",NA,"4","8","moving_company point_of_interest establishment"
"ChIJkw09EVRu5kcRlmiCHJd12QA","PCP photographie","48.8928084","2.3291301",NA,"4.4","64","point_of_interest establishment"
"ChIJ1-bCaFRu5kcRKyva8WYX52U","Esis","48.8926871","2.3284625",NA,NA,NA,"point_of_interest establishment"
"ChIJo-cpaFRu5kcRkrZe_roOIyM","Benoit Guillaume","48.8928959","2.3285738",NA,NA,NA,"point_of_interest establishment"
"ChIJo-cpaFRu5kcRDrrddXold5Y","Trentesaux Constance","48.8928959","2.3285738",NA,NA,NA,"point_of_interest establishment"
"ChIJo-cpaFRu5kcRIUlF0MfUCOI","Antonio Cacciatore","48.8928984","2.3286153",NA,NA,NA,"point_of_interest establishment"
"ChIJ5wmoZ1Ru5kcRhYewfWs7RBc","Marguenot Didier","48.8929321","2.3283945",NA,"1","1","insurance_agency point_of_interest establishment"
"ChIJB4gdFRRu5kcRCWjpWhyuWzQ","Agence d'Architecture Philippe Medioni","48.8929409","2.3285732",NA,"5","2","point_of_interest establishment"
"ChIJyWY8Z1Ru5kcRyBOUS4T3o4Q","Cnd Enterprise","48.8929669","2.3282374",NA,"1.3","4","point_of_interest establishment"
"ChIJI3ziXVRu5kcRctOL5iJC3RM","Cnd Enterprise","48.8929672","2.3282362",NA,NA,NA,"point_of_interest establishment"
"ChIJeUcjYVRu5kcRtGkOeBo44EI","Boulanger Artisan Pâtissier","48.8928751","2.328077",NA,"4.4","12","bakery food point_of_interest store establishment"
"ChIJyS1vXVRu5kcR2CBk-fcBi-4","Sakanaya","48.8931252","2.328533","1","4.5","54","restaurant food point_of_interest establishment"
"ChIJzZnXXVRu5kcROhyzTfTpFTE","AVISIO TRAVEL","48.8931031","2.3283533",NA,"5","6","travel_agency point_of_interest establishment"
"ChIJEZsfe1Ru5kcRi2olppu2mrQ","Town Hall","48.8928933","2.3279833",NA,NA,NA,"point_of_interest establishment"
"ChIJZQQTXVRu5kcRsSxyzBPjoRc","La Cordonnerie","48.8931356","2.3284139",NA,"2.7","6","point_of_interest establishment"
"ChIJDdGlaFRu5kcRFO1HI7OHPK0","Djenna","48.8926871","2.3284625",NA,NA,NA,"point_of_interest establishment"
"ChIJZ4x9a1Ru5kcRCc_8iMPXx78","Banari Marcel","48.8926871","2.3284625",NA,NA,NA,"general_contractor point_of_interest establishment"
"ChIJZ4x9a1Ru5kcR6Q_U24n2n9A","Leclercq Stephane","48.8926871","2.3284625",NA,NA,NA,"electronics_store point_of_interest store establishment"
"ChIJD7fiBh9u5kcRYJSMaMOCCwQ","Paris","48.856614","2.3522219",NA,NA,NA,"locality political"
"ChIJ1-bCaFRu5kcRSd3y-X1vO5Y","Tintine Roselyne","48.8926871","2.3284625",NA,NA,NA,"point_of_interest establishment"
"ChIJ1-bCaFRu5kcRsjshd4KxAlM","Trans Mosenga","48.8926871","2.3284625",NA,NA,NA,"moving_company point_of_interest establishment"
"ChIJidQWZlRu5kcRhkYS7k0Ur2U","Espace coiffure","48.8928062","2.3284382",NA,"4.5","2","hair_care point_of_interest establishment"
"ChIJnSDia1Ru5kcRmoHcXpzbpNA","Le Christophe Colomb","48.892863","2.3287407",NA,"4.1","10","bar restaurant food point_of_interest establishment"
"ChIJP2Z3aVRu5kcRK6mF5goue8g","Fico","48.8928828","2.3288057",NA,NA,NA,"point_of_interest establishment"
"ChIJ47uj1wxv5kcRYpZEw7o8ocw","Abel Location Monte-Matériaux","48.8926865","2.3289861",NA,NA,NA,"point_of_interest establishment"
"ChIJSRIAiIpv5kcRVTn98wEjNlQ","Monte Matériaux Location Paris","48.8926865","2.3289861",NA,NA,NA,"moving_company point_of_interest establishment"
"ChIJ3YlkbFRu5kcRma12gJIR20A","Pharmacie Farsi","48.8926865","2.3289861",NA,NA,NA,"point_of_interest establishment"
"ChIJ6e7-RKlv5kcRJQBUBaT17Dc","Séances de Reiki, Reikibunseki®, Bien Être, Cedric Houplain","48.8928097","2.328998",NA,NA,NA,"health point_of_interest establishment"
"ChIJ5wmoZ1Ru5kcRlxEmcO3xUQE","Assurance Paris Montmartre Aviva","48.892942","2.3283517",NA,NA,NA,"insurance_agency finance health point_of_interest establishment"
"ChIJ8YEE87dv5kcRKEaHyRAHpPE","Sanatkar terzi","48.8926848","2.329062",NA,NA,NA,"point_of_interest establishment"
"ChIJmUSQbFRu5kcRCi4xuq2oLl8","Efrayim création","48.8926848","2.329062",NA,"5","3","point_of_interest establishment"
"ChIJgTzzZlRu5kcRo0_GjgnnDKc","Guy Moquet","48.8928708","2.3282189",NA,"5","1","transit_station point_of_interest establishment"
"ChIJEZsfe1Ru5kcRDBOxco4CsXM","Beaute d'horizon","48.8928376","2.3281647",NA,"5","1","point_of_interest establishment"
"ChIJV_AoNaxz5kcRH3hejjs2Ma4","Dr Romain PEREZ - Paris 18 - Chirurgie Orale et Implantologie - Injections Acide Hyaluronique","48.8926164","2.32917",NA,"5","44","doctor dentist health point_of_interest establishment"
"ChIJLVPLbFRu5kcRbRtHfOGEOFc","Ksk Alimentation","48.8926164","2.32917",NA,"2","2","grocery_or_supermarket food point_of_interest store establishment"
"ChIJj9C0hVRu5kcRDaRYnzAs_TI","Ada I Location voiture et utilitaire Paris 18 - Championnet","48.8930955","2.3284197",NA,"2.4","40","car_rental point_of_interest establishment"
"ChIJ97RnXVRu5kcRqe-7ZxT5-VI","Lux Associes","48.8930955","2.3284197",NA,NA,NA,"point_of_interest establishment"
"ChIJrwvcXVRu5kcRv_YYGC3QzeM","Alain Coiffure","48.8930955","2.3284197",NA,"4.3","6","hair_care point_of_interest establishment"
"ChIJrwvcXVRu5kcRFhUcIuRGaAM","Schafer Didier","48.8930955","2.3284197",NA,NA,NA,"health point_of_interest store establishment"
"ChIJrwvcXVRu5kcRU_1NkYfnVrs","Casters Dominique","48.8930955","2.3284197",NA,"2.5","8","point_of_interest establishment"
"ChIJT_XDzO1v5kcRZTNn6bxjrtA","ECO PC 75","48.8928972","2.3279878",NA,"5","1","electronics_store point_of_interest store establishment"
"ChIJf_GtYFRu5kcRH4qYOxcB3O8","Ckn Entreprise","48.8930299","2.3281431",NA,NA,NA,"point_of_interest establishment"
"ChIJkVlAEmlv5kcRkD4wessrE_o","CKN ENTREPRISE REPARATION TELEPHONE MOBILE ET ORDINATEUR DEBLOCAGE, TRANSFERT D'ARGENT","48.8930299","2.3281431",NA,NA,NA,"finance point_of_interest store establishment"
"ChIJ__-vYFRu5kcRrWCIcP33rDY","Aa Brothers","48.8930286","2.328117",NA,NA,NA,"point_of_interest establishment"
"ChIJn2FaTuJv5kcRpuMvhJYhHQw","Tout est moins cher","48.8930286","2.328117",NA,NA,NA,"point_of_interest store establishment"
"ChIJ__-vYFRu5kcRW8Xf7Hf14W4","HY-BOT SYSTEM","48.8930286","2.328117",NA,NA,NA,"point_of_interest establishment"
