"Id","Name","Lat","Lng","Rating","Nb_Rating","Type"
"ChIJD7fiBh9u5kcRYJSMaMOCCwQ","Paris","48.856614","2.3522219",NA,NA,"locality political"
"ChIJ6_dW9vNv5kcRV6fzY1VyJcA","Parfois","48.8821484","2.3574273","3.8","15","shoe_store jewelry_store point_of_interest clothing_store store establishment"
"ChIJndAC-G5u5kcRZjR8EA7BZpY","KIKO","48.8820286","2.3573695","2.8","116","point_of_interest store establishment"
"ChIJe_Mqy21u5kcRfL38E3Dqnig","MANGO","48.8824254","2.3578604","3.4","54","clothing_store point_of_interest store establishment"
"ChIJa-_TpQ1v5kcRjADr5gydDHs","Toilettes","48.8823376","2.3574964",NA,NA,"point_of_interest establishment"
"ChIJIYse4nFu5kcRVz8SWq1C94M","Gare du Nord","48.882061","2.357899","3","1","transit_station point_of_interest establishment"
"ChIJTbMkrQxu5kcR4BqUaMOCCwU","10th arrondissement of Paris","48.8785161","2.3540347",NA,NA,"sublocality_level_1 sublocality political"
