"Id","Name","Lat","Lng","Rating","Nb_Rating","Type"
"ChIJs9K1x4Fu5kcRW0Xw33vtjuE","2-18 Rue Gaston Darboux","48.8995192","2.3691456",NA,NA,"route"
"ChIJMSNZyIFu5kcRVJ6UxGwHfT0","Amicale des Locataires CNL","48.8990565","2.3692758",NA,NA,"point_of_interest establishment"
"ChIJSerpr4Fu5kcRAANG1CCeLTc","La Pomme","48.8991032","2.3683523","4","3","point_of_interest establishment"
"ChIJLagoroFu5kcRR8Q5Q33oy-0","Centre Hospitalier De Maison Blanche","48.8990855","2.368345",NA,NA,"hospital health point_of_interest establishment"
"ChIJdb9DuoFu5kcRAm7Ga2IdMAc","Keita Fanta","48.8993091","2.3686726","5","1","point_of_interest establishment"
"ChIJ-y-auYFu5kcRfylYVfUa8tg","Desir Jean","48.8993091","2.3686726",NA,NA,"point_of_interest establishment"
"ChIJ-T4dloFu5kcRHS-mZE_mlPo","Family Day Care Charles Hermite","48.8996989","2.368788",NA,NA,"point_of_interest establishment"
"ChIJJ8sDloFu5kcRVG4PCygchtU","Protection Maternelle Infantile et Halte Garderie","48.8996777","2.3684871",NA,NA,"point_of_interest establishment"
"ChIJD7fiBh9u5kcRYJSMaMOCCwQ","Paris","48.856614","2.3522219",NA,NA,"locality political"
