"Id","Name","Lat","Lng","Price_level","Rating","Nb_Rating","Type"
"ChIJhTXKmNlt5kcRcgCj4SgQ5Ck","31-25 Avenue Jean Jaurès","48.8836935","2.3736694",NA,NA,NA,"route"
"ChIJlaw9nNlt5kcRgAQ88QPvDjs","Alina","48.8834627","2.3737259",NA,NA,NA,"restaurant bar food point_of_interest establishment"
"ChIJ5QGQnNlt5kcRBLmLektxnPo","A.C.M.S Jean Jaurès","48.8836814","2.3742887",NA,"5","1","health point_of_interest establishment"
"ChIJlaw9nNlt5kcR1ebDG4j_OcI","FM Com","48.8834627","2.3737259",NA,NA,NA,"point_of_interest establishment"
"ChIJaXIcn9lt5kcRsaxmOh0VHv4","Le Florent","48.8835106","2.3736788",NA,"3.9","13","bar point_of_interest establishment"
"ChIJgyqum9lt5kcRBuYKpWhDgFQ","La Poste","48.8839439","2.373964",NA,"1.9","52","post_office finance point_of_interest establishment"
"ChIJZa45otlt5kcRW18JS25shAI","AGENCE UP","48.8838244","2.3733603",NA,NA,NA,"point_of_interest establishment"
"ChIJCVTEn9lt5kcRMUNKISFLiwI","Trad'est","48.8833833","2.3735353",NA,NA,NA,"point_of_interest establishment"
"ChIJ5TAFo9lt5kcRLF14a0jDLBI","Meddane Mohammed","48.8838383","2.373263",NA,"3.3","10","doctor health point_of_interest establishment"
"ChIJ5QGQnNlt5kcRQsaN-NAQsnM","Shokado","48.8836093","2.3739872","2","4.1","233","bar restaurant food point_of_interest establishment"
"ChIJH0itptlt5kcRlsObK04sc9g","C'est Tout Vu","48.8837484","2.3732179",NA,"3.7","30","home_goods_store point_of_interest store establishment"
"ChIJF6ZGmdlt5kcRHhwcK_6MjL8","Joinvilma Angelet","48.8836958","2.3737443",NA,NA,NA,"post_office finance point_of_interest establishment"
"ChIJcYXBA2dt5kcRuKcZp7CT9io","Vaastu restaurant et traiteur indien","48.8835708","2.3738272",NA,"4.8","36","restaurant food point_of_interest establishment"
"ChIJ40zcNc9t5kcRYJmHcVCA7nQ","La Guinguette À Vapeur","48.8835511","2.3736919",NA,NA,NA,"point_of_interest establishment"
"ChIJc9Lrntlt5kcRgTx-xuICBww","Le Chiffre","48.8835511","2.3736919",NA,"4.1","8","point_of_interest establishment"
"ChIJIcuzmdlt5kcRLQYXY2qooOc","Rent Car","48.8838479","2.3736654",NA,"4.3","4","car_rental point_of_interest establishment"
"ChIJy-Tcmdlt5kcRS1Z9ootYzfg","Guerin Aline","48.8839225","2.3737296",NA,NA,NA,"point_of_interest establishment"
"ChIJw2aumdlt5kcRWz7xjs6ZK70","Artisan Boulanger Pâtissier","48.8834627","2.3737259",NA,"3.6","11","bakery food point_of_interest store establishment"
"ChIJ13VBmdlt5kcRMcD8MiKFUQM","Boulangerie Au Bon Pain","48.8834627","2.3737259",NA,"2.3","3","bakery food point_of_interest store establishment"
"ChIJD7fiBh9u5kcRYJSMaMOCCwQ","Paris","48.856614","2.3522219",NA,NA,NA,"locality political"
"ChIJcY23kdlt5kcRFHUw15XWUXk","La Banque Postale","48.8839607","2.3740644",NA,"1.7","15","bank finance point_of_interest establishment"
"ChIJq0ZPox9t5kcRChugdtQyo2w","Rent A Car","48.8838927","2.3735945",NA,NA,NA,"car_rental point_of_interest establishment"
"ChIJ7wY8hdlt5kcRhu9J4H07zPE","Derriche Services","48.8836495","2.3743615",NA,NA,NA,"point_of_interest establishment"
"ChIJsevlndlt5kcRVISyLlDbgxo","PARIS PREMIUM","48.8833779","2.373824",NA,NA,NA,"grocery_or_supermarket finance food point_of_interest store establishment"
"ChIJ6S77ndlt5kcRXzGW1jYrDvQ","Hasle Clement","48.8833779","2.373824",NA,NA,NA,"point_of_interest establishment"
"ChIJOxATGC1t5kcRwvtpXKTxmrk","Diaby","48.8839859","2.3741674",NA,NA,NA,"point_of_interest establishment"
"ChIJW6sNmNlt5kcRexRprcl_-gg","Lav'Story","48.8838913","2.3735091",NA,"4.5","2","laundry point_of_interest establishment"
"ChIJW6sNmNlt5kcRmP4r4l4lJzo","Ravon Ludovic","48.8838913","2.3735091",NA,NA,NA,"point_of_interest establishment"
"ChIJsdf4mNlt5kcRrEdn0JFAM04","Soulard Pascal","48.8838913","2.3735091",NA,NA,NA,"point_of_interest establishment"
"ChIJ8yeZZ2Vt5kcRuUbxuTL25Ck","Trois B","48.8836639","2.3744683",NA,"4.8","169","restaurant food point_of_interest establishment"
"ChIJqcaGhtlt5kcRvmhhCAlhhz0","Basinger Simon","48.8836639","2.3744683",NA,NA,NA,"point_of_interest establishment"
"ChIJZa45otlt5kcRuatKu6GOaNE","Vineuil Diffusion","48.8838244","2.3733603",NA,NA,NA,"point_of_interest establishment"
"ChIJm3gjoNlt5kcReIladSmkwv0","Friendlyfrenchy's","48.8833981","2.3734012",NA,NA,NA,"lodging point_of_interest establishment"
"ChIJQVF0w0lt5kcRbvHscpcXh_8","Stéphane Plaza Immobilier Paris 19","48.8833981","2.3734012",NA,"4.8","65","real_estate_agency point_of_interest establishment"
"ChIJUWDYgNlt5kcR3FMx2C-Tl4o","Volny Anne Max","48.8836245","2.3746037",NA,NA,NA,"doctor health point_of_interest establishment"
"ChIJUWDYgNlt5kcRz4dmR1URxP4","Iphaine Serge","48.8836245","2.3746037",NA,NA,NA,"doctor health point_of_interest establishment"
"ChIJUWDYgNlt5kcRgB0MD4MI5CI","Compagnie de Travaux Antillais","48.8836245","2.3746037",NA,NA,NA,"general_contractor point_of_interest establishment"
