"Id","Name","Lat","Lng","Rating","Nb_Rating","Type"
"ChIJz2VtfH9y5kcRZKWFqzSJ3RY","35-21 Rue de la Croix Saint-Simon","48.8545872","2.408392",NA,NA,"route"
"ChIJYwjfCH9y5kcRnZsVgi7F0MU","Hopital de la Croix Saint-Simon","48.8541165","2.4087816","3.7","220","hospital health point_of_interest establishment"
"ChIJQypq6BVz5kcRZMzKRRa_UcI","Carrefour Drive","48.8541985","2.4079101",NA,NA,"supermarket grocery_or_supermarket food point_of_interest store establishment"
"ChIJYwjfCH9y5kcRMsT5AxqKm7U","Fondation de la Croix Saint Simon","48.8543158","2.4078062","3.9","12","point_of_interest establishment"
"ChIJxTxuYX9y5kcRc8HVfthPD3Q","School Moureau","48.8547223","2.4078941",NA,NA,"school point_of_interest establishment"
"ChIJD7fiBh9u5kcRYJSMaMOCCwQ","Paris","48.856614","2.3522219",NA,NA,"locality political"
