"Id","Name","Lat","Lng","Price_level","Rating","Nb_Rating","Type"
"ChIJV1V_d0Ju5kcRpf4YyfasHuI","Boulevard de Rochechouart","48.8831995","2.3465671",NA,NA,NA,"route"
"ChIJcXSM2Glu5kcRwoDxIV6hws4","Le Panorama","48.8830457","2.3467237","2","3.9","936","restaurant food point_of_interest establishment"
"ChIJLd9f3mlu5kcRMgofyzbFgRM","Blondin-Moguelet Sophie","48.8827197","2.3469637",NA,"3.8","18","doctor health point_of_interest establishment"
"ChIJ9Xsc3mlu5kcRMP7mhPRgcCc","LE COMPTOIR À PERLES","48.882631","2.3469368",NA,"4.4","55","point_of_interest store establishment"
"ChIJG0ikc0Ju5kcRO4pp7QpEqns","Mini Market","48.8828211","2.3461576",NA,NA,NA,"point_of_interest establishment"
"ChIJD4FfcUJu5kcRLcyCdY9vd_Y","Au Garage a Velos","48.882934","2.3462248",NA,"4.1","107","bar restaurant food point_of_interest establishment"
"ChIJ50rFdkJu5kcRQ0hTPT9pMso","Alexandre","48.8830567","2.346374",NA,NA,NA,"food point_of_interest establishment"
"ChIJjd5WcEJu5kcRTw0HpJcZNVg","Guerrisol","48.8830938","2.3464428",NA,"3.9","106","point_of_interest clothing_store store establishment"
"ChIJK0eyC0Ju5kcRgXMvy4PnGww","Inter Express Business","48.8824201","2.3464325",NA,"2.6","18","point_of_interest establishment"
"ChIJx8iSDEJu5kcRT5EjM27QLHI","OMILLIEME CREATIVE LAB","48.8825158","2.3461949",NA,NA,NA,"point_of_interest establishment"
"ChIJ38to2Wlu5kcRhgzxl58ynvY","KLIKON","48.8829644","2.3470647",NA,"4.5","2","point_of_interest establishment"
"ChIJd9RKjl5u5kcR6GLfOtJ0scA","Edatis","48.882964","2.347032",NA,"2","4","point_of_interest establishment"
"ChIJg6OCxGlu5kcRvvlXHMgPa0s","Saigon Deli","48.8829641","2.3470321","1","4.6","277","restaurant food point_of_interest establishment"
"ChIJ38to2Wlu5kcRcBJi_vqnHtU","FRA Architectes","48.8829644","2.3470647",NA,NA,NA,"point_of_interest establishment"
"ChIJ38to2Wlu5kcRh5b6A5pv188","Cach Sa","48.8829644","2.3470647",NA,NA,NA,"point_of_interest establishment"
"ChIJ38to2Wlu5kcRsRIYVbNrrYs","Dawa Productions","48.8829644","2.3470647",NA,NA,NA,"point_of_interest establishment"
"ChIJb3PqERZu5kcRwy8AFb2FiQ8","Hub Score","48.882964","2.347065",NA,"5","1","point_of_interest establishment"
"ChIJg6OCxGlu5kcRcVbaqpHXzdo","Has","48.8829644","2.3470647",NA,NA,NA,"local_government_office health point_of_interest establishment"
"ChIJj-N8ckJu5kcRkewxGyVlvjI","Maxe Creatrice","48.8828004","2.345989",NA,"5","2","point_of_interest establishment"
"ChIJD7fiBh9u5kcRYJSMaMOCCwQ","Paris","48.856614","2.3522219",NA,NA,NA,"locality political"
"ChIJadiMrllu5kcRO-Wf2QE1sN4","Hélène Davergne","48.8828004","2.345989",NA,"5","3","point_of_interest establishment"
"ChIJafR8EkJu5kcRcswD3drLZx8","E-Book Fantasy","48.8824925","2.3460807",NA,NA,NA,"point_of_interest establishment"
"ChIJ38to2Wlu5kcRTz7B9-9t9OE","Daikichi Sushi","48.8830321","2.3469872",NA,"4.2","39","meal_takeaway restaurant food point_of_interest establishment"
"ChIJG9nIhlVu5kcRuDN9boKBZgQ","Onickz Artworks","48.8829761","2.3460117",NA,NA,NA,"point_of_interest establishment"
"ChIJn5dl2Wlu5kcRmUMQ0kYGZOg","TycheCloud","48.8830321","2.3469872",NA,NA,NA,"point_of_interest establishment"
"ChIJnywB4Glu5kcRNdnxBUyr8B4","Adam's Cuir","48.8826188","2.3466183",NA,"4.7","3","point_of_interest clothing_store store establishment"
"ChIJVTdbdkJu5kcRhZxutJeXdf8","FM Coiffure","48.8829126","2.3462662",NA,NA,NA,"hair_care point_of_interest establishment"
"ChIJnywB4Glu5kcRmVXaSqpjyoI","Hotel du Delta","48.8826288","2.3466222",NA,"3.6","16","lodging point_of_interest establishment"
"ChIJESQM2Glu5kcRTIR2AWNR4NI","La Blouse de Lyon","48.8830245","2.3464276",NA,"4.6","30","clothing_store point_of_interest store establishment"
"ChIJpVoXL6hv5kcRoakQ_F3MceA","E.Leclerc Relais Rochechouart","48.8827518","2.3465825",NA,"3.2","13","supermarket grocery_or_supermarket food point_of_interest store establishment"
"ChIJ16xjdEJu5kcRc0uK7CFzXoc","Indian canteen","48.8827996","2.3464577","1","3.5","8","restaurant food point_of_interest establishment"
"ChIJM5oWnSFv5kcRdirHM9JeywE","Moorthie’s by pizzatime","48.8827917","2.346452",NA,"5","1","restaurant food point_of_interest establishment"
"ChIJ44xWdEJu5kcRywCj3E9tIOA","Le Soleil Indien","48.8827917","2.346452",NA,NA,NA,"point_of_interest establishment"
"ChIJxcHkdUJu5kcR7jtIufHo-FM","Le Pacha","48.8828322","2.3466814",NA,"3.8","5","restaurant food point_of_interest establishment"
"ChIJ6-6-eUJu5kcRIByqGE5hv7k","M&J Restauration","48.882646","2.3466465",NA,NA,NA,"point_of_interest establishment"
"ChIJXYdjc0Ju5kcR8E99zvvMNuA","Anne Mallet Ostéopathe D.O.","48.8826835","2.3463602",NA,NA,NA,"health point_of_interest establishment"
"ChIJYfw4h2lu5kcR9ZEBb2ADMow","Ragu Veronique","48.8826876","2.3463506",NA,NA,NA,"health point_of_interest establishment"
"ChIJs8V1dkJu5kcRqRkxbgPFX9w","Keycafe","48.882942","2.346561",NA,NA,NA,"point_of_interest store establishment"
"ChIJa9rT3yJv5kcRUooPT2JvY_U","Ponoie","48.8826788","2.3462943",NA,"4.9","40","home_goods_store general_contractor point_of_interest store establishment"
"ChIJj4OdxGlu5kcR9SVIzfwYGU4","Bell Intone","48.8825521","2.3465361",NA,"5","5","point_of_interest establishment"
"ChIJsd4C4Glu5kcRVZ0XZUeP-F0","Sarl Chohan Telecom","48.882549","2.346619",NA,NA,NA,"store travel_agency point_of_interest establishment"
"ChIJc7lA4Glu5kcRCHhZ_GNalM0","Adèle Coiffure","48.882549","2.346619",NA,"1","1","hair_care point_of_interest establishment"
"ChIJZynVh0Nv5kcRabEPWWUayoU","Station vélib n°9004 Gérando","48.8829432","2.3464263",NA,NA,NA,"point_of_interest establishment"
"ChIJrdGJvzBv5kcRcAtgCFrXv34","Kazu","48.8828089","2.3469039",NA,"5","21","restaurant food point_of_interest establishment"
"ChIJ51vb4Glu5kcR4bi_97S6_v4","Royal Rochechouart","48.8826272","2.3469094",NA,"4","4","meal_takeaway restaurant food point_of_interest establishment"
"ChIJLd9f3mlu5kcRzoUHnI2gk8I","Saya Carole","48.8827197","2.3469637",NA,"3.9","14","doctor health point_of_interest establishment"
"ChIJLd9f3mlu5kcRnKCcoK4053I","Creantor Lingling","48.8827197","2.3469637",NA,NA,NA,"point_of_interest establishment"
"ChIJwdnkc0Ju5kcRoJxjpgutdEc","Kds","48.8829126","2.3462662",NA,NA,NA,"point_of_interest establishment"
"ChIJwdnkc0Ju5kcRGUG7pTPM_7A","Cafe Papillon","48.8829126","2.3462662",NA,NA,NA,"cafe food point_of_interest establishment"
"ChIJmZqUc0Ju5kcROhbaBdYhR5Q","Rochechouart - Clignancourt","48.8830145","2.3464938",NA,NA,NA,"transit_station point_of_interest establishment"
"ChIJa15xa25v5kcRtofWd5XQQVw","Cabinet infirmier Gerando","48.882597","2.346262",NA,NA,NA,"health point_of_interest establishment"
"ChIJZzTcmENu5kcR9r25Tj98g_A","Aline Goby","48.8825969","2.3462621",NA,"5","5","physiotherapist health point_of_interest establishment"
"ChIJt0Kl6kVv5kcRdwgBfHLBof4","Infirmier Paris 9em","48.8825969","2.346262",NA,"5","1","health point_of_interest establishment"
"ChIJ6WuUe-tv5kcRGFQ8LZVJCcg","CENTRE SANTE ANVERS","48.8825969","2.346262",NA,"5","1","physiotherapist health point_of_interest establishment"
"ChIJjSevDEJu5kcRbvMwgeaqJdA","Clémence LANNAY - OSTÉOPATHE D.O","48.8825969","2.346262",NA,"5","9","health point_of_interest establishment"
"ChIJ573LDEJu5kcRVxQHNQ-2low","Totem Transports","48.8825969","2.346262",NA,NA,NA,"moving_company point_of_interest establishment"
"ChIJUyEcrr5v5kcRroi7T-3e-Dc","Désir Libanais","48.8824888","2.3466107",NA,"4.3","66","restaurant food point_of_interest establishment"
"ChIJxwFgpW9v5kcRQemzQcty3Pk","Walk Take Wok","48.8824986","2.3464626",NA,"5","8","restaurant food point_of_interest establishment"
"ChIJFxf9CkJu5kcR8z8prpAsFjo","PIZZA LA CASA","48.8824986","2.3464626",NA,"4.7","30","meal_takeaway restaurant food point_of_interest establishment"
"ChIJFxf9CkJu5kcRzOt2xOxxo_U","Tiny Cosy Nest In Pigalle","48.8824986","2.3464626",NA,NA,NA,"lodging point_of_interest establishment"
