"Id","Name","Lat","Lng","Price_level","Rating","Nb_Rating","Type"
"ChIJvfVNPuZt5kcRl9c-izxKAd0","14-28 Rue Denoyez","48.8720381","2.3783186",NA,NA,NA,"route"
"ChIJA1WKFuZt5kcRTGuwfpvvqz8","Albert Retouches","48.8717554","2.3785108",NA,"4.6","5","point_of_interest establishment"
"ChIJx5kbFuZt5kcRW-CNcdJqTzQ","La Maison De La Plage","48.8718638","2.3785159",NA,NA,NA,"point_of_interest establishment"
"ChIJyzvdFuZt5kcRO_Gb84ElkbI","Le Grand Bain","48.871651","2.378566","2","4.5","399","bar restaurant food point_of_interest establishment"
"ChIJkc5ROext5kcRyH-jyOWfIdo","Anne Benveniste - Ocréambre","48.871522","2.378783",NA,"5","1","point_of_interest establishment"
"ChIJwxgIFuZt5kcRxbaAp8t7HCc","Oscart Bat","48.8718564","2.378517",NA,NA,NA,"point_of_interest establishment"
"ChIJKUQ1TsBCCkgRiGXaP1rXr2U","AMP Consultants - Agence Ouest","48.872086","2.3791955",NA,NA,NA,"point_of_interest establishment"
"ChIJM00XOE9t5kcR5LCjjzn1Bp8","Retoucherie de Paris","48.8716675","2.3785285",NA,NA,NA,"laundry point_of_interest establishment"
"ChIJF9EyGuZt5kcR7hplKIg6kwE","Chanbara 20","48.8715233","2.3789457",NA,NA,NA,"point_of_interest establishment"
"ChIJ04OnTpJt5kcRu64u9ZpDxzA","A.J.A Paris XX","48.8715233","2.3789457",NA,NA,NA,"health point_of_interest establishment"
"ChIJea6jGuZt5kcRAJfnnmijjvc","Club Aikido Des Amandiers","48.8715215","2.3787834",NA,NA,NA,"health point_of_interest establishment"
"ChIJZQkJGuZt5kcRg4QY-u0aqPk","Academy France Wu Tang","48.8715215","2.3787834",NA,NA,NA,"health point_of_interest establishment"
"ChIJ02rREOZt5kcRBNwt51KFq2c","Fruits De Mer","48.8715529","2.3786264",NA,"3","1","point_of_interest establishment"
"ChIJdS58gOJt5kcRohxu8RCsKQo","Académie FRANCE WU TANG - Maître GAO Shi Kui","48.8714822","2.3789075",NA,NA,NA,"health point_of_interest establishment"
"ChIJD7fiBh9u5kcRYJSMaMOCCwQ","Paris","48.856614","2.3522219",NA,NA,NA,"locality political"
