"Id","Name","Lat","Lng","Price_level","Rating","Nb_Rating","Type"
"ChIJxcPr7Elu5kcREjZJ1h1PqhA","10-14 Rue de Clichy","48.8778356","2.3303045",NA,NA,NA,"route"
"ChIJixLu7DBu5kcRQnIpA2tErS8","Google France","48.8773406","2.3299627",NA,"4.4","1542","point_of_interest establishment"
"ChIJV8Dd7Elu5kcRVh7mRpaXjmQ","Sci Du 17 Rue de Clichy","48.8777677","2.3302506",NA,NA,NA,"point_of_interest establishment"
"ChIJ5QuV7Elu5kcRlZWOxtACYcU","Attitude Diffusion, dance items.","48.87797","2.3303251",NA,"3.9","118","point_of_interest store establishment"
"ChIJO-o88Elu5kcRY5WbGnivOS0","Gmail","48.8773819","2.3299899",NA,NA,NA,"point_of_interest establishment"
"ChIJ6Qedkklu5kcRhv-wOuZRC_A","Pialoux Martine","48.8778191","2.330065",NA,NA,NA,"point_of_interest establishment"
"ChIJp7vb6Elu5kcRIBTwkMRxLEY","Kingsbourne International Realty","48.8774112","2.3304521",NA,NA,NA,"real_estate_agency point_of_interest establishment"
"ChIJAQAQ90lu5kcRY2p_dk6ObCw","Ram Gamex Apria R.s.a","48.8774162","2.3295594",NA,NA,NA,"point_of_interest establishment"
"ChIJ4_0l1ENv5kcRPKWQwYJcVy0","ATEXIS","48.87732","2.3304326",NA,NA,NA,"point_of_interest establishment"
"ChIJU6266Elu5kcRRxZ1eeIBVAE","ART OF SKY SAS","48.87732","2.3304326",NA,NA,NA,"point_of_interest establishment"
"ChIJ5-nw6Elu5kcRog-1T0C_ivg","Atexis Recrutement","48.87732","2.330433",NA,"4.6","21","point_of_interest establishment"
"ChIJ6Qedkklu5kcR2mZj1RPTUrM","Le Hollywood","48.8779933","2.3300109","2","3.7","108","bar cafe food point_of_interest store establishment"
"ChIJdY5_iiFv5kcRCD0NCcSK5Bk","Point Nickel","48.8779933","2.3300109",NA,NA,NA,"atm bank finance point_of_interest establishment"
"ChIJkQ1njklu5kcRIPxxbBgbjk8","13 Menthe Basilic","48.877272","2.33048","1","4.6","53","restaurant meal_takeaway food point_of_interest establishment"
"ChIJj_M7k0lu5kcRykQNIkXbbo0","Sur un nuage de lait","48.87797","2.3303251",NA,"4.8","20","cafe food point_of_interest store establishment"
"ChIJj_M7k0lu5kcR7vKARiT61wA","Kollab","48.87797","2.3303251",NA,NA,NA,"point_of_interest establishment"
"ChIJzSAfk0lu5kcRpoNqCkBsZJM","Le Gros Plein De Soupe","48.87797","2.3303251",NA,"4.6","54","restaurant food point_of_interest establishment"
"ChIJX9Wd8klu5kcRwIVmJC55tv4","Etude Bert","48.8780123","2.3301134",NA,NA,NA,"point_of_interest establishment"
"ChIJZeyRXFdv5kcRGwISvfrRnzY","Elementary School Clichy","48.8778554","2.3306076",NA,NA,NA,"school point_of_interest establishment"
"ChIJD7fiBh9u5kcRYJSMaMOCCwQ","Paris","48.856614","2.3522219",NA,NA,NA,"locality political"
