"Id","Name","Lat","Lng","Price_level","Rating","Nb_Rating","Type"
"ChIJvVL25F1u5kcRacTCazkTgsA","17-1 Rue Eugène Sue","48.8910254","2.3464734",NA,NA,NA,"route"
"ChIJtRh6-11u5kcRGpIVLbxrZwU","Diabolo Menthe","48.890886","2.346868",NA,NA,NA,"travel_agency point_of_interest establishment"
"ChIJU2hbWmdu5kcROoGANTAaVV8","FILLS MONKEY","48.890637","2.347128",NA,NA,NA,"point_of_interest establishment"
"ChIJwdma-V1u5kcRhFEzmB3cma4","Maillard","48.8909235","2.3470229",NA,NA,NA,"restaurant food point_of_interest establishment"
"ChIJ55zpCrRx5kcRiCtnyQRlvk0","Tachkent Productions","48.8905334","2.3473569",NA,NA,NA,"point_of_interest establishment"
"ChIJJwtrX2du5kcRIZsWA2Qlbfo","Biercewicz Olivier","48.8905461","2.3473347",NA,NA,NA,"point_of_interest establishment"
"ChIJCQ1m9l1u5kcR97f33dF_hLQ","Siegenfuhr Romain","48.89054","2.3471591",NA,NA,NA,"point_of_interest establishment"
"ChIJ88GR9V1u5kcRjOmI3UMpqz8","Nemella Conseil","48.89054","2.3471591",NA,NA,NA,"point_of_interest establishment"
"ChIJtyZ_-11u5kcRkU01-gak7jQ","Eco-espaces","48.890886","2.3468675",NA,NA,NA,"general_contractor point_of_interest establishment"
"ChIJzRmBVWdu5kcRBuIuNtJt99I","Le Fontenoy","48.8911111","2.3472222","1","4.1","36","bar restaurant food point_of_interest establishment"
"ChIJxU6wWmdu5kcR6qPzR4JD1YA","Little Bros.","48.8908204","2.3478576",NA,NA,NA,"point_of_interest establishment"
"ChIJ7Q3NUWdu5kcRv3i_lhfPBIk","Soussan-Aizenman","48.8909291","2.3479313",NA,"4.4","11","pharmacy health point_of_interest store establishment"
"ChIJtz_M_l1u5kcRfrH-ud7BN3I","La Table d’Eugène","48.8911756","2.3471442","2","4.6","299","restaurant food point_of_interest establishment"
"ChIJp8Xn811u5kcRQIY2OP-uc60","Société Nouvelle Neuville Assurances","48.8904919","2.3468063",NA,NA,NA,"insurance_agency point_of_interest establishment"
"ChIJAyK39l1u5kcRRM6KDBsX8zw","l'atelier de Moussa ""DREAMZ OBIUM""","48.8903904","2.3470118",NA,"3.5","2","point_of_interest store establishment"
"ChIJOZ_A8V1u5kcR2eRtP9CEnU0","Francesco Rivelli","48.8905817","2.3466827",NA,NA,NA,"point_of_interest establishment"
"ChIJ6Tng-11u5kcR6wFugFAREWg","La Rallonge","48.891064","2.346902","2","4.6","246","restaurant food point_of_interest establishment"
"ChIJA-jrVmdu5kcRPFJkUPHhDH4","Ait-rabah Phoptopro Arezki","48.8908859","2.34736",NA,NA,NA,"point_of_interest establishment"
"ChIJAQAA911u5kcRqf4jH-KZe08","Claire Béthencourt","48.890637","2.347128",NA,NA,NA,"point_of_interest establishment"
"ChIJD7fiBh9u5kcRYJSMaMOCCwQ","Paris","48.856614","2.3522219",NA,NA,NA,"locality political"
"ChIJMS0rV2du5kcR1YasLbxawB4","Faure Philippe","48.890637","2.347128",NA,NA,NA,"point_of_interest establishment"
"ChIJ5ab3Vmdu5kcRLcVtsXTB4eg","Simart Anti Nuisible","48.8909898","2.3475191",NA,NA,NA,"point_of_interest establishment"
"ChIJlaUY-V1u5kcRgV4rMliNsqA","Le Forestier Virginie","48.8910288","2.3471354",NA,NA,NA,"general_contractor point_of_interest establishment"
"ChIJ95drX2du5kcR05C4VxmGk_o","Le Bihan Myriam","48.8905461","2.3473347",NA,NA,NA,"point_of_interest establishment"
"ChIJg-eiWGdu5kcRZFqX_0Ab6sw","Montmartre Upto 4","48.8905334","2.3473569",NA,NA,NA,"lodging point_of_interest establishment"
"ChIJCQ1m9l1u5kcRWJ42X45y7Zg","France Authentic","48.89054","2.3471591",NA,NA,NA,"point_of_interest establishment"
"ChIJWwaX9V1u5kcRxm1eku4uIbY","Papon Françoise","48.89054","2.3471591",NA,NA,NA,"point_of_interest establishment"
"ChIJ88GR9V1u5kcR8-QJ79ilJZE","Montet Romain","48.89054","2.3471591",NA,NA,NA,"point_of_interest establishment"
"ChIJRXYeoKtv5kcR-eH0Fpk4a3w","Viager Solution","48.890886","2.3468675",NA,NA,NA,"real_estate_agency point_of_interest establishment"
"ChIJx5lB-l1u5kcRQ6lh1vFvwMw","D. Mesure","48.890886","2.3468675",NA,NA,NA,"point_of_interest establishment"
"ChIJg1N-Vmdu5kcRdI3SyqVzx80","Cordonnerie Clé - Minute","48.891091","2.3475078",NA,NA,NA,"point_of_interest establishment"
"ChIJAyK39l1u5kcRKgQ72Dv7Rzw","Amélie Cannere","48.8905464","2.3469791",NA,"4.2","5","physiotherapist health point_of_interest establishment"
"ChIJAyK39l1u5kcRAKeiDQO0l6A","Benjamin Becherel","48.8905464","2.3469791",NA,NA,NA,"physiotherapist health point_of_interest establishment"
"ChIJAyK39l1u5kcRGpcm8kQ_3AQ","Adeline Brault","48.8905464","2.3469791",NA,"4","4","physiotherapist health point_of_interest establishment"
"ChIJAyK39l1u5kcRryxw1aiOhPM","Robertson Diane","48.8905464","2.3469791",NA,NA,NA,"point_of_interest establishment"
"ChIJK2NzQlGB5kcReVuIjwbKiHc","Interactive Culture Et Education","48.8911771","2.3472377",NA,NA,NA,"point_of_interest establishment"
"ChIJIdQ9_11u5kcR4L-JboJsZfw","Yilufa","48.8911771","2.3472377",NA,NA,NA,"point_of_interest establishment"
"ChIJZ6yxB7Nv5kcRKvLwSDDdZPE","Etablissement Baudin","48.8908081","2.3478675",NA,NA,NA,"home_goods_store point_of_interest store establishment"
"ChIJiaWsqnpu5kcRwXTwuGmwoY8","Restaurant L’Italiano","48.8911639","2.3471014",NA,"4.4","34","meal_delivery meal_takeaway restaurant food point_of_interest establishment"
"ChIJdQa45F1u5kcRNe504ko4V5M","Fitoussi Jonathan Emile","48.8908656","2.3466954",NA,NA,NA,"point_of_interest establishment"
"ChIJIX0bX2du5kcRErPMiZY9yf8","Le Prestige","48.8904152","2.3473954","2","3.8","117","restaurant food point_of_interest establishment"
"ChIJvfI9VGdu5kcRN174eW42FhI","Trang Khay","48.8911698","2.3476231",NA,"4.9","8","point_of_interest establishment"
"ChIJTWP0Z2du5kcRgsdZP6OFhdM","leGoodStaff","48.890448","2.347608",NA,NA,NA,"point_of_interest establishment"
"ChIJvfI9VGdu5kcRwjGN0h4IyEc","Boulangerie Simart de Przystaniak Christophe","48.8911698","2.3476231",NA,"3.4","17","bakery food point_of_interest store establishment"
"ChIJCQ1m9l1u5kcRd0W9z29MgoU","freemousse.bar","48.8903866","2.3471872",NA,"4.6","278","bar restaurant food point_of_interest establishment"
"ChIJ-ZeaW2du5kcRE_Rs0xktO8U","Relais Colis Alimentation Sarl Traders","48.8905107","2.3477798",NA,"1","2","point_of_interest establishment"
"ChIJ4TZ98V1u5kcR16ObozGqskA","Scredconnexion.com","48.8904919","2.3468063",NA,NA,NA,"point_of_interest establishment"
"ChIJ4TZ98V1u5kcRWpBCb16qDxM","Aime Le Rap Français","48.8904919","2.3468063",NA,NA,NA,"point_of_interest establishment"
"ChIJ4TZ98V1u5kcR5mfwDh3Hcsc","Hasan Elsa","48.8904919","2.3468063",NA,NA,NA,"doctor health point_of_interest establishment"
"ChIJKa0dXGdu5kcRBlX_Z5WJKWc","Kadjina Boutique","48.8904179","2.3476483",NA,"3.5","2","store point_of_interest establishment"
"ChIJRYP0W2du5kcRmvyCTMLpv08","Marchand Gilles","48.8904179","2.3476483",NA,NA,NA,"point_of_interest establishment"
"ChIJOZ_A8V1u5kcRe203aQJs_Aw","Petit Pois Design","48.8905817","2.3466827",NA,NA,NA,"point_of_interest establishment"
"ChIJseMl_F1u5kcRADz1OzulDQ0","Natacha Maubant","48.8912271","2.3469782",NA,NA,NA,"point_of_interest establishment"
"ChIJseMl_F1u5kcRBTSKZn3DeNM","Gefidis","48.8912271","2.3469782",NA,NA,NA,"point_of_interest establishment"
