"Id","Name","Lat","Lng","Price_level","Rating","Nb_Rating","Type"
"ChIJkbYv_-xt5kcRZRijRCIkkOA","69-61 Rue de Ménilmontant","48.8682203","2.3878017",NA,NA,NA,"route"
"ChIJh2wR_-xt5kcRDiQ2EYhG-h8","Magnin Laure","48.8679695","2.3878537",NA,NA,NA,"health point_of_interest establishment"
"ChIJeejCUuxt5kcRVgGftUBhWBA","Resto and Design","48.8679757","2.3873106",NA,NA,NA,"restaurant food point_of_interest establishment"
"ChIJ29I2Vext5kcRF29j54qcad0","La Terra Madre","48.8680452","2.387472","2","4.7","181","restaurant food point_of_interest establishment"
"ChIJ29I2Vext5kcRFalGro2ENvU","ORPI Rental & Property Management","48.8679598","2.3875073",NA,"3.3","19","finance real_estate_agency point_of_interest establishment"
"ChIJZxU7_uxt5kcR7kU2JkKNPPQ","Experimental Lab","48.86797","2.387854",NA,NA,NA,"electronics_store home_goods_store point_of_interest store establishment"
"ChIJLRXudkBu5kcRu78n5c5wERI","Francois Camille","48.86814","2.3869727",NA,NA,NA,"point_of_interest establishment"
"ChIJwa3oUuxt5kcR0eFFk9Gjzg8","atelierkaa architectes","48.86814","2.3869727",NA,NA,NA,"point_of_interest establishment"
"ChIJEYmAq-1t5kcRpAUlmHVB94g","Le labo du ventre de Paris","48.8677695","2.3872529",NA,"5","1","point_of_interest establishment"
"ChIJh2wR_-xt5kcR_zuvCuig52c","Franck Taillefer, Psychologue clinicien","48.8679695","2.3878537",NA,NA,NA,"health point_of_interest establishment"
"ChIJh2wR_-xt5kcRL1RARVMQ_Ac","Audrey Ménil, Psychologue clinicienne","48.8679695","2.3878537",NA,NA,NA,"health point_of_interest establishment"
"ChIJBZ97_-xt5kcRYngnKKUGRVo","Boucherie 3 Frères","48.868067","2.387648",NA,"4.7","18","food point_of_interest store establishment"
"ChIJq0HYimxt5kcR6CbvrGknW7M","LA DOUCEUR DE L'ORIENT","48.8681145","2.3876936",NA,NA,NA,"restaurant food point_of_interest establishment"
"ChIJS4bi_-xt5kcRswv764iPFhA","Les noces d'or","48.8681145","2.3876936",NA,"4.5","20","grocery_or_supermarket food point_of_interest store establishment"
"ChIJ1VbQVext5kcR4QGoEuF3v3k","Zaradoc","48.8682165","2.3874977",NA,NA,NA,"point_of_interest establishment"
"ChIJeaP4rmtt5kcRbKmdFn_StmU","Souplex b724","48.8681402","2.3877351",NA,NA,NA,"lodging point_of_interest establishment"
"ChIJt7QyVOxt5kcRMemQ0k0bcGY","Super Retouches","48.8682046","2.3874616",NA,"4.3","8","store point_of_interest establishment"
"ChIJ6y0R_-xt5kcRTzuQCGDR4GI","M Immobilier","48.8681426","2.3877508",NA,"5","5","real_estate_agency finance point_of_interest establishment"
"ChIJOfg7VOxt5kcRnzwMgKiPDEQ","Rayon Science","48.8681924","2.3873952",NA,NA,NA,"point_of_interest establishment"
"ChIJD7fiBh9u5kcRYJSMaMOCCwQ","Paris","48.856614","2.3522219",NA,NA,NA,"locality political"
"ChIJH0UAVuxt5kcRPwXgTrIrqSs","Chic & Glamour","48.8682511","2.3876336",NA,NA,NA,"point_of_interest establishment"
"ChIJZxU7_uxt5kcRS-mDTPuXolo","BAR DE LA LIBERTÉ","48.8681408","2.3878013",NA,"5","2","cafe food point_of_interest establishment"
"ChIJK16_Vext5kcRCZT5kSOXtpo","Billon Yves","48.868267","2.387489",NA,NA,NA,"point_of_interest establishment"
"ChIJF6hPVOxt5kcR9O1ZjRxhhkA","Batap","48.8682305","2.387354",NA,NA,NA,"point_of_interest establishment"
"ChIJ00hxVOxt5kcRDT9xGPQaqXs","Le Menil'Coiff","48.8681603","2.387274",NA,"4.5","48","hair_care point_of_interest establishment"
"ChIJZzzD_uxt5kcR79Z7BujD57A","Super Shop Alimentation Générale Orientale","48.868174","2.3878593",NA,NA,NA,"point_of_interest establishment"
"ChIJh2wR_-xt5kcR3ECpuPtr6GM","Wieser Brigitte","48.8679695","2.3878537",NA,NA,NA,"point_of_interest establishment"
"ChIJaYDF-Oxt5kcRN7clx3N2yzo","Katia Coiffure","48.8683401","2.3877589",NA,"3","3","hair_care point_of_interest establishment"
"ChIJ-RQy_-xt5kcRXUQ-AobtI0o","Menilmontant Sarl Eco Coiffe","48.8683401","2.3877589",NA,NA,NA,"real_estate_agency point_of_interest establishment"
"ChIJH36S-Oxt5kcRA8cTJNTE2VY","Au Chez Moi Paris","48.8683595","2.3877275",NA,"5","20","cafe restaurant food point_of_interest establishment"
"ChIJr5CvU-xt5kcR8t_5Csx3IJ8","Optic Bellaiche","48.8681292","2.3871436",NA,NA,NA,"point_of_interest establishment"
"ChIJkRwRUuxt5kcR7AreXYVl-Vc","Brichard Adeline","48.8681292","2.3871436",NA,NA,NA,"point_of_interest establishment"
"ChIJd2E4nZNt5kcROaD07Bwzj5A","Chez les Deux Amis Brocante","48.8681981","2.3880166","1","4.1","221","restaurant food point_of_interest establishment"
"ChIJoWqvU-xt5kcRIS9paEgjlHs","Opticien Krys Paris 20 - Menilmontant","48.8681394","2.3870558",NA,"4.3","16","health point_of_interest store establishment"
"ChIJaWrpUuxt5kcRyVnNYQfCGe4","Moneyglobe Transfert d'Argent - Paris","48.8680878","2.3870048",NA,NA,NA,"finance point_of_interest establishment"
"ChIJ3QnpUuxt5kcRQ0s_Rp0eFuM","Fournil Du 53 Menilmontant","48.8680878","2.3870044",NA,"4","4","bakery food point_of_interest store establishment"
"ChIJz_2KUuxt5kcRJqDpWmx_JiY","boulangerie pâtisserie menilmontant","48.8680907","2.3870031","2","3.9","13","bakery food point_of_interest store establishment"
"ChIJ2YTGTOxt5kcR7K0nc8irMAI","MNTT MULTICOM (sarl tanisha)","48.8680757","2.3869407",NA,"3.2","6","point_of_interest establishment"
"ChIJC0fLUuxt5kcRuomcCT6hHw0","ATEMIA est","48.8679455","2.3870171",NA,NA,NA,"point_of_interest establishment"
"ChIJQ5OCText5kcRS2m60CsTwHo","Julien Lacroix","48.8680586","2.3869664",NA,NA,NA,"transit_station point_of_interest establishment"
"ChIJS6U9EVFt5kcRgOQsXv2UCtE","Ipséité Elsa Gauffier","48.867762","2.3872551",NA,NA,NA,"health point_of_interest establishment"
"ChIJt2yArO1t5kcRsxSp2b7npnM","Koch Jerome","48.867762","2.3872551",NA,NA,NA,"point_of_interest establishment"
"ChIJP0disWdt5kcR2lSP_eO1PCU","Brasserie Coquin","48.868118","2.3881808",NA,"4.7","18","restaurant food point_of_interest establishment"
"ChIJdentvCht5kcRSSpaIfjwBaw","Western Union","48.868072","2.386869",NA,NA,NA,"finance point_of_interest establishment"
