"Id","Name","Lat","Lng","Price_level","Rating","Nb_Rating","Type"
"ChIJQVxXgvht5kcRdHiGoDzB8Qg","51-47 Rue de la Roquette","48.8556846","2.37485",NA,NA,NA,"route"
"ChIJ0atagwdy5kcRPoWvVqswg_Q","Swingtap","48.854982","2.3755179",NA,"3.1","16","shoe_store point_of_interest store establishment"
"ChIJmZpMggdy5kcRRhIohv6jiLA","L'indien Boutique","48.8552008","2.3756553",NA,"4.5","532","clothing_store point_of_interest store establishment"
"ChIJDVtugQdy5kcRjME4R1ENK58","Volver","48.85527","2.3755724","2","4.5","128","restaurant food point_of_interest establishment"
"ChIJ93kth_ht5kcR65oFjJPdqNk","Les Furieux","48.855761","2.375376","2","4","491","bar point_of_interest establishment"
"ChIJs3nwfwdy5kcRRa-m6x_6CIY","GLB Diag","48.8556035","2.3753767",NA,NA,NA,"finance point_of_interest establishment"
"ChIJ__87hAdy5kcRwAyEPb1eSa8","Didier Lab","48.8554408","2.3752366",NA,"4.7","45","beauty_salon point_of_interest store establishment"
"ChIJi9FghAdy5kcRiLdUGhDHLR8","Hotel paris","48.8552649","2.3752633",NA,NA,NA,"lodging point_of_interest establishment"
"ChIJhQsXgwdy5kcRhqfSQtz8--E","Manga Dori","48.8552198","2.3754086",NA,"4.3","211","store point_of_interest establishment"
"ChIJ4Y7Ugfht5kcR-Y5yRlMO1Cs","Manga Dori 2","48.8555379","2.3751593",NA,"4.6","53","point_of_interest clothing_store store establishment"
"ChIJ8a2mfwdy5kcRgr8D-l09qTU","Sedecs","48.8554758","2.3750231",NA,NA,NA,"point_of_interest establishment"
"ChIJY0Y6gPht5kcRBzd1Tjmw5X0","Pâtisserie Nanan","48.8556035","2.3753767","2","4.5","123","bakery food point_of_interest store establishment"
"ChIJ___vf_ht5kcRMbYm0-F6_uI","bitin.fr","48.8556036","2.3753768",NA,NA,NA,"point_of_interest establishment"
"ChIJVRuEggdy5kcRcMpFAGAPalE","Carli Conseil","48.8551418","2.3753994",NA,NA,NA,"point_of_interest establishment"
"ChIJVRuEggdy5kcRR7VpVKLFfNw","LUCILLE BUREAU","48.8551418","2.3753994",NA,NA,NA,"point_of_interest establishment"
"ChIJVVVFe_ht5kcRUMmn6_t-1qA","DOTSY","48.8552008","2.3756553",NA,"5","1","point_of_interest store establishment"
"ChIJAQBcggdy5kcRZwl8xXJjBtE","Pop culture shop comics","48.855105","2.37544",NA,"4.4","34","book_store point_of_interest store establishment"
"ChIJ68TffAdy5kcRUL_SwPUuqMQ","Lore Vincenza","48.85536","2.374846",NA,"1","2","lawyer finance point_of_interest establishment"
"ChIJ92oxhAdy5kcR7hDRiQutqHQ","Laurent Savard","48.8552131","2.3757569",NA,"5","1","point_of_interest establishment"
"ChIJD7fiBh9u5kcRYJSMaMOCCwQ","Paris","48.856614","2.3522219",NA,NA,NA,"locality political"
"ChIJSYBpfAdy5kcRp0v9ov4K8aU","Rivoluzione","48.855425","2.3748111","2","4.4","379","restaurant food point_of_interest establishment"
"ChIJS6t1vWdy5kcRb41dLINWtAk","MODAL ARCHITECTURE","48.855129","2.374906",NA,"5","4","point_of_interest establishment"
"ChIJN8Wcgvht5kcRymRtS9Ygvqw","Bistrot des Familles","48.8555188","2.374745",NA,"4.7","22","restaurant food point_of_interest establishment"
"ChIJ5bLJewdy5kcRAtq35zmK_HA","Ciel Rouge Création | Cabinet d’architecture à Paris","48.8550321","2.3749948",NA,NA,NA,"point_of_interest establishment"
"ChIJw-crnQdy5kcR-g324LmKpXM","Lone Palm","48.855","2.3755556","2","4.7","187","bar point_of_interest establishment"
"ChIJBzSCewdy5kcRH9MWe_4hf8M","Liégeois Eric","48.8550321","2.3749948",NA,NA,NA,"point_of_interest establishment"
"ChIJBzSCewdy5kcRX7ZzIulnv9g","Le Chat Ivre","48.854984","2.374985","2","4.5","262","restaurant bar food point_of_interest establishment"
"ChIJAQDseQdy5kcR24xm4ukbM3g","Héliopoles","48.8550321","2.3749948",NA,NA,NA,"point_of_interest establishment"
"ChIJK1C_eQdy5kcRR-54ukh_hXc","fair","48.8550321","2.3749948",NA,"5","1","point_of_interest establishment"
"ChIJsadihAdy5kcRr_p4XA8TeMw","Mojito Lab","48.8550826","2.3757265","2","4.3","588","bar point_of_interest establishment"
"ChIJq6r6f_ht5kcRy97o3OUZ0Nw","Amano","48.8556339","2.3753747",NA,NA,NA,"point_of_interest establishment"
"ChIJ3ctheQdy5kcR1B7goJgahTw","socialab","48.8551991","2.3749474",NA,NA,NA,"point_of_interest establishment"
"ChIJt2lfewdy5kcRnc05-mzm3eQ","M.C.B.D. SHOP","48.8552912","2.3746709",NA,"4.8","79","book_store point_of_interest store establishment"
"ChIJzSTsfAdy5kcRRENnAlRmVBk","Le Galopin de LuLu","48.8552777","2.3748412","2","4.5","431","restaurant food point_of_interest establishment"
"ChIJ3ctheQdy5kcR8dqT03rlHPA","Bonne Résolution","48.855032","2.374995",NA,NA,NA,"point_of_interest establishment"
"ChIJjzUmfgdy5kcRsSkOcJ9wFJo","Hotel Nouvel France","48.8556277","2.3750938",NA,"2.3","3","lodging point_of_interest establishment"
"ChIJ5bLJewdy5kcRXj3QypmWeH4","Mosaik Café","48.8550321","2.3749948",NA,NA,NA,"restaurant food point_of_interest establishment"
"ChIJDVtugQdy5kcRJP97f7IrhGQ","L'Arraché","48.8552943","2.3756319",NA,"4","2","bar point_of_interest establishment"
"ChIJ5bLJewdy5kcRGfAGo6wCPlM","Texto Editions","48.8550321","2.3749948",NA,NA,NA,"point_of_interest establishment"
"ChIJ2Wk9gvht5kcRlaWGlwKFjlg","Comptoir du Désert (Homme)","48.8555827","2.374997",NA,"4.4","13","clothing_store point_of_interest store establishment"
"ChIJYwt_fwdy5kcR-Ddu3E6HknY","BLACK SUGAR PARIS","48.8553842","2.3752928",NA,"4.1","109","point_of_interest clothing_store store establishment"
"ChIJ__X8vsNz5kcRB1u1LDVpSDM","Galerie Art-z","48.8554376","2.3752323",NA,"4","1","art_gallery point_of_interest establishment"
"ChIJDWh1fwdy5kcRsFXCDXNB-yE","Mangas Fantaisie","48.8554376","2.3752323",NA,"5","1","point_of_interest establishment"
"ChIJ06um-h5z5kcRQBHUaU8k1Jo","SFA Société Franco Americaine","48.8554376","2.3752323",NA,"5","1","point_of_interest establishment"
"ChIJR_1dzpht5kcRwCBIG81CBo8","Holycake","48.855423","2.3754793","2","4.2","91","cafe food point_of_interest establishment"
"ChIJ-QaKgQdy5kcRS5Y5XVPxxdQ","New Rock Paris","48.855273","2.3753507",NA,"4.8","119","clothing_store point_of_interest store establishment"
"ChIJFSRQa8xz5kcRizMhiPBbiv4","ARC DESIGN","48.85528","2.375409",NA,NA,NA,"general_contractor point_of_interest establishment"
"ChIJgZjtKl9z5kcRuNmy_KGkgtU","POPUPBASTILLE","48.8552708","2.3753815",NA,NA,NA,"point_of_interest establishment"
"ChIJTzy3hgdy5kcRsRop2zoAewQ","Dr Feelgood","48.8553128","2.3755469","1","4.4","267","bar point_of_interest establishment"
"ChIJLVMV6dJt5kcRYOXX9fgzM7M","ravioli bar","48.8555229","2.3754296",NA,"4.8","40","restaurant food point_of_interest establishment"
"ChIJM8vqEklz5kcRFV_cCwfrkKc","Galerie des photographes","48.8554758","2.3750231",NA,"5","3","art_gallery point_of_interest establishment"
"ChIJRZf6fwdy5kcR3erJIygyuj0","Granier Philippe","48.8556035","2.3753767",NA,"4.3","6","dentist health point_of_interest establishment"
"ChIJOfdJgPht5kcRi21_CelNw44","Tan Jean Chrisostome","48.8556035","2.3753767",NA,NA,NA,"grocery_or_supermarket food point_of_interest store establishment"
"ChIJOfdJgPht5kcR3wXaVLra7yc","Fajgelman Vigouroux Carole","48.8556035","2.3753767",NA,NA,NA,"point_of_interest establishment"
"ChIJ5Sh40K9z5kcRVRqNEk6KI4w","23 Keller body piercing & tattoo","48.8551418","2.3753994",NA,"4.2","105","finance point_of_interest store establishment"
"ChIJS2syx_Bt5kcRW30dv33aogI","Label famille","48.8551418","2.3753994",NA,"5","3","point_of_interest establishment"
"ChIJh5Sfhgdy5kcRxX9cyi0MvFU","Jérémy","48.8552778","2.3757446",NA,NA,NA,"point_of_interest establishment"
"ChIJrUleeQdy5kcRFX_CmLsq-Dw","90jours","48.8552153","2.3749573",NA,NA,NA,"point_of_interest establishment"
"ChIJKbdTRrht5kcRZz0bfLP1994","With'Art","48.8556886","2.3753403",NA,"5","7","travel_agency point_of_interest establishment"
"ChIJw8theQdy5kcR1VOIL9JBVR4","Brief.eco","48.8551992","2.3749474",NA,NA,NA,"point_of_interest establishment"
