"Id","Name","Lat","Lng","Rating","Nb_Rating","Type"
"ChIJhagZyedt5kcRZITQe436Xmk","11-5 Allée Diane de Poitiers","48.8736511","2.3783779",NA,NA,"route"
"ChIJpRfm0edt5kcRyeV862wTK7k","Foncia Paris","48.8735065","2.3789239","3","1","real_estate_agency point_of_interest establishment"
"ChIJyWdJyedt5kcRWkIzE6b1k0U","Mariñas Arquitectos Asociados","48.8735317","2.3785639",NA,NA,"point_of_interest establishment"
"ChIJ9UTDhNFt5kcRRNR8A8TQZn4","Bonjour Belleville Paris - Apartment","48.8736052","2.3785071","5","4","lodging point_of_interest establishment"
"ChIJiwfs2Odt5kcRWS7krt9BovM","School Rampal","48.8739776","2.3795734","3.5","2","school point_of_interest establishment"
"ChIJD7fiBh9u5kcRYJSMaMOCCwQ","Paris","48.856614","2.3522219",NA,NA,"locality political"
