"Id","Name","Lat","Lng","Price_level","Rating","Nb_Rating","Type"
"ChIJAedoalhu5kcR3mSrMz9gYxc","120-130 Rue Championnet","48.8954311","2.3380935",NA,NA,NA,"route"
"ChIJUSnoXFhu5kcR588_oTATiCo","Ile de France League Athletics","48.89518","2.33861",NA,"4.4","7","point_of_interest establishment"
"ChIJwRWuO1hu5kcRHbn5fcjDzkM","Videocomedia","48.895139","2.3376306",NA,NA,NA,"point_of_interest establishment"
"ChIJd4EwP1hu5kcR3lNnbbYS2Vo","Adrian Claret-Pérez","48.895139","2.3376306",NA,NA,NA,"point_of_interest establishment"
"ChIJGaFPR1hu5kcRGHIbVL5hXXQ","Another fly","48.8953159","2.3378848",NA,NA,NA,"point_of_interest establishment"
"ChIJU-fWFFhu5kcRMdS8zq381-c","Pharmacie Damremont - Rubinstein well&well","48.8950589","2.337305",NA,"3.8","10","pharmacy health point_of_interest store establishment"
"ChIJHanRQlhu5kcRUmLrw8dgwtQ","Chataignier Benedicte","48.89525","2.33851",NA,NA,NA,"point_of_interest establishment"
"ChIJZchaN1hu5kcRCzm7VXrlgJo","DPA","48.8947308","2.3374931",NA,"4.5","2","car_repair point_of_interest establishment"
"ChIJi30cT1hu5kcRZDssqJzHZUQ","Vision Déco","48.894627","2.338142",NA,"5","1","furniture_store home_goods_store point_of_interest store establishment"
"ChIJwRWuO1hu5kcRaj9opPw1Ed8","La Fourchette Berbère","48.8951988","2.3376136","2","4.3","83","restaurant food point_of_interest establishment"
"ChIJwRWuO1hu5kcRvooWAapgR2s","Flore - photographe","48.895139","2.3376306",NA,NA,NA,"point_of_interest establishment"
"ChIJozUAL1hu5kcRdxk_wkMugvQ","Mickaël Fortin","48.8955077","2.3380768",NA,"4.7","3","health point_of_interest establishment"
"ChIJs39fRFhu5kcRGloV-f8BKuM","Petits Frères Pauvres Ass Gesti Etabli","48.894962","2.3382706",NA,"5","1","church place_of_worship point_of_interest establishment"
"ChIJgdWQPVhu5kcRUoTPNNO_BAQ","Soleil Levant","48.8953417","2.3373725","2","4.4","47","meal_delivery meal_takeaway restaurant food point_of_interest establishment"
"ChIJ___bPlhu5kcRCJZI2nXfQ-4","Smart tech","48.895139","2.3376306",NA,"3","2","point_of_interest establishment"
"ChIJSy_jEalv5kcRa7o653BILF0","FotoMasterclass","48.895139","2.3376306",NA,NA,NA,"point_of_interest establishment"
"ChIJWwIJP1hu5kcRNEVoyJ5zzZw","Atelier d architectes","48.8952242","2.337715",NA,NA,NA,"point_of_interest establishment"
"ChIJM2sHQFhu5kcRw4ad7fcWoWA","Kleanthe","48.8952909","2.3379069",NA,"5","1","hair_care point_of_interest establishment"
"ChIJR5txalhu5kcRSdG9Q3BTTK4","Atl Invest","48.8952909","2.3379069",NA,"3.8","5","point_of_interest establishment"
"ChIJD7fiBh9u5kcRYJSMaMOCCwQ","Paris","48.856614","2.3522219",NA,NA,NA,"locality political"
"ChIJB5NGRFhu5kcR0ZWRagauF14","Association Des Afghans De France","48.894962","2.3382706",NA,NA,NA,"point_of_interest establishment"
"ChIJTSWLP1hu5kcR-CBamJP19EQ","Feminin Masculin","48.8953016","2.337847",NA,NA,NA,"point_of_interest establishment"
"ChIJDeurP1hu5kcRW9ml_j0MLH8","Bar Castelo Restaurant","48.8952521","2.337679",NA,"4.8","5","restaurant food point_of_interest establishment"
"ChIJyytrXfRv5kcR4yXGQetqCvE","Pro Assistance","48.8953159","2.3378848",NA,NA,NA,"point_of_interest establishment"
"ChIJLWC98E5v5kcR9sNCDC2gp8s","Expert Hac","48.8953159","2.3378848",NA,NA,NA,"store point_of_interest establishment"
"ChIJGaFPR1hu5kcRTVXMVsCjzx8","Rosenblum Edouard","48.8953159","2.3378848",NA,NA,NA,"point_of_interest establishment"
"ChIJZTWTPlhu5kcREPtQsbgqVoA","Blossier Michel","48.8951595","2.3375632",NA,NA,NA,"point_of_interest establishment"
"ChIJV3QNQFhu5kcRhyTJw1Ff-fk","Dixstreect","48.8953202","2.3378826",NA,NA,NA,"point_of_interest establishment"
"ChIJDQQuQFhu5kcRkvs_EtKZaCw","A.C.P.A.O","48.8953343","2.3379893",NA,"4.8","8","point_of_interest establishment"
"ChIJwWQfPFhu5kcRj7Vb0lk_BsE","Damremont - Championnet","48.8951605","2.3374645",NA,NA,NA,"transit_station point_of_interest establishment"
"ChIJBQjdQVhu5kcRPUfCrs-EtMo","Magenord","48.8953557","2.3381019",NA,NA,NA,"point_of_interest establishment"
"ChIJBQjdQVhu5kcRZmP3Ex-dA00","Am Investissement","48.8953557","2.3381019",NA,NA,NA,"point_of_interest establishment"
"ChIJEeIRQ1hu5kcRzKDOAXxH1FA","Cbc Drive","48.8951663","2.3384024",NA,NA,NA,"point_of_interest establishment"
"ChIJG8sUQlhu5kcRNSq_em3iksU","Anne Chipoulet-Kasi","48.895317","2.3382822",NA,NA,NA,"point_of_interest establishment"
"ChIJ26ZLQ1hu5kcRv-PXHHPSH3U","Levillain Stephanie","48.8951267","2.338535",NA,NA,NA,"point_of_interest establishment"
"ChIJURNdFVhu5kcRh7ajcH3sFXs","Siva Market","48.8954574","2.3378069",NA,NA,NA,"point_of_interest establishment"
"ChIJZchaN1hu5kcR81rD0ySKi0g","Concessionnaire Volkswagen","48.8947308","2.3374931",NA,NA,NA,"point_of_interest establishment"
"ChIJozUAL1hu5kcRdkedDUZgDmc","Catherine KHUOY","48.8954944","2.3380513",NA,"3.7","17","health point_of_interest establishment"
"ChIJ2QdZRVhu5kcRk8_km4zg1JE","Batalek","48.8947609","2.3384452",NA,NA,NA,"point_of_interest establishment"
"ChIJqfNLJVhu5kcRh5KfsgQjbn4","Damremont - Championnet","48.894994","2.3372512",NA,NA,NA,"transit_station point_of_interest establishment"
"ChIJO949Plhu5kcRbSd-QUZagkA","Déménagements du Poteau","48.8955034","2.3378407",NA,"4.7","10","moving_company point_of_interest establishment"
"ChIJIS-IugBv5kcR2osk6KZ2Pjw","Claire Garnier Sophrologue - Professeur de Yoga Pré & Postnatal","48.8955077","2.3380768",NA,"5","1","health point_of_interest establishment"
"ChIJN_gdL1hu5kcRcctJTSGCqEo","Sihame MOKHBAT Midwife","48.8955077","2.3380768",NA,"4.7","19","health point_of_interest establishment"
"ChIJG5b1ja1v5kcRTUGxCwGBxFQ","Basile Herné - Kinésithérapeute","48.895508","2.338077",NA,NA,NA,"physiotherapist health point_of_interest establishment"
