"Id","Name","Lat","Lng","Price_level","Rating","Nb_Rating","Type"
"ChIJpZ7OMAZy5kcRYyRKHGJXu3E","103 Avenue Ledru-Rollin","48.8525203","2.3768513",NA,NA,NA,"route"
"ChIJX3Q5NgZy5kcRLrNJNP1wIro","Le Motel","48.8527333","2.3764142","1","4.4","320","bar point_of_interest establishment"
"ChIJZT5EOgZy5kcRiFofOPnH0nE","Rose Thé","48.8523149","2.3769547","2","4.5","140","cafe food point_of_interest establishment"
"ChIJpZsnMQZy5kcRcDwh8vNTxuo","SGS center objectifcode","48.8525776","2.3768853",NA,"1.9","14","point_of_interest establishment"
"ChIJ4WQgMQZy5kcReImpfaEqBNg","FCPE","48.8526084","2.3771424",NA,"3.7","7","point_of_interest establishment"
"ChIJkXUBOAZy5kcRN9yOa_9n6s4","Delaire Celine","48.8524153","2.3764846",NA,NA,NA,"health point_of_interest establishment"
"ChIJtYRbOgZy5kcR0QOj6lNWkn0","Champ Libre","48.8523517","2.3770059",NA,"4.8","59","florist point_of_interest store establishment"
"ChIJtYRbOgZy5kcRDcwaKnlvl20","Association Karine Saporta","48.8523149","2.3769547",NA,NA,NA,"point_of_interest establishment"
"ChIJCe3Dj_Zt5kcRUVZLHuYiSyk","Delux éclairage","48.8522816","2.3764533",NA,"5","12","point_of_interest establishment"
"ChIJUcpROAZy5kcRFhtwmMcgze8","Corpus Revue de Philosophie","48.8522816","2.3764533",NA,NA,NA,"point_of_interest establishment"
"ChIJ2wYzPwZy5kcRjFq01o4Be0A","Opticien Krys Paris - Ledru Rollin","48.852299","2.376443",NA,"4.4","5","health point_of_interest store establishment"
"ChIJMwxpTgZy5kcR6vl0vd7vfOY","LES ÉPHÉMÈRES performing arts","48.8524449","2.3762549",NA,"2","1","point_of_interest establishment"
"ChIJAw2UMAZy5kcRW1BveMyIrj0","Laï Thaï","48.8523639","2.3773247",NA,"4.6","104","spa point_of_interest establishment"
"ChIJozK-OwZy5kcRmjCqAKEqZ_I","Frankenberg Roberto","48.8521834","2.3768984",NA,NA,NA,"point_of_interest establishment"
"ChIJJcXAZ7Vx5kcR0D2RwdUM51Y","Cabarey","48.8523893","2.3772778",NA,NA,NA,"point_of_interest establishment"
"ChIJAw2UMAZy5kcR6yGJyrOiSZU","Cesia Developpement","48.8523893","2.3772778",NA,NA,NA,"point_of_interest establishment"
"ChIJUcpROAZy5kcRM8Ubf5XoMss","Rive Droite Catherine","48.8522021","2.3764828",NA,"3.9","7","hair_care point_of_interest establishment"
"ChIJRfGIMAZy5kcR7473sFP9DdE","LORD OF WEB","48.852389","2.377278",NA,"5","4","point_of_interest establishment"
"ChIJAQBkJQZy5kcRoiuVKQxFCPs","Benoit Arnould Baryton","48.8523893","2.3772778",NA,"5","1","point_of_interest establishment"
"ChIJD7fiBh9u5kcRYJSMaMOCCwQ","Paris","48.856614","2.3522219",NA,NA,NA,"locality political"
"ChIJAQBkJQZy5kcRsYWc1NH6rZ0","Bruno De Simone","48.8523893","2.3772778",NA,NA,NA,"point_of_interest establishment"
"ChIJAQBkJQZy5kcRPH7wA7VTa2c","Psychologue Paris Centre","48.8523893","2.3772778",NA,NA,NA,"health point_of_interest establishment"
"ChIJAQBkJQZy5kcRnyx4vQvlj44","StarDust Testing","48.8523893","2.3772778",NA,NA,NA,"point_of_interest establishment"
"ChIJAQBkJQZy5kcRYXm-lUKmW9Q","l'Orangerie de Paris","48.8523893","2.3772778",NA,NA,NA,"point_of_interest establishment"
"ChIJBwBkJQZy5kcR5udMXlXlw1o","Roberta Mameli","48.8523893","2.3772779",NA,NA,NA,"point_of_interest establishment"
"ChIJBwBkJQZy5kcRUy95smUC55o","Josè Maria Lo Monaco","48.8523893","2.3772779",NA,NA,NA,"point_of_interest establishment"
"ChIJBwBkJQZy5kcRK7sDTgA_Rpc","Whyers","48.8523893","2.3772779",NA,"5","1","point_of_interest establishment"
"ChIJNyQOMgZy5kcRyHrz7YvOOQI","Logis Bastille","48.8527785","2.3771583",NA,"3.2","13","real_estate_agency point_of_interest establishment"
"ChIJ9-pHSgZy5kcRH__3CXJwEJE","Injam Production","48.8528052","2.3763973",NA,NA,NA,"point_of_interest establishment"
"ChIJmf3SJAZy5kcR8wjURs2Pvt4","Les passagers de Beyrouth","48.8523007","2.3772352","2","4.6","518","restaurant food point_of_interest establishment"
"ChIJ61eHNQZy5kcRfpP9HwGgYXw","La Tour Immo Transaction","48.852875","2.376506",NA,NA,NA,"real_estate_agency point_of_interest establishment"
"ChIJ_-d1NQZy5kcRUNzs5N0lAWg","Annette Huster","48.8529003","2.3765764",NA,NA,NA,"point_of_interest establishment"
"ChIJAUKILQZy5kcRGriJy73aVJ8","Immo 112 Sarl","48.8527831","2.3772293",NA,"1","1","real_estate_agency point_of_interest establishment"
"ChIJIb7rMQZy5kcRUS2sZHXARzs","CNCB","48.852663","2.3771185",NA,NA,NA,"point_of_interest establishment"
"ChIJZ-Pj7sxx5kcRn1wRRDYWynI","nharh","48.8523496","2.3771966",NA,NA,NA,"point_of_interest establishment"
"ChIJAQBkJQZy5kcRV9iCIfRFwY4","Giulia Semenzato","48.8523893","2.3772778",NA,NA,NA,"point_of_interest establishment"
"ChIJMzSANwZy5kcRQCUNTEAc6xU","DAC Communication","48.8521621","2.3771987",NA,NA,NA,"point_of_interest establishment"
"ChIJPTDlOwZy5kcRfmq6nVMO0RE","Crédit Agricole de Paris Ledru Rollin","48.8521834","2.3768984",NA,"3.3","12","bank atm finance insurance_agency point_of_interest establishment"
"ChIJ2114cZxy5kcRt4oSW1JFUWc","OOBLADA","48.8523893","2.3772778",NA,NA,NA,"point_of_interest establishment"
"ChIJF2tuNwZy5kcRpus5yrZS7Dk","Euro Star Shopping","48.8524829","2.3766551",NA,"4.7","6","home_goods_store point_of_interest store establishment"
"ChIJo5snMQZy5kcR2jjDdet275k","Christian Mounier","48.8525776","2.3768854",NA,NA,NA,"general_contractor point_of_interest establishment"
"ChIJvd6DNgZy5kcR15r3Nbq8cQA","Passager","48.8526863","2.376747","2","4.2","346","cafe food point_of_interest establishment"
"ChIJs7n6PgZy5kcR9X2C-lhBBrE","Atelier M","48.8525127","2.3770346",NA,"4.8","38","hair_care point_of_interest establishment"
"ChIJMc3MOQZy5kcRqXWQ43yWNrQ","Peyrotte Claude","48.8524153","2.3764846",NA,NA,NA,"furniture_store home_goods_store point_of_interest store establishment"
"ChIJMc3MOQZy5kcRWqVn3oJrpf4","Inlet","48.8524153","2.3764846",NA,NA,NA,"point_of_interest establishment"
"ChIJ5SGsNgZy5kcRPHrSWxkajAA","Feuilles en folie","48.8527457","2.3768002",NA,"4.8","13","book_store point_of_interest store establishment"
"ChIJkXUBOAZy5kcRAk1uTND3qq4","Levy Michael","48.8525918","2.376431",NA,"3","2","point_of_interest establishment"
"ChIJIb7rMQZy5kcR9jpKmQKdF0w","Fédération des Conseils de Parents d’Elèves","48.852663","2.3771185",NA,NA,NA,"point_of_interest establishment"
"ChIJX5ZmN9lz5kcRDnPjUkFRt0A","Lucid Realities","48.852663","2.3771185",NA,"5","1","point_of_interest establishment"
"ChIJ4WQgMQZy5kcRRS1rxwEZeOk","Picard","48.852663","2.3771185",NA,"4.4","27","food point_of_interest store establishment"
"ChIJg2QgMQZy5kcRGEaOmvrbx_k","Harmony Pressing","48.852663","2.3771186",NA,"3.7","15","laundry point_of_interest establishment"
"ChIJ0wT1SQZy5kcREU_OhdY26J4","éditions du Motel","48.8527215","2.3764269",NA,NA,NA,"lodging point_of_interest establishment"
"ChIJ8yiOMwZy5kcR62kGi6ELf5A","David Limo","48.8528499","2.3767456",NA,NA,NA,"bakery food point_of_interest store establishment"
"ChIJ8yiOMwZy5kcRrB_sihI5BpY","La Boulangerie de Jeanne","48.8528543","2.3767476",NA,"3.7","32","bakery food point_of_interest store establishment"
"ChIJm1VnvsNz5kcRkbcI3fTUT9Y","OPERAM","48.8523893","2.3772778",NA,NA,NA,"point_of_interest establishment"
"ChIJAQBkJQZy5kcRc2r5uzhl830","Wakanim","48.8523893","2.3772778",NA,NA,NA,"point_of_interest establishment"
"ChIJW3Mid9hz5kcRNqxiuTFMbk4","DYNASTE","48.8523893","2.3772778",NA,"4.5","2","point_of_interest establishment"
"ChIJAQBkJQZy5kcRPBTd8LXeKZ4","Association Acem","48.8523893","2.3772778",NA,NA,NA,"point_of_interest establishment"
"ChIJs-KRJQZy5kcRUc3iP9VKQ1M","Flg Web","48.8523893","2.3772778",NA,NA,NA,"point_of_interest establishment"
"ChIJAw2UMAZy5kcRvx76ftxpkq4","Gilliot Grégoire","48.8523893","2.3772778",NA,NA,NA,"point_of_interest establishment"
