"Id","Name","Lat","Lng","Price_level","Rating","Nb_Rating","Type"
"ChIJ0VWvZeNt5kcRb30bOp8FGqg","113-103 Avenue Parmentier","48.867447","2.372923",NA,NA,NA,"route"
"ChIJXWlob-Nt5kcRFOTSoUD3ypg","Les Fondus de la Raclette","48.867427","2.372733","2","4","842","restaurant food point_of_interest establishment"
"ChIJtXKwduNt5kcRzf2pAKqmIbM","Les guetteurs de vent","48.8670768","2.3733963",NA,"4.6","103","book_store point_of_interest store establishment"
"ChIJtXKwduNt5kcRi1MY2uhC4Uk","AS PLANET BURO","48.8670768","2.3733963",NA,"4.3","12","furniture_store home_goods_store point_of_interest store establishment"
"ChIJdaEin-Rt5kcREC1zSyxzaRc","Aqos","48.8672539","2.3736447",NA,NA,NA,"point_of_interest establishment"
"ChIJdaEin-Rt5kcReEIstFnoHS8","Raisonnances Expertise","48.8670585","2.3735844",NA,NA,NA,"accounting finance point_of_interest establishment"
"ChIJD8boY-Nt5kcRXtZQdNGWm2M","Restaurant Gintoki.","48.8673278","2.3732143","1","3.8","55","restaurant food point_of_interest establishment"
"ChIJga5naONt5kcRuF0Q_UwNqC8","Franprix","48.86714","2.37293",NA,"3.3","105","supermarket grocery_or_supermarket restaurant food point_of_interest store establishment"
"ChIJhT6pduNt5kcR9TLg-nJvpHk","Vincent Gregoire","48.8669227","2.3731182",NA,NA,NA,"point_of_interest establishment"
"ChIJ3a71neRt5kcRrwUZ7YNNvtM","Communauto France","48.8673551","2.3735425",NA,"3.1","27","car_rental point_of_interest establishment"
"ChIJ_fi7kJ9y5kcRT1xMXUO-B3s","GRAAL ARCHITECTURE","48.8671087","2.3737518",NA,"5","4","point_of_interest establishment"
"ChIJdaEin-Rt5kcRXzEJacUzd7Y","ATELIER FILIPPINI architectes","48.8671087","2.3737518",NA,"5","2","point_of_interest establishment"
"ChIJKQ34XONt5kcRQyaGRbBvtiY","Stéphane Plaza Immobilier","48.8668419","2.3729612",NA,"4.2","75","real_estate_agency point_of_interest establishment"
"ChIJl6fzoeRt5kcRp91M9gNgzSk","11ème Domaine","48.8668889","2.3735722","2","4.7","320","bar food point_of_interest establishment"
"ChIJXWlob-Nt5kcRNl1u6aL-sDU","Gestion Business Concept","48.8674309","2.3726925",NA,NA,NA,"point_of_interest establishment"
"ChIJXWlob-Nt5kcROlOwWe4GsW8","Zrak Angelique","48.8674309","2.3726925",NA,NA,NA,"point_of_interest establishment"
"ChIJVzxPvQdy5kcR0ZUUxuZkLvQ","Superprod","48.8674309","2.3726925",NA,"4.9","9","point_of_interest establishment"
"ChIJReiVyBNu5kcRUThzekWbNTs","Augment","48.8674309","2.3726925",NA,"5","4","point_of_interest establishment"
"ChIJReiVyBNu5kcRYSy9cA3zw1o","Home'n'go","48.8674309","2.3726925",NA,"5","2","point_of_interest establishment"
"ChIJD7fiBh9u5kcRYJSMaMOCCwQ","Paris","48.856614","2.3522219",NA,NA,NA,"locality political"
"ChIJF4kJYeNt5kcR4XthqkFIR5k","EDO - Franck Josseaume","48.8671814","2.3733016",NA,NA,NA,"point_of_interest establishment"
"ChIJifUpmeRt5kcR82q_Si2OtUM","Perron Helene","48.8671001","2.3738594",NA,NA,NA,"health point_of_interest establishment"
"ChIJ5zFcZONt5kcRHXspn480mQE","Maitre Allain Elisabeth","48.8674321","2.373139",NA,NA,NA,"point_of_interest establishment"
"ChIJXWlob-Nt5kcRS8rPcDLfO2M","Centre Primo Levi","48.867389","2.372781",NA,"4.9","13","point_of_interest establishment"
"ChIJr2PBD-Nt5kcRLrlxjx-qQrY","Jmd Immobilier","48.8670712","2.3736058",NA,"4","4","real_estate_agency point_of_interest establishment"
"ChIJ658hZeNt5kcRfqN_3yjtynw","Les Poupées d'Autrefois","48.8675362","2.3730635",NA,"3.3","3","point_of_interest store establishment"
"ChIJF4kJYeNt5kcRTtXkWzeB8yc","Dandeloo","48.8671814","2.3733016",NA,NA,NA,"point_of_interest establishment"
"ChIJNfueS6Bt5kcRXc_MzF1GyTU","L'UNIVERS DE BEAUTÉ","48.8671814","2.3733016",NA,"4","6","beauty_salon point_of_interest establishment"
"ChIJAQCcYeNt5kcRF5qcqNODDto","ICI-TOKYO Select Shop","48.867221","2.3733342",NA,"4","5","store point_of_interest establishment"
"ChIJE7XnY-Nt5kcRMj77EUaUsyQ","Viau Aurelie","48.8673278","2.3732143",NA,NA,NA,"point_of_interest establishment"
"ChIJ72QC8-Jt5kcR1eKuCtjaevI","ARIK PROPERTY","48.8670768","2.3733963",NA,"5","14","real_estate_agency point_of_interest establishment"
"ChIJw9CUZONt5kcR2UVpfqEbzLY","Fontaine au Roi","48.8673572","2.3731172",NA,NA,NA,"bus_station transit_station point_of_interest establishment"
"ChIJO155YONt5kcRgiqPAuJc7H4","Relais Parmentier (Pizza Lina)","48.8669851","2.3730851",NA,"4.1","95","restaurant food point_of_interest establishment"
"ChIJ6ZGLXeNt5kcR3R7w34YERig","Plaz '@Part","48.8669549","2.3730115",NA,NA,NA,"point_of_interest establishment"
"ChIJ-f-LXeNt5kcRN0IJ_xAUsw4","Carrefour des acteurs Sociaux","48.8669524","2.3730042",NA,NA,NA,"point_of_interest establishment"
"ChIJX_Gktdtt5kcR37Ih60gA7rA","Pamir","48.8669524","2.3730041",NA,NA,NA,"point_of_interest establishment"
"ChIJuUgIXuNt5kcRWUuEY4uj0uk","Les Saveurs De Parmentier","48.8669227","2.3731182",NA,"3.6","57","bakery food point_of_interest store establishment"
"ChIJUz6pduNt5kcRK4rup-Byvm4","Sarl Cifeac","48.8669227","2.3731182",NA,NA,NA,"point_of_interest establishment"
"ChIJUz6pduNt5kcRI6zae1kVve4","Soussen Martin","48.8669227","2.3731182",NA,NA,NA,"doctor health point_of_interest establishment"
"ChIJLUDuZeNt5kcRQ1lvdjWOaiQ","Para Center","48.867344","2.3728453",NA,"1","1","beauty_salon point_of_interest establishment"
"ChIJ3a71neRt5kcR2BDZf-bBb7g","Patriot Advisors","48.8672539","2.3736447",NA,NA,NA,"lodging point_of_interest establishment"
"ChIJl7RZO1pt5kcRovEpISHKqCs","L’atelier de l’Art Coiffure","48.8674884","2.3730883",NA,"4","24","beauty_salon hair_care point_of_interest establishment"
"ChIJATU7qoNt5kcRz-IaxAan-p4","Ama Style - Dreadlocks départ et extensions cheveux naturels Paris 11","48.8675362","2.3730635",NA,"4.3","25","beauty_salon hair_care point_of_interest establishment"
"ChIJbcZ0YxBt5kcReZma8ARSLlw","Ama Style","48.8675362","2.3730635",NA,"4.8","6","point_of_interest establishment"
"ChIJK7Exn-Rt5kcRLUWAMcdReXA","PariSoleil location de salles","48.8671056","2.3737484",NA,"5","4","point_of_interest establishment"
"ChIJxV0gn-Rt5kcRzUfkfPJxl-w","Cellar Lex","48.8671087","2.3737518",NA,NA,NA,"point_of_interest establishment"
"ChIJt0VdeiZt5kcRrfGOx0HbD60","Lapierre Eric","48.8671087","2.3737518",NA,"5","1","point_of_interest establishment"
"ChIJ035-z0lt5kcRIXfrpKNLlYs","Maxime BAUDRY","48.8674006","2.372693",NA,"5","3","physiotherapist health point_of_interest establishment"
"ChIJVVUlaONt5kcRLrZ5f-r-R-0","Manta","48.8670189","2.3726361",NA,"1.3","6","point_of_interest establishment"
"ChIJga5naONt5kcRi7rlxMnFdhQ","Oopshome","48.8670189","2.3726361",NA,NA,NA,"point_of_interest establishment"
"ChIJga5naONt5kcR6fDTxnNcGrs","Fleury Fabrice","48.8670189","2.3726361",NA,NA,NA,"point_of_interest establishment"
"ChIJ2XDS1Etu5kcRgldpZ4eaumw","Pinkanova","48.8670189","2.3726361",NA,"5","8","point_of_interest establishment"
"ChIJxw7XBFpt5kcRQiP9En9s5GQ","Guillaume SEROUYA - Kinésithérapeute Paris 75011 - Suivi Sportif","48.8674309","2.3726925",NA,NA,NA,"physiotherapist health point_of_interest establishment"
"ChIJNRTMbuNt5kcR40MQGStBSck","Parmentier Dr","48.8674309","2.3726925",NA,NA,NA,"point_of_interest establishment"
"ChIJDXvSCeNt5kcRNAlFq-h2BME","Maha Productions","48.8674309","2.3726925",NA,NA,NA,"point_of_interest establishment"
"ChIJXWlob-Nt5kcRkQ_27C_reoQ","Durand Pierre","48.8674309","2.3726925",NA,NA,NA,"health point_of_interest establishment"
"ChIJXWlob-Nt5kcRdiL7JHO7Beo","Martin Eric","48.8674309","2.3726925",NA,"3","2","health point_of_interest establishment"
"ChIJXWlob-Nt5kcRHLkTqpCECoQ","Cabinet SIROTTI Expertise-Comptable","48.8674309","2.3726925",NA,NA,NA,"accounting finance point_of_interest establishment"
"ChIJCRhMoORt5kcR0tQK2x-nhcE","Restaurant Hamer Libanais","48.8668563","2.373614",NA,NA,NA,"point_of_interest establishment"
"ChIJNYjlXuNt5kcRy2i4dSQc7F4","Opticien Visagiste Lentiques Des Clinques","48.8667579","2.3732299",NA,NA,NA,"point_of_interest establishment"
