"Id","Name","Lat","Lng","Rating","Nb_Rating","Type"
"ChIJwyrCk0Ju5kcRVG05GSGWjSU","12-14 Rue Pierre Picard","48.8847535","2.3456979",NA,NA,"route"
"ChIJLfFs7EJu5kcR0C0tCZ2lNLQ","Ehpad Résidence Les Jardins De Montmartre","48.8848751","2.3454604","4.3","4","health point_of_interest establishment"
"ChIJawA_kUJu5kcRgAk_K1sHJVk","Thiyo Alimentation Générale","48.8847792","2.3458568",NA,NA,"travel_agency point_of_interest establishment"
"ChIJ5USvm0Ju5kcRKVu-hfpJ-Nc","Bednar Marek","48.8847775","2.345948",NA,NA,"point_of_interest establishment"
"ChIJg5gjkUJu5kcR06lhRgFTOKk","Royal Textile paris","48.8847734","2.3459087","5","3","point_of_interest establishment"
"ChIJ065v7EJu5kcRPO7H6arToKQ","Aremo","48.8848622","2.345387",NA,NA,"health point_of_interest establishment"
"ChIJq6q6kEJu5kcRUvSbtWb5NFc","Mood Office","48.8847946","2.3460733",NA,NA,"point_of_interest establishment"
"ChIJq6q6kEJu5kcR-zQJXuTTZq0","Woopics","48.8847946","2.3460733",NA,NA,"point_of_interest establishment"
"ChIJN-BW60Ju5kcRNo3ngBvBn1g","Omeg Age Gestion","48.8848622","2.345387",NA,NA,"point_of_interest establishment"
"ChIJVY6fkEJu5kcRhov09opHAlA","Elegance","48.8847528","2.3461063",NA,NA,"point_of_interest establishment"
"ChIJHxyPmUJu5kcRrpBAbZnGrkQ","Clinique Vétérinaire FamilyVets Paris 18","48.8847466","2.3461825","4.3","52","veterinary_care point_of_interest establishment"
"ChIJP3VyukJu5kcR4W-1crbh8Hs","Maison du développement durable - Objectif D.","48.8855758","2.3458463",NA,NA,"point_of_interest establishment"
"ChIJsY-qkUJu5kcRxuWc8gILuic","Saint Pierre Decor","48.8846767","2.345923","4.5","2","point_of_interest establishment"
"ChIJD7fiBh9u5kcRYJSMaMOCCwQ","Paris","48.856614","2.3522219",NA,NA,"locality political"
