"Id","Name","Lat","Lng","Rating","Nb_Rating","Type"
"ChIJSXAWmFdu5kcRXwr8KuF7rjE","175-167 Rue Championnet","48.8947599","2.3350777",NA,NA,"route"
"ChIJ_59umldu5kcRtTOmu81Obes","1TraitNet","48.8946411","2.3353805",NA,NA,"point_of_interest establishment"
"ChIJ_59umldu5kcRIYWueUCS_FQ","Ricard Daniel","48.8947453","2.3353913","4.2","11","bakery food point_of_interest store establishment"
"ChIJFQJgkFdu5kcRm5MveJmOXoE","Paris Recharge Charging Station","48.894885","2.335522",NA,NA,"point_of_interest establishment"
"ChIJT830mldu5kcRaiRPIb7Ne4U","Elion Stephane","48.8947362","2.3355281",NA,NA,"furniture_store home_goods_store point_of_interest store establishment"
"ChIJT830mldu5kcRwPRDxtdr34I","Marion Benedicte Marthe Marie","48.8947362","2.3355281","5","1","point_of_interest establishment"
"ChIJD7fiBh9u5kcRYJSMaMOCCwQ","Paris","48.856614","2.3522219",NA,NA,"locality political"
