"Id","Name","Lat","Lng","Rating","Nb_Rating","Type"
"ChIJHVOnXfZu5kcR7aQBMKRGVqM","2-20 Rue Eugène Fournière","48.8985984","2.3408245",NA,NA,"route"
"ChIJeVx0Z_Zu5kcRZ2UeEFHVTLk","devis gratuitement","48.898646","2.3409315","5","1","painter furniture_store home_goods_store general_contractor point_of_interest store establishment"
"ChIJeVx0Z_Zu5kcR7zI6fQVMvWw","peinture et rénovation intérieur","48.898646","2.341006","1","3","general_contractor point_of_interest establishment"
"ChIJuZCWXvZu5kcRuqqVminiOU4","Mts Transport","48.8988528","2.3406995",NA,NA,"point_of_interest establishment"
"ChIJuZCWXvZu5kcR-ETO-vM63zA","Immigrés","48.8988528","2.3406995",NA,NA,"moving_company point_of_interest establishment"
"ChIJaUb1XfZu5kcRQvNtq28d_eo","AVVAT","48.8987159","2.3409327",NA,NA,"point_of_interest establishment"
"ChIJGb2jV1Rv5kcRh0lHEmr983Y","Nursery School Educational","48.8990136","2.3409088",NA,NA,"point_of_interest establishment"
"ChIJU4ID9vZu5kcR486ExXZWisU","Relais 18 Hebergement","48.8991316","2.3405873","5","2","point_of_interest establishment"
"ChIJD7fiBh9u5kcRYJSMaMOCCwQ","Paris","48.856614","2.3522219",NA,NA,"locality political"
