"Id","Name","Lat","Lng","Price_level","Rating","Nb_Rating","Type"
"ChIJa4cHREJu5kcRHIR1IKxMSGU","58-66 Boulevard de Rochechouart","48.8831579","2.3448273",NA,NA,NA,"route"
"ChIJ4_SaRUJu5kcRfUdhVe1sDmA","Hôtel Montpellier","48.8833093","2.34461",NA,"2.9","227","lodging point_of_interest establishment"
"ChIJ4UAWUkJu5kcR1eqsfTEoPPs","Au Palais de l'Himalaya","48.8835075","2.3442922","2","4","203","restaurant food point_of_interest establishment"
"ChIJg6l5T0Ju5kcROHVaic9QPOI","Salabaj Jean-Yves","48.8832754","2.3443435",NA,NA,NA,"point_of_interest establishment"
"ChIJVVVVVWFu5kcRVX-HNjG22PY","bagages bon voyage","48.8833003","2.3446249",NA,"4.7","80","point_of_interest store establishment"
"ChIJk18KTUJu5kcRQ4Opvkr1utc","Entreprise MCD","48.8832004","2.3441616",NA,NA,NA,"point_of_interest establishment"
"ChIJJ2QtTkJu5kcR7FmolPJS91U","emlifecoach","48.883034","2.344431",NA,"1","1","health point_of_interest establishment"
"ChIJ9WsWUkJu5kcRHZ75K_oOEZs","Tissus Lionel","48.8835816","2.3447644",NA,"3.9","102","home_goods_store point_of_interest store establishment"
"ChIJ1RQTaEJu5kcRe-MbWWcin7Y","Lonker Daniel","48.8833799","2.3450114",NA,NA,NA,"point_of_interest establishment"
"ChIJW9YHWkJu5kcRy28ymCZZZoQ","Course Math Avec Sasha","48.8835816","2.3447644",NA,NA,NA,"health point_of_interest establishment"
"ChIJuzt0XEJu5kcRUd6ne_Uy4rA","Royale Mercerie","48.8835816","2.3447644",NA,"3","2","point_of_interest store establishment"
"ChIJtdhwSUJu5kcRQyVuA3e3lAs","Anvers","48.8828748","2.3440251",NA,"4.2","131","subway_station transit_station point_of_interest establishment"
"ChIJAQAsWkJu5kcRTGuPEzsfXXk","Actevoix","48.8835816","2.3447644",NA,NA,NA,"point_of_interest establishment"
"ChIJUfQXZUJu5kcRENQ1Qp2rcAU","Meli Shop","48.8832204","2.344919",NA,"4.2","13","shoe_store point_of_interest store establishment"
"ChIJ66vATkJu5kcR7Ye9V62K1uU","Berdah Marcel","48.8832123","2.3440468",NA,"2.9","8","doctor health point_of_interest establishment"
"ChIJp24HT0Ju5kcR3XvwQ1TjUqg","Vêtements Femmes Sim-Storesol","48.8831323","2.3444267",NA,NA,NA,"point_of_interest clothing_store store establishment"
"ChIJawBlRUJu5kcRLrU34RZp2cY","Trinibrie","48.8831811","2.3446108",NA,NA,NA,"point_of_interest establishment"
"ChIJ99HvTkJu5kcR6kRRyK1pb9I","Sympa-Poutou","48.8831261","2.3442306",NA,"4","2","clothing_store point_of_interest store establishment"
"ChIJf20bUkJu5kcR7m8z8CgqA6Q","Montmartre Cosy Urban Demeure","48.8833444","2.3442126",NA,NA,NA,"point_of_interest establishment"
"ChIJD7fiBh9u5kcRYJSMaMOCCwQ","Paris","48.856614","2.3522219",NA,NA,NA,"locality political"
"ChIJ66vATkJu5kcRIrhrBI7bVQ0","Berdah Nessim","48.8832123","2.3440468",NA,NA,NA,"dentist health point_of_interest establishment"
"ChIJI7UujsRv5kcRATZ9iNLc85I","Va te faire food","48.8832468","2.3448565",NA,"4.8","59","restaurant food point_of_interest establishment"
"ChIJz5RlUUJu5kcRH7C96nbWvac","GRS","48.883508","2.344292",NA,NA,NA,"point_of_interest store establishment"
"ChIJt1IHsztv5kcRONeuFhWRNoc","EXECUTIVE DRIVER","48.88322","2.344919",NA,"5","21","point_of_interest establishment"
"ChIJrYXvUkJu5kcR5UG5Dv9qnGE","Popova Natalia","48.883418","2.3440168",NA,NA,NA,"point_of_interest establishment"
"ChIJzSRxTEJu5kcRYFyDw0IMDUQ","Karl Pascal & Associates (Paris)","48.8829952","2.3440848",NA,NA,NA,"point_of_interest establishment"
"ChIJJbRhTEJu5kcR6k68zrumQ54","Anvers Sacré Coeur","48.8829756","2.3440482",NA,"5","3","bus_station transit_station point_of_interest establishment"
"ChIJAwklVzNv5kcRs-YB20Ijohg","Pharmacie Monge Sacré Coeur","48.8830834","2.3439302",NA,"2.6","14","pharmacy health point_of_interest store establishment"
"ChIJ1RQTaEJu5kcRbu9qiSmYcp4","Lyne Rebecca","48.8833799","2.3450114",NA,NA,NA,"point_of_interest establishment"
"ChIJ78pKTUJu5kcRikTSDvnTteU","Pharmacie N2","48.8830569","2.3439132",NA,"4","2","pharmacy health point_of_interest store establishment"
"ChIJEYw5Q0Ju5kcRafGeZ0Otcno","Doctor Phone","48.8832356","2.3450418",NA,NA,NA,"point_of_interest establishment"
"ChIJC3XQS0Ju5kcR_F_CPPhzbpk","Anvers - Sacre Coeur","48.8828655","2.344162",NA,NA,NA,"transit_station point_of_interest establishment"
"ChIJVVWRXEJu5kcRZ-xInpowyMo","Lionfish Films","48.8833799","2.3450114",NA,NA,NA,"point_of_interest establishment"
"ChIJ-xMSXEJu5kcRMqCKM677sd0","Syndicat de Copropriété 5 r Seveste","48.8835816","2.3447644",NA,NA,NA,"point_of_interest establishment"
"ChIJz5g9rUNu5kcR-Tphw2ktmHw","Anvers Tissus","48.8834184","2.3438642",NA,NA,NA,"point_of_interest establishment"
"ChIJW3OibMRv5kcRj8WSXwM-Rv8","Green House CBD Shop Paris","48.8834408","2.3450108",NA,"4","86","health point_of_interest store establishment"
"ChIJrT_yXEJu5kcRBzT6FcyW9Ro","La Mode Enfantins","48.8834041","2.3450525",NA,NA,NA,"point_of_interest establishment"
"ChIJ77FsS0Ju5kcR-Xcp1XjhtsQ","Ubeeqo","48.8829106","2.3439648",NA,"3.3","72","point_of_interest establishment"
"ChIJe7S6mQpv5kcRtDVtOBP3vk4","Ada I Location voiture et utilitaire Paris 09 - Anvers","48.8829097","2.3439629",NA,"1","3","car_rental point_of_interest establishment"
"ChIJ7UreSUJu5kcRmbzh17B0_KE","Anvers - Sacre Coeur","48.8827892","2.344347",NA,"4.5","2","bus_station transit_station point_of_interest establishment"
"ChIJq6paU0Ju5kcRTPKZkiqcQwk","Orseldis","48.8835785","2.3439511",NA,NA,NA,"point_of_interest establishment"
"ChIJq6paU0Ju5kcRbSJHsMpMYY4","Bail & Djo","48.8835785","2.3439511",NA,NA,NA,"point_of_interest establishment"
"ChIJl9etrENu5kcReY45yLie3Zg","Saada Market","48.8835785","2.3439511",NA,"1","3","supermarket grocery_or_supermarket food point_of_interest store establishment"
