"Id","Name","Lat","Lng","Price_level","Rating","Nb_Rating","Type"
"ChIJXcbREXdu5kcRrz68Hc5twYc","Boulevard de la Villette","48.884409","2.3658264",NA,NA,NA,"route"
"ChIJZ0L7CXdu5kcRk3i279H2nQ4","Agence de voyages Hajj Omra pas cher - Etoile d'Afrique Paris","48.8845942","2.3665208",NA,"3.9","33","travel_agency point_of_interest establishment"
"ChIJZ0L7CXdu5kcRvfVYrOAp-3o","Anexo","48.8844605","2.3665604",NA,"4.5","10","point_of_interest store establishment"
"ChIJK7dNfTNu5kcRTIl7lcioKbU","Nadia Christensen - Akna Cabinet Naturopathie","48.8847645","2.3670437",NA,"5","2","health point_of_interest establishment"
"ChIJFUvgdHdu5kcRj2Y2KWFS4Lk","Relais Habitat","48.884824","2.3663356",NA,"3.2","6","point_of_interest establishment"
"ChIJ-_UYpHdu5kcR-3nowvWe3P4","≡ Map in City ≡","48.8846065","2.3672361",NA,"5","7","point_of_interest establishment"
"ChIJ-wbKo3du5kcRGKgHzOBBa1o","Nour Phone","48.8846361","2.3669437",NA,"3.1","25","point_of_interest establishment"
"ChIJHX61o3du5kcR96xqjcMNi8k","MoneyGram","48.8845573","2.3669355",NA,NA,NA,"finance point_of_interest establishment"
"ChIJZzxQondu5kcRE6nil6wideI","Sangam Restaurant","48.8845985","2.3669864","1","4.5","81","restaurant food point_of_interest establishment"
"ChIJNf1DoXdu5kcRweop4YZL_9Y","Paris Nice Sécurité","48.8844734","2.3667749",NA,"5","1","point_of_interest establishment"
"ChIJNf1DoXdu5kcRfrKdfs6yXKg","Boulangerie de la Villette","48.8844734","2.3667749",NA,"4","35","bakery food point_of_interest store establishment"
"ChIJTegpoXdu5kcRx-gcUxy8Q2M","Ktc Group Bazan Wax Voile Broderie En Gros","48.884448","2.3666681",NA,NA,NA,"point_of_interest establishment"
"ChIJQzCxo3du5kcRiA_AJwXp7sA","Boucherie de Tanger","48.8846362","2.3670461",NA,"5","7","food point_of_interest store establishment"
"ChIJ34IGCndu5kcR6dIW44kr1oc","Long Phuonsiu","48.8844517","2.3665713",NA,NA,NA,"point_of_interest establishment"
"ChIJi2XWmHdu5kcRKLVdxNbUwLU","YogiToy","48.8848752","2.3669007",NA,NA,NA,"point_of_interest establishment"
"ChIJsevYmXdu5kcRdvUFyevMU3M","Bonneau-Cattier Eude","48.8848752","2.3669007",NA,NA,NA,"point_of_interest establishment"
"ChIJZ1f1ondu5kcRIPdOybII6G4","Boucherie Aamar Hadad","48.884661","2.3670772",NA,"5","1","food point_of_interest store establishment"
"ChIJ63dTondu5kcRK-jGbXsb3Vc","Restaurant Soleil Liban","48.8847052","2.3670934",NA,"3.9","39","restaurant food point_of_interest establishment"
"ChIJda8zCndu5kcR3u3cJBnV65I","Rayon Produits D'entretien","48.8844649","2.3663883",NA,NA,NA,"pharmacy health point_of_interest store establishment"
"ChIJD7fiBh9u5kcRYJSMaMOCCwQ","Paris","48.856614","2.3522219",NA,NA,NA,"locality political"
"ChIJcVLNC3du5kcRtPPeUx1BnkE","Roya Luxe","48.8844632","2.3663111",NA,NA,NA,"point_of_interest establishment"
"ChIJO2Haondu5kcRKUuIzd8ADyI","Sincu Florica","48.884542","2.3672661",NA,NA,NA,"point_of_interest establishment"
"ChIJEeKfHSJu5kcRFgh2c9zsP9c","MOBILE STORE","48.8845711","2.3673124",NA,"2.6","60","point_of_interest establishment"
