"Id","Name","Lat","Lng","Rating","Nb_Rating","Type"
"ChIJ15-jWaFt5kcRBf0MVHzLfb0","8-12 Avenue René Fonck","48.8793417","2.4086319",NA,NA,"route"
"ChIJ8WM5VqFt5kcRLyisN4AXuE8","Maison de retraite Océane Paris","48.8794034","2.4092133","4.7","3","health point_of_interest establishment"
"ChIJm72pVqFt5kcRrbq2b_fn4_k","CFE-CGC Presstalis","48.8797627","2.4086441",NA,NA,"point_of_interest establishment"
"ChIJdYnjJ_dt5kcRdA1_j6C71oA","CFDT DOUANE PARIS","48.8797627","2.4086441",NA,NA,"point_of_interest establishment"
"ChIJmbu9VqFt5kcRvb06W-cSlag","Le Vitalys","48.8798575","2.4087721","3.4","5","point_of_interest establishment"
"ChIJP1QmXqFt5kcRTYDJZ7iUY7c","Jardin Serge Gainsbourg","48.8789869","2.4084299",NA,NA,"premise park point_of_interest establishment"
"ChIJD7fiBh9u5kcRYJSMaMOCCwQ","Paris","48.856614","2.3522219",NA,NA,"locality political"
