"Id","Name","Lat","Lng","Rating","Nb_Rating","Type"
"ChIJJSilHrxt5kcRHjybE6lr-pk","1-25 Rue Janssen","48.8793064","2.3973009",NA,NA,"route"
"ChIJj4D8oL5t5kcRyL7rvBwFC6k","Antenniste Paris - Pascal Satellite Systems","48.8791676","2.3968962",NA,NA,"point_of_interest establishment"
"ChIJf4Wvl75t5kcRQeno510WjNw","Syndicat National des Artistes Plasticiens","48.8789704","2.3966686",NA,NA,"point_of_interest establishment"
"ChIJhTUzGbxt5kcRVmnmgKaxsBs","Lameth Thomas","48.8791804","2.3972271",NA,NA,"point_of_interest establishment"
"ChIJj4D8oL5t5kcRUUo6YloViM8","Form Hygiène","48.8791676","2.3968961",NA,NA,"point_of_interest establishment"
"ChIJ2ZK8l75t5kcRlmIp102-DBc","Fédération Nationale des Syndicats du Spectacle de l'Audio Visuel et de l'Action Culturelle","48.8789704","2.3966686",NA,NA,"point_of_interest establishment"
"ChIJ08HaHrxt5kcRq-qEVBsPxkE","Prodaf","48.8791804","2.3972271",NA,NA,"point_of_interest establishment"
"ChIJr-OwmL5t5kcR-AEE2mAu3Lg","uspaoc","48.8789557","2.3966802",NA,NA,"point_of_interest establishment"
"ChIJkxgxn75t5kcRr9fn37L-wWM","Douvin Henri Roger Jean","48.8789704","2.3966686",NA,NA,"physiotherapist health point_of_interest establishment"
"ChIJ3wLFmL5t5kcRwN4ecOqA7Ts","Sarl SM Agencement","48.8789704","2.3966686",NA,NA,"point_of_interest establishment"
"ChIJr-OwmL5t5kcR0lHKfcCTtD8","SNAM CGT","48.879014","2.3966725",NA,NA,"point_of_interest establishment"
"ChIJk5wKor5t5kcRja7v22shegw","LevWeb","48.878951","2.3966404",NA,NA,"point_of_interest establishment"
"ChIJ3wLFmL5t5kcRa1Er0HVir2o","Ass Soutien Social Artistes du Spectacle","48.8789712","2.3965159",NA,NA,"point_of_interest establishment"
"ChIJv4mAuRRu5kcRplaPe8Nd4x8","Roland Bost","48.8787332","2.3973308",NA,NA,"health point_of_interest establishment"
"ChIJAQy_JLxt5kcRHMOS91EkzZw","Abecassis David","48.8788133","2.3973732",NA,NA,"point_of_interest establishment"
"ChIJszjbHrxt5kcRRsbwHXNmgHc","Fédération Française des Artisans Fleuristes","48.8792109","2.3973088","5","3","point_of_interest establishment"
"ChIJ1SQTo75t5kcRkmibgY7CNIw","French Union of Artists and performers","48.879184","2.396457",NA,NA,"point_of_interest establishment"
"ChIJ08HaHrxt5kcR4cDEY6oTO1U","Adpfa","48.8792538","2.397305",NA,NA,"point_of_interest establishment"
"ChIJfQD0Irxt5kcR5gBtlFp82Rk","Temple Antoiniste","48.8789581","2.3975381","5","3","place_of_worship point_of_interest establishment"
"ChIJD7fiBh9u5kcRYJSMaMOCCwQ","Paris","48.856614","2.3522219",NA,NA,"locality political"
"ChIJj4D8oL5t5kcRoIjApMZXFqY","Form-Edit","48.8791676","2.3968961",NA,NA,"point_of_interest establishment"
"ChIJX-g6n75t5kcRTO0vuLnag0U","Azguard","48.878961","2.3966885",NA,NA,"point_of_interest establishment"
"ChIJH6bHmL5t5kcRDC3f95CYjD8","Ouakil Henri","48.87897","2.396669","5","5","physiotherapist health point_of_interest establishment"
"ChIJCY0oFoFt5kcRGEiGoTiwQiY","CENTRE DE KINESITHERAPIE","48.8789704","2.3966686",NA,NA,"physiotherapist health point_of_interest establishment"
"ChIJ3wLFmL5t5kcR7Vc7dv9uxxE","Florin Guillaume","48.8789704","2.3966686",NA,NA,"point_of_interest establishment"
"ChIJI6qlpb5t5kcRLjg8up18Rfc","Douvin Henri Roger Jean","48.8789704","2.3966686",NA,NA,"physiotherapist health point_of_interest establishment"
"ChIJf4Wvl75t5kcRFUndVlLJCBA","Yazbeck Levi Annie","48.8789704","2.3966686",NA,NA,"point_of_interest establishment"
"ChIJhVfumL5t5kcR75N8hUbGxIU","Oriel Conseil","48.8789356","2.3966068",NA,NA,"point_of_interest establishment"
"ChIJr-OwmL5t5kcRTi9ILHzyOXs","Syndicat des Professionnels des Industries de l'Audiovisuel et du Cinéma C.G.T.","48.8790228","2.3966081",NA,NA,"point_of_interest establishment"
"ChIJQYbfSCFt5kcRTV_SWsztWWM","Seraphinmtouillet","48.879185","2.3971249",NA,NA,"point_of_interest establishment"
"ChIJ--mHob5t5kcRvmyhvJcNqFo","Apfsv","48.8791957","2.3966619","1","1","point_of_interest establishment"
"ChIJszjbHrxt5kcRnZIhPGh6G6M","Floriform","48.8791804","2.3972271",NA,NA,"point_of_interest establishment"
"ChIJhTUzGbxt5kcREueZXRANmZ8","Gleizes Véronique","48.8791804","2.3972271","1.6","5","doctor health point_of_interest establishment"
"ChIJMaNXhptt5kcRyytdOCs0ICs","Radu Clit","48.8788133","2.3973732",NA,NA,"health point_of_interest establishment"
"ChIJpYDoI7xt5kcRYfrIZBHePF8","Mikazuki Prod","48.8788133","2.3973732",NA,NA,"point_of_interest establishment"
"ChIJcaIrwylt5kcRH37KHtNnupE","Retoucherie","48.8788133","2.3973732","5","4","point_of_interest establishment"
"ChIJAQy_JLxt5kcR2YKa_MZyndY","Damour Emmanuelle","48.8788133","2.3973732",NA,NA,"point_of_interest establishment"
"ChIJ57Yki1pt5kcRI_YE39QnK7U","Les fleurs arctiques","48.8787812","2.3973503",NA,NA,"point_of_interest establishment"
"ChIJeZ79Hbxt5kcRfT7gVwY2AbY","Themie","48.8793627","2.3968751","5","1","point_of_interest establishment"
"ChIJHdRZpr5t5kcRUvJSrwEFlio","Mehanni Ziane","48.8793605","2.3968159",NA,NA,"general_contractor point_of_interest establishment"
"ChIJUQcEHrxt5kcRDllq3nSY_7c","Communaute Internationale Pour La Solidarité Et Le Développement C.i.s.d","48.8793599","2.3970444",NA,NA,"point_of_interest establishment"
"ChIJPW1oVSVt5kcRtFCr6A-TFew","Adrien mezouane-bleu électricien","48.8793603","2.3970929","5","20","electrician point_of_interest establishment"
"ChIJD4h4Hbxt5kcR3rAQPm4vneI","Nicolas Cyril","48.8793603","2.3970929",NA,NA,"point_of_interest establishment"
"ChIJD4h4Hbxt5kcR8t1spVIkVXo","Wei Wu","48.8793603","2.3970929",NA,NA,"point_of_interest establishment"
"ChIJGZvgHbxt5kcRkbZD4fIF8gY","Mougin Yves","48.8793603","2.3970929","1","1","point_of_interest establishment"
"ChIJo5rgHbxt5kcRJNGeo39dsQc","Kuirzepo","48.8793603","2.3970929",NA,NA,"point_of_interest establishment"
"ChIJ88eDHrxt5kcRmBQmPGKM2vo","Cordonnerie Janssen","48.8793646","2.397226",NA,NA,"point_of_interest establishment"
"ChIJwZQOo75t5kcRkQ18fche-E4","LDR19","48.87929","2.39646",NA,NA,"funeral_home point_of_interest establishment"
"ChIJM85LgUht5kcRDGTh1yrD0oY","Joëlle Dollé Photographe","48.8789018","2.3976057","5","1","point_of_interest establishment"
