"Id","Name","Lat","Lng","Price_level","Rating","Nb_Rating","Type"
"ChIJt4FYYA1u5kcRjZ2QnCDhRj8","Boulevard de Magenta","48.8746653","2.3574637",NA,NA,NA,"route"
"ChIJLbN0mRJu5kcRAYL3Vux1RZU","LA FIDÉLITÉ - PARIS","48.874701","2.356731","2","3.9","81","bar restaurant food point_of_interest establishment"
"ChIJIciTYg1u5kcRvj0tWXlACV8","Société Générale","48.8744245","2.3574315",NA,"2.6","16","bank atm finance insurance_agency point_of_interest establishment"
"ChIJMyahnxJu5kcR5QTJ1EY3bz0","Bernard Savine","48.8747363","2.35705",NA,NA,NA,"lawyer finance point_of_interest establishment"
"ChIJ95FUnhJu5kcR5CfnayCWAUo","Optic Light Network","48.8748326","2.3570481",NA,NA,NA,"health point_of_interest store establishment"
"ChIJVVUpohJu5kcRTKJ-PU4BxQY","AIMAN INFORMATIQUE - WWW.AIMAN.PARIS","48.874953","2.35701",NA,"5","22","point_of_interest store establishment"
"ChIJf3oCoRJu5kcRuz5t79_peSo","Pour Que L'Esprit Vive","48.8749933","2.3568857",NA,NA,NA,"point_of_interest establishment"
"ChIJV1UpohJu5kcRZwVGR8og3Es","Capitale Vacances","48.8749933","2.3568858",NA,NA,NA,"point_of_interest establishment"
"ChIJa6yodWVu5kcRorCMRMYJoHM","TISCO Ingénierie","48.8749933","2.3568857",NA,"4","7","general_contractor point_of_interest establishment"
"ChIJtz9yQg1u5kcRcoxHeW7Xxvk","Saint-Laurent, Paris","48.874846","2.357964",NA,"4.4","473","tourist_attraction church place_of_worship point_of_interest establishment"
"ChIJ2fVAYA1u5kcRMIcPhPEbJKs","Studytec","48.8745028","2.356823",NA,NA,NA,"point_of_interest establishment"
"ChIJYRm8oRJu5kcRx3LlZmoU2YI","Travaux-Professionnels.fr","48.874953","2.35701",NA,NA,NA,"general_contractor point_of_interest establishment"
"ChIJYRm8oRJu5kcRdLY7Vw5eVjU","Hors Saison Musicale","48.874953","2.35701",NA,NA,NA,"point_of_interest establishment"
"ChIJLbN0mRJu5kcRFfU9JjyVUGk","Villaret Nicole","48.8748014","2.35665",NA,NA,NA,"point_of_interest establishment"
"ChIJXb-5Yg1u5kcRpaKWL1nezvw","Axxis Société Européenne de Sélection Consulting","48.8742825","2.3572791",NA,NA,NA,"local_government_office point_of_interest establishment"
"ChIJ3Q0YnxJu5kcRLIVGS6WXpEI","Dr Sebbag","48.8747529","2.3568219",NA,"5","3","dentist health point_of_interest establishment"
"ChIJqW9fH3Rv5kcRcFM7ewUQBkY","Post Office","48.8747919","2.3571438",NA,NA,NA,"post_office finance point_of_interest establishment"
"ChIJ0QHLdaJv5kcRmfkRTX3RxBI","space invader fidélité","48.8746909","2.3571207",NA,NA,NA,"point_of_interest establishment"
"ChIJLxkW1wZv5kcRpCQXfD7sZac","Guilain LOBUT","48.8748326","2.3570481",NA,NA,NA,"lawyer point_of_interest establishment"
"ChIJD7fiBh9u5kcRYJSMaMOCCwQ","Paris","48.856614","2.3522219",NA,NA,NA,"locality political"
"ChIJ9zn7lxNv5kcRm47IOQI2tw8","François Brunel","48.8748326","2.3570481",NA,"5","5","lawyer point_of_interest establishment"
"ChIJ__97nxJu5kcRXrd3Af1f4ss","Adam International","48.8748326","2.3570481",NA,NA,NA,"point_of_interest establishment"
"ChIJa1hZ5dNv5kcRHg6b3QK_hXg","MoneyGram","48.8748326","2.3570481",NA,NA,NA,"finance point_of_interest establishment"
"ChIJyVWZnxJu5kcRTQWvGKSBdwc","Videcoq Emilie Jessica","48.8748326","2.3570481",NA,NA,NA,"lawyer point_of_interest establishment"
"ChIJ0ZYbnxJu5kcRDQgi1wohrKY","Az Optique","48.8747294","2.3570034",NA,NA,NA,"store point_of_interest establishment"
"ChIJK-HalNJv5kcRZEMGYuBEvgU","Western Union","48.874721","2.357769",NA,NA,NA,"finance point_of_interest establishment"
"ChIJNVdtL59v5kcR4GCVSEvhhsE","Tecsa","48.874953","2.35701",NA,NA,NA,"point_of_interest establishment"
"ChIJmR6A90Zv5kcRMhN0yuqfC14","Ville d'Esbly","48.8747527","2.3568205",NA,NA,NA,"bar point_of_interest establishment"
"ChIJEb9Oh6pv5kcR13pk1Wa6d1I","Resto Ivoirien","48.8747033","2.3578872",NA,NA,NA,"restaurant food point_of_interest establishment"
"ChIJiXp1oRJu5kcRjLr1ogkWqlM","Aiman","48.8750136","2.3569468",NA,NA,NA,"point_of_interest establishment"
"ChIJ2fVAYA1u5kcRw3YPkO8x2bk","Pharmacie Lafayette du Soleil","48.8745015","2.3568815",NA,"3.6","23","pharmacy health point_of_interest store establishment"
"ChIJVVUpohJu5kcReGBW7qvQfVg","Royaume du foot","48.8749933","2.3568858",NA,"4.6","16","point_of_interest store establishment"
"ChIJVVUpohJu5kcRZmHXuxkUSyg","Cocoricauses - Plateforme de financement d'actions rurales","48.8749933","2.3568857",NA,NA,NA,"point_of_interest establishment"
"ChIJ0dFmohJu5kcRs7COujWHNQU","Turchanka Siarhei","48.8749933","2.3568857",NA,NA,NA,"point_of_interest establishment"
"ChIJH3oCoRJu5kcR5bzERQj-HpU","Kopf Didier","48.8749933","2.3568857",NA,NA,NA,"point_of_interest establishment"
"ChIJgw5joRJu5kcR6OLbvMPzKO4","Drubigny Jean-Loup","48.8749933","2.3568857",NA,NA,NA,"point_of_interest establishment"
"ChIJ87ZvmZJt5kcR_3i_G0KTOR4","Widoobiz","48.8749933","2.3568857",NA,"4.8","4","point_of_interest establishment"
"ChIJf3oCoRJu5kcRniJeTo8rkUg","Vourc H Drubigny Catherine","48.8749933","2.3568857",NA,NA,NA,"point_of_interest establishment"
"ChIJQRIEYw1u5kcRwJCUshq4EcU","Combes Clement","48.8743491","2.3574066",NA,NA,NA,"point_of_interest establishment"
"ChIJJzIuR-pv5kcRR11PnutJJTE","Velib Rue de la Fidélité","48.8746828","2.3567407",NA,"3","1","point_of_interest establishment"
"ChIJNz6KCoRv5kcRwGV52mc4CmA","Jouete Pelissierpuais","48.8745327","2.3568135",NA,NA,NA,"point_of_interest establishment"
"ChIJd6AmmhJu5kcRRipabehNm2Y","Agence De Voyage Cosmos Travels","48.8745327","2.3568135",NA,"5","1","travel_agency point_of_interest establishment"
"ChIJl_XNmgZv5kcRRCDEtjKGxWQ","smooss","48.8745028","2.356823",NA,"5","3","point_of_interest establishment"
"ChIJ-fZAYA1u5kcRAcj5RQ4kMBM","Monedero Christophe","48.8745028","2.356823",NA,NA,NA,"point_of_interest establishment"
