"Id","Name","Lat","Lng","Rating","Nb_Rating","Type"
"ChIJa_jWjNht5kcRhpKhMErNq2U","Avenue Jean Jaurès","48.8829301","2.3705658",NA,NA,"route"
"ChIJ_-IfANlt5kcR5i9oXZ13DvQ","Petz Angela","48.8830158","2.3705398",NA,NA,"point_of_interest establishment"
"ChIJ3fR_9tht5kcRM98Pcs1zRSw","Contrôleur général des lieux de privation de liberté","48.8832034","2.3710217","3","2","point_of_interest establishment"
"ChIJk0299tht5kcRlYRZkn9-oA0","Ourazi","48.8831502","2.3710133","4","2","restaurant food point_of_interest establishment"
"ChIJ24Sa_T9t5kcRTc7ezvX3Q-8","Écluse de la Vilette","48.8831606","2.3704951",NA,NA,"point_of_interest establishment"
"ChIJISS__Uht5kcRc44FlRMoLZM","Le Grand Marché","48.8832437","2.3698151","4.1","21","bar point_of_interest establishment"
"ChIJyfME9tht5kcRgL0Y_L8gI-w","Velib Station","48.8833553","2.3710034","2.5","2","point_of_interest establishment"
"ChIJe2yW9tht5kcRP9Pa-qo3GmY","Metro Jean Jaures Ligne 5","48.8831502","2.3710133","3.6","35","point_of_interest establishment"
"ChIJD7fiBh9u5kcRYJSMaMOCCwQ","Paris","48.856614","2.3522219",NA,NA,"locality political"
