"Id","Name","Lat","Lng","Rating","Nb_Rating","Type"
"ChIJe0ZzDIJt5kcRQRSEMJMmmsE","25 Rue Serpollet","48.8608587","2.4120134",NA,NA,"route"
"ChIJXZ10HIJt5kcRSpZcRSMA6Rc","Residence International De Paris.","48.860208","2.411864","3.7","165","lodging restaurant food point_of_interest establishment"
"ChIJKXYMBIJt5kcR1PXyTa_XEhk","Comité Régional Ile de France Handisport","48.860208","2.411864",NA,NA,"point_of_interest establishment"
"ChIJ1QrfA4Jt5kcRPLJuACqgK2w","Centre National De Formation Handisport","48.8602558","2.4118585",NA,NA,"point_of_interest establishment"
"ChIJ1_ikHYJt5kcRAJ0uEQm53cs","Fédération Française Handisport","48.860098","2.4119225","4","1","point_of_interest establishment"
"ChIJq6pqAYJt5kcRwHjEEXkOfkY","Dicosports LSF","48.8601064","2.4120167",NA,NA,"point_of_interest establishment"
"ChIJ91VLHYJt5kcRtC5RkRd1oEQ","Square Louis Lumière","48.8599626","2.4116475",NA,NA,"park premise point_of_interest establishment"
"ChIJD7fiBh9u5kcRYJSMaMOCCwQ","Paris","48.856614","2.3522219",NA,NA,"locality political"
