"Id","Name","Lat","Lng","Price_level","Rating","Nb_Rating","Type"
"ChIJkzUEz_dt5kcRHAN74bGl9Gw","28-52 Rue Godefroy Cavaignac","48.8564113","2.3803759",NA,NA,NA,"route"
"ChIJYa9hsfdt5kcRcI8d7WN9Z0A","Hôtel Mercure Paris Bastille Marais","48.8571749","2.3806151",NA,"4","297","lodging point_of_interest establishment"
"ChIJTUqiyPdt5kcR1APSPIb1ItU","L'Insolite","48.8568121","2.3802409",NA,"1","1","bar point_of_interest establishment"
"ChIJ3YtiGgBl5kcRc1jyz9n2k-o","Christophe OLLIVIER Psychologue Clinicien","48.8568274","2.3802601",NA,NA,NA,"health point_of_interest establishment"
"ChIJVVU5x_dt5kcRtviKivGkA74","Dominique Desrue","48.8566587","2.3800523",NA,NA,NA,"point_of_interest establishment"
"ChIJZwMmTfht5kcRiMVbdZHn84A","EMME26","48.8565256","2.3804197",NA,"4.9","16","point_of_interest establishment"
"ChIJx0jXtfdt5kcRLdSgYan8T5U","The Next Sense","48.8568798","2.3807739",NA,NA,NA,"point_of_interest establishment"
"ChIJj-G-tvdt5kcRFkktpwtjN1U","CRO Avocats","48.8569962","2.3806484",NA,"5","1","point_of_interest establishment"
"ChIJj-G-tvdt5kcR5orJsVaO5BI","Cabinet RAOUI","48.8569962","2.3806484",NA,NA,NA,"point_of_interest establishment"
"ChIJjeG-tvdt5kcR2hFffjtubEk","Martin Emmanuelle","48.8569963","2.3806484",NA,NA,NA,"finance point_of_interest establishment"
"ChIJjeG-tvdt5kcRTgyrpZl75fU","Thierry LUPIAC Avocat","48.8569963","2.3806484",NA,"4","2","lawyer point_of_interest establishment"
"ChIJ2fLNyPdt5kcRRknQVeTwMVY","LACOWECA","48.8564524","2.3805184",NA,NA,NA,"book_store point_of_interest store establishment"
"ChIJjeG-tvdt5kcRmclIYwH9JYo","avocat droit des contrats Paris","48.8570396","2.3806555",NA,NA,NA,"lawyer point_of_interest establishment"
"ChIJMVQZzPdt5kcRSP832YjGQk0","hodea","48.8563721","2.3805995",NA,NA,NA,"point_of_interest establishment"
"ChIJDXxdvwly5kcRIKCw1301aTc","Jones","48.856584","2.380064","2","4.4","249","restaurant food point_of_interest establishment"
"ChIJE5OPyPdt5kcRlbCm8H5qOPo","C2F Consulting","48.8565607","2.3803832",NA,"5","1","point_of_interest establishment"
"ChIJb1yLtfdt5kcRsCt7HtEH2-4","Allumage","48.8567598","2.3807902",NA,"5","1","point_of_interest establishment"
"ChIJjeG-tvdt5kcRWJBzStGXRE8","Vanessa Bah Leroux","48.8570396","2.3806555",NA,"3.7","3","lawyer point_of_interest establishment"
"ChIJ0SBwtPdt5kcR3LhYSi2qXZQ","Chalom","48.8569963","2.3806484",NA,"1","1","food point_of_interest store establishment"
"ChIJD7fiBh9u5kcRYJSMaMOCCwQ","Paris","48.856614","2.3522219",NA,NA,NA,"locality political"
"ChIJ1y1Zz_dt5kcRorrVuUkoelY","Service des impôts des particuliers du Centre des Finances Publiques (11ème)","48.85632","2.3802656",NA,"2","46","accounting finance local_government_office point_of_interest establishment"
"ChIJe5VnvPdt5kcRyeUARAyShms","Kalarin Architecture","48.8572166","2.380176",NA,NA,NA,"general_contractor point_of_interest establishment"
"ChIJazwrufdt5kcRtnTG7CT_zC4","Good Light Studio","48.8566587","2.3800523",NA,"4.6","11","point_of_interest establishment"
"ChIJV7AHtfdt5kcRLF-ZDBOQNgI","dépannage informatique à domicile et sur site sur Paris","48.8568798","2.3807739",NA,"4.6","13","point_of_interest establishment"
"ChIJoSM1ufdt5kcREoLp66XlqnI","Rapid-Vélo","48.8569619","2.3801404",NA,"4.8","75","bicycle_store point_of_interest store establishment"
"ChIJl_yLx_dt5kcRkAPRDifhfY0","Tant d'Avenir Store","48.8567684","2.380309",NA,"5","30","jewelry_store point_of_interest store establishment"
"ChIJl_yLx_dt5kcRZNw3D--LmtA","Artisan Végétal - Coloration Végétale / Coiffeur Bio","48.8567777","2.3803004",NA,"4.9","112","hair_care point_of_interest establishment"
"ChIJkchruPdt5kcRjRi6MtuRsSY","Planete Commerce","48.8568196","2.3802462",NA,NA,NA,"point_of_interest establishment"
"ChIJq6puuPdt5kcRNW4Zk_1hQY4","EMC2","48.8568658","2.3802451",NA,NA,NA,"point_of_interest establishment"
"ChIJN-DWaLpt5kcRpw2ZIRKV1F8","Simplogistique SARL","48.8565607","2.3803832",NA,NA,NA,"moving_company storage point_of_interest establishment"
"ChIJE5OPyPdt5kcRDxkARbj5xcc","Jean-Baptiste Durand","48.8565607","2.3803832",NA,NA,NA,"point_of_interest establishment"
"ChIJ_dybyPdt5kcRUCla5peSFQY","Taurines Yvan","48.8565607","2.3803832",NA,NA,NA,"point_of_interest establishment"
"ChIJ5QmkDP1t5kcRLr-ZumsL6dk","OUI.Logistique","48.856559","2.3803772",NA,"5","1","point_of_interest establishment"
"ChIJE5OPyPdt5kcR4BipD6NcFSo","Numidia Logistique","48.856559","2.3803772",NA,"5","1","point_of_interest establishment"
"ChIJwWf-tL0T5kcRPDPvxt6U0CA","SOUMGASSAMA","48.856559","2.3803772",NA,"5","3","point_of_interest clothing_store store establishment"
"ChIJE5OPyPdt5kcRp9qvLsT-3DM","Simplogistique","48.856559","2.3803772",NA,NA,NA,"point_of_interest establishment"
"ChIJE5OPyPdt5kcRFjpissNPMTo","Electric Dreams Inc","48.856559","2.3803772",NA,NA,NA,"point_of_interest establishment"
"ChIJ5fv8uPdt5kcRnRb0Y9qqjbs","Pizza 30 Paris","48.8569313","2.3801306",NA,"3.4","24","meal_delivery food point_of_interest establishment"
"ChIJvdyuG_Zt5kcRRxe4cF3v5yY","Rapid Vélo","48.856971","2.3801664",NA,"4.2","6","point_of_interest establishment"
"ChIJ07NRt_dt5kcR8rOrj7Y3nd0","Thomasmanonmarie4845","48.857036","2.380406",NA,NA,NA,"lawyer point_of_interest establishment"
"ChIJb1yLtfdt5kcREA_kEFeEEcQ","Cocktail Brut","48.8567598","2.3807902",NA,NA,NA,"point_of_interest establishment"
"ChIJaT-c4-tt5kcROLQEPFjK0uQ","Cantine Voltaire","48.8567598","2.3807902",NA,"4.7","68","restaurant food point_of_interest establishment"
"ChIJjeG-tvdt5kcR95r-zd14RPg","Avocat en droit du travail","48.8569963","2.3806484",NA,NA,NA,"lawyer point_of_interest establishment"
"ChIJjeG-tvdt5kcR2E0Y5hOb9v8","Hugogarnier","48.8569963","2.3806484",NA,NA,NA,"point_of_interest establishment"
"ChIJjeG-tvdt5kcRjp8mCKYSnW4","Nomoi Productions","48.8569963","2.3806484",NA,NA,NA,"point_of_interest establishment"
"ChIJOz2nBv1t5kcRja8fM6x7Bmc","Serrurerie Richard Lenoir - Dépannage - Urgence - Ouverture de porte - Paris 11","48.8569973","2.3806707",NA,"4.5","19","locksmith point_of_interest establishment"
"ChIJ_0jMyPdt5kcRGmZUnIbMWMk","Paris - Texas Bar - Club","48.8564519","2.3804508",NA,"5","2","bar point_of_interest establishment"
"ChIJw8mZIRVt5kcR-1bwN9qnFFg","Restaurant Japonais - YAMATO","48.8570278","2.3800614",NA,"4.6","30","restaurant food point_of_interest establishment"
"ChIJrXw-vPdt5kcRHY2USrXhrDU","Restaurant La Paix","48.857069","2.380111","1","4.5","103","restaurant food point_of_interest establishment"
"ChIJk6kivPdt5kcRW1Wi8jppAAg","Kharroubi Chedli","48.857069","2.3801105",NA,NA,NA,"grocery_or_supermarket food point_of_interest store establishment"
"ChIJdYkHtfdt5kcRthUmdM5SYX0","Miele Laverie","48.8568643","2.3808833",NA,"5","1","point_of_interest establishment"
"ChIJcTETtPdt5kcRI_fHfckC0t4","Boucherie Avner","48.8570038","2.3808047",NA,"4.3","3","food point_of_interest store establishment"
"ChIJEydwtPdt5kcRBVh24qtmcfk","Yayami","48.8570821","2.3807517",NA,"4","72","bar restaurant food point_of_interest establishment"
"ChIJiVElNfZt5kcR4_-4gO6kqPc","Trevidic Juliette","48.8566022","2.3808825",NA,NA,NA,"point_of_interest establishment"
"ChIJv_QDvPdt5kcR8x_z7prIIUI","Fruits Légumes Verger Voltaire","48.8570927","2.3800207",NA,NA,NA,"point_of_interest establishment"
"ChIJSS_avfdt5kcRLqKVY4xVVJI","Le Grain de Riz","48.8570444","2.3798657","1","4.7","167","restaurant food point_of_interest establishment"
"ChIJkXWgvvdt5kcRYSjqKK87VbM","BRAME Bernard","48.8570738","2.3799397",NA,"5","1","lodging point_of_interest establishment"
"ChIJVVW5zvdt5kcRPJiEh25R8Pk","Ecs","48.8563721","2.3805995",NA,NA,NA,"point_of_interest establishment"
"ChIJ-f-7zvdt5kcRWsJFyP_HNzs","Experience makers","48.8563721","2.3805996",NA,NA,NA,"point_of_interest establishment"
"ChIJ__-Pxfdt5kcRwd2D_GImOAg","Sie Paris","48.85632","2.3802656",NA,NA,NA,"point_of_interest establishment"
