"Id","Name","Lat","Lng","Rating","Nb_Rating","Type"
"ChIJU5yStFFu5kcRSDHTobe3vE0","14-20 Rue Damrémont","48.8882179","2.3329005",NA,NA,"route"
"ChIJRVsJylFu5kcRu02eJiMlkkc","Atelier B 612","48.8879615","2.3325128","5","1","point_of_interest establishment"
"ChIJP5UstFFu5kcRHfPlkY5NPPI","Eighteen Burger","48.8881006","2.3327052","4.2","121","restaurant food point_of_interest establishment"
"ChIJP5UstFFu5kcReKudHC13V4w","Little Manou","48.8881112","2.3326892",NA,NA,"restaurant food point_of_interest establishment"
"ChIJG7vvHMhv5kcRTp6keJibPwM","Marguerite GROS","48.8877074","2.3328293","4.3","6","health point_of_interest establishment"
"ChIJOXiMtFFu5kcRoDHYQ2jAYC0","Rapid market","48.8881937","2.3327077","4.1","17","supermarket grocery_or_supermarket food point_of_interest store establishment"
"ChIJ2T70SVBu5kcRPbZeRLca1Dg","Arnaud De Fierkowsky","48.8879875","2.3333872","5","5","doctor health point_of_interest establishment"
"ChIJY65wM1Bu5kcRpTiSe65xKiw","Docteur Berreur Sylvie","48.8875731","2.3331384","4","11","doctor health point_of_interest establishment"
"ChIJL6NfzFFu5kcRLA320XRydZ4","O'REAL","48.887535","2.332801","5","3","point_of_interest establishment"
"ChIJQc7-QBlu5kcRYF9mjL2S8bs","Petits Pas d'Enthalpie","48.8876838","2.3328483","5","6","health point_of_interest establishment"
"ChIJVfXby1Fu5kcR7xf6JC77J6w","Dr Alain Bouaziz","48.887733","2.3325284","4.4","40","doctor health point_of_interest establishment"
"ChIJrZ52ylFu5kcRhR5VVJIs7XA","Agence Principale Paris Montmartre","48.8879219","2.3328688","3.9","21","real_estate_agency point_of_interest establishment"
"ChIJccSrs1Fu5kcR1YN7dFWA3d8","Comptoir Colonial Paris-Tunis","48.8884146","2.3328307","3.5","2","bar restaurant food point_of_interest establishment"
"ChIJrZ52ylFu5kcR6esJ_QPHmMA","Gomard Pascl Le Biham Isabelle","48.8879433","2.332946",NA,NA,"point_of_interest establishment"
"ChIJTbM3Yzhv5kcRpWJpAACDZYs","Clotilde le Bihan","48.8879433","2.332946",NA,NA,"point_of_interest establishment"
"ChIJC99etVFu5kcRh7LKyu_7Ki0","J.Y.B Consulting","48.8879433","2.332946",NA,NA,"point_of_interest establishment"
"ChIJay_GUOJv5kcRPGxsoaQMtrI","DubucDerfalet","48.8878286","2.3329196",NA,NA,"point_of_interest establishment"
"ChIJt_OfMdpv5kcRgR5X0HEoy_s","Remyiais","48.8878286","2.3329196",NA,NA,"point_of_interest establishment"
"ChIJHRwCtVFu5kcRUhD8mzbzbWk","Laser Line","48.8880788","2.3329285","4.3","3","electronics_store point_of_interest store establishment"
"ChIJD7fiBh9u5kcRYJSMaMOCCwQ","Paris","48.856614","2.3522219",NA,NA,"locality political"
"ChIJFwKutVFu5kcR9qUre6T9jN0","Cloma Electricite","48.8880487","2.3330693","5","2","electrician point_of_interest establishment"
"ChIJ7_zUSlBu5kcRZ6TyUBKnzGc","Shahjalal Multimedia And Bazar","48.888078","2.3330364",NA,NA,"point_of_interest establishment"
"ChIJv-ZzylFu5kcRZ5V0Z-e43Ug","Paris Griff","48.8877876","2.3328033","4.4","16","point_of_interest clothing_store store establishment"
"ChIJywPSjC5v5kcRPREpimwbd1I","Montmartre Store","48.8881341","2.3329625","5","3","electronics_store furniture_store home_goods_store point_of_interest store establishment"
"ChIJHRwCtVFu5kcRIQoI-SCKzTk","Féliziani Hurpy Yvelise","48.8881341","2.3329625","1","1","lawyer point_of_interest establishment"
"ChIJx8xYs1Fu5kcRsRDWO4WeiMA","Deon Patricia Yvette","48.8881054","2.3330898",NA,NA,"point_of_interest establishment"
"ChIJOXiMtFFu5kcRMhhRoC6gQ-k","Kuypers Françoise","48.8881006","2.3327052",NA,NA,"point_of_interest establishment"
"ChIJOXiMtFFu5kcRYzHh7fa-7kc","Retouche couture","48.8881006","2.3327052","3.8","13","point_of_interest establishment"
"ChIJ396dzlFu5kcRFxl0U0gljEI","La Cigogne Benelli","48.8875562","2.3325444","5","3","grocery_or_supermarket restaurant food point_of_interest store establishment"
"ChIJbcxYs1Fu5kcRi3TwF4XNJyU","Rousseau Véronique","48.8881314","2.3331102",NA,NA,"point_of_interest establishment"
"ChIJ8_AKy1Fu5kcR6NhHOOFQ7fY","Psychologie Plurielle - Cabinet Multilingue et Interculturel","48.8877074","2.3328293","4","1","health point_of_interest establishment"
"ChIJ8_AKy1Fu5kcRQ-SUQoaUC0g","Sofia Elkhatib","48.8877074","2.3328293","5","1","health point_of_interest establishment"
"ChIJ8_AKy1Fu5kcRItr4KMuw0LM","Michael Mestre","48.8877074","2.3328293",NA,NA,"health point_of_interest establishment"
"ChIJX_f5Vilv5kcRS8jsFPj-M4c","Clara HENNEBERT","48.887707","2.332829","4.6","9","health point_of_interest establishment"
"ChIJU1UptlFu5kcRWJQRAYb5Xgk","Timetopodcast","48.8879615","2.3325129",NA,NA,"point_of_interest establishment"
"ChIJVfXby1Fu5kcRRkXIRMM5nhw","Benmussa Ben Moussa Marie Cecile","48.8877839","2.3325882",NA,NA,"point_of_interest establishment"
"ChIJVfXby1Fu5kcRJ7b0AviuT48","Suardi Lotte","48.8877839","2.3325882",NA,NA,"point_of_interest establishment"
"ChIJvx_JFQBy5kcRIK3dK-sy3Sw","sage-femme paris Ducros Alizee","48.8877842","2.3325858",NA,NA,"health point_of_interest establishment"
"ChIJeYP9JDhv5kcRDkinL6c1VmA","Lari Syrota","48.8876838","2.3328483",NA,NA,"point_of_interest establishment"
"ChIJjd6WqAJv5kcRilvRNA-R_XM","FRANCOIS HERBULOT","48.8876838","2.3328483","5","1","health point_of_interest establishment"
"ChIJ8_AKy1Fu5kcRJ5Wws9_iCmY","Massouma Rajabally","48.8876838","2.3328483",NA,NA,"health point_of_interest establishment"
"ChIJTTxrvyJv5kcREt7ztaw1Ni8","wololo","48.8876838","2.3328483",NA,NA,"point_of_interest establishment"
"ChIJOXiMtFFu5kcRC7fwujeu9fk","Kamioner","48.8881937","2.3327077","3","2","real_estate_agency point_of_interest establishment"
"ChIJ6auwct5v5kcRDCMH6kOVwEQ","Jouete Marcopuais","48.8882103","2.3326466",NA,NA,"point_of_interest establishment"
"ChIJ2T70SVBu5kcRspNDmWQZLCk","Kania Christophe","48.8879875","2.3333872","2.8","5","physiotherapist health point_of_interest establishment"
"ChIJ2T70SVBu5kcRe7qH1PLdeKY","CAP EUREKA","48.8879875","2.3333872",NA,NA,"point_of_interest establishment"
"ChIJWQ2lt1Fu5kcRgZ9tH98AjWc","Isabelle Templon Consulting","48.8880686","2.33245","5","1","point_of_interest establishment"
"ChIJ__8TNlBu5kcReYQ66LZdQsY","Ma Chouette Compagnie","48.8878643","2.3334276",NA,NA,"point_of_interest establishment"
"ChIJ156Qs1Fu5kcRUTN99U0DguI","Bourse Du Logement","48.8883038","2.3328253",NA,NA,"point_of_interest establishment"
"ChIJz9Np1Plv5kcRq8Dbik3YBgA","CONCEPT ISOLATION FENETRE Paris","48.8883038","2.3328253","5","1","point_of_interest store establishment"
"ChIJnaf68Ndv5kcRoVLpy4U0mo0","innovation paris","48.8877094","2.3333251","5","1","painter general_contractor point_of_interest establishment"
"ChIJiZtI4Rdv5kcRZBYA7_uuoVo","AgenC","48.8877094","2.3333251",NA,NA,"point_of_interest establishment"
"ChIJbcxYs1Fu5kcRgKE4fovX0K4","Etude Saintclair","48.8883109","2.3330647",NA,NA,"real_estate_agency point_of_interest establishment"
"ChIJn7bA3BVv5kcRYPATjmuGNe0","Scafom-rux France","48.8883093","2.3330751",NA,NA,"point_of_interest establishment"
"ChIJd-q2TFBu5kcRw06fXMMkUTA","Dam Dim Dom","48.8883093","2.3330751",NA,NA,"point_of_interest establishment"
"ChIJ4yE9S1Bu5kcRsNdtsD7KuJs","Le Vestiaire du 18ème","48.8883093","2.3330751","4.7","12","point_of_interest store establishment"
"ChIJ2T70SVBu5kcRYmyLdZLPQ9U","Raphaël HAJ ESMAEILI","48.887965","2.3334771","5","4","physiotherapist health point_of_interest establishment"
"ChIJe5LGSVBu5kcRi8810sqKL6Y","Podologue - Ostéopathe","48.8879853","2.3334896",NA,NA,"health point_of_interest establishment"
"ChIJqUBPDiNv5kcRVZVEAHrOdGw","Céline Creveau sage-femme","48.8879853","2.3334896","5","4","health point_of_interest establishment"
"ChIJ32xM0Pdv5kcRQqKBS_VhlVs","Solène VUANO","48.8879853","2.3334896","5","1","health point_of_interest establishment"
