"Id","Name","Lat","Lng","Rating","Nb_Rating","Type"
"ChIJSym2UH9u5kcRld20OjKZq1M","35-31 Villa Curial","48.8915501","2.3696342",NA,NA,"route"
"ChIJy9-p8NVt5kcRzk2cO268sp8","Association Nouna Bat-El","48.891582","2.3702764",NA,NA,"point_of_interest establishment"
"ChIJN3vUZX9u5kcR0Cb3988IFFM","Terra","48.8921172","2.3700313","4.3","7","point_of_interest establishment"
"ChIJzZkOVUZt5kcRpygxrev3Ik4","Doular Saulnierpuais","48.8913791","2.3700046",NA,NA,"point_of_interest establishment"
"ChIJD7fiBh9u5kcRYJSMaMOCCwQ","Paris","48.856614","2.3522219",NA,NA,"locality political"
