"Id","Name","Lat","Lng","Price_level","Rating","Nb_Rating","Type"
"ChIJpwRkO0Ju5kcRBFBgHcUBfzA","2-10 Place d'Anvers","48.882134","2.3448324",NA,NA,NA,"route"
"ChIJwXVPSEJu5kcRXbOAnd5l1yI","Saemes Parking Anvers","48.8825904","2.3440539",NA,"3.9","92","car_wash parking point_of_interest establishment"
"ChIJ4QKGOkJu5kcRBCPHmf3nuT8","Square d'Anvers","48.8821496","2.3444558",NA,"4.1","865","tourist_attraction park point_of_interest establishment"
"ChIJhRMzYUFu5kcRYkWGRKYtcl0","Marche Anvers","48.8822164","2.3447782",NA,"4","42","grocery_or_supermarket food point_of_interest store establishment"
"ChIJaYE-OUJu5kcRXnkTWYJqBCg","LAR 21- Coiffeur - Esthetique & Maquillage Permanent","48.8824698","2.3447626",NA,"3.8","86","beauty_salon hair_care point_of_interest establishment"
"ChIJ4ZL8OEJu5kcRdiwpKgZgKjQ","Les Oiseaux","48.8826297","2.3447",NA,"3.9","497","restaurant food point_of_interest establishment"
"ChIJkwLkR0Ju5kcReiPzfZ62rrI","La Ferme de Cintrat","48.8821501","2.3449572",NA,NA,NA,"food point_of_interest store establishment"
"ChIJIUgVP0Ju5kcRX3cI-3wPehY","New Look Coiffure","48.8825719","2.344972",NA,"4.5","6","hair_care point_of_interest establishment"
"ChIJE2grI0Ju5kcRgtfIbwaPwI8","Le Grand Comptoir d'Anvers","48.8820175","2.3449897","2","4","415","bar restaurant food point_of_interest establishment"
"ChIJnYE-OUJu5kcRKuGPRxPiQT4","Abp","48.8824393","2.344792",NA,NA,NA,"point_of_interest establishment"
"ChIJPcwBPEJu5kcR0dpqSPRpsYY","Harvest Media","48.8823366","2.3448714",NA,NA,NA,"point_of_interest establishment"
"ChIJeQ9sPEJu5kcRh2aEyCaktRI","Hôtel du Square d'Anvers","48.8822432","2.3449154",NA,"3.8","164","lodging point_of_interest establishment"
"ChIJ4ZL8OEJu5kcRIkkybZhh0Zw","Cibron Anne","48.8825584","2.3447677",NA,NA,NA,"point_of_interest establishment"
"ChIJZcV1OEJu5kcRCkbHGKo_A7s","Kanterbräu","48.8826313","2.3446771",NA,NA,NA,"point_of_interest establishment"
"ChIJY0vcjPdv5kcRGE4yVclbawA","Living Room Music Services","48.8825038","2.3449155",NA,NA,NA,"electronics_store home_goods_store point_of_interest store establishment"
"ChIJlSFcmv1v5kcR31PJq3nEARo","voyant par téléphone","48.8825038","2.3449155",NA,NA,NA,"point_of_interest establishment"
"ChIJXce4r4Rv5kcRZdbd5m4KUWU","FB MUSIC","48.8825038","2.3449155",NA,NA,NA,"electronics_store home_goods_store point_of_interest store establishment"
"ChIJ5RjKIqhv5kcRvnqiV4czGeo","Frederic de la Brêche du Loup","48.8825038","2.3449155",NA,NA,NA,"point_of_interest establishment"
"ChIJqXAoP0Ju5kcRqfbUWbY3_xc","Poli François","48.8825038","2.3449155",NA,NA,NA,"point_of_interest establishment"
"ChIJD7fiBh9u5kcRYJSMaMOCCwQ","Paris","48.856614","2.3522219",NA,NA,NA,"locality political"
"ChIJ8_4zNRJv5kcRD_wP1aLIQnY","EUDPR","48.8826297","2.3447",NA,NA,NA,"point_of_interest establishment"
"ChIJeQHTPEJu5kcRcfcuXvrvZlk","Egh Developpement","48.8820282","2.3449897",NA,NA,NA,"restaurant food point_of_interest establishment"
"ChIJC_QOP0Ju5kcRxu_CBLhQWr0","Living Room Music France","48.8825389","2.3450131",NA,"5","2","electronics_store home_goods_store point_of_interest store establishment"
"ChIJE2grI0Ju5kcR1rbb7SvZsKU","La Table D'anvers","48.8820175","2.3449897",NA,"5","1","point_of_interest establishment"
"ChIJ4XevP0Ju5kcRhxAXj0FG5uE","Alimentation Dunkerque","48.8824536","2.3450887",NA,NA,NA,"point_of_interest establishment"
"ChIJC4T73ipv5kcRsnWa8Os-yFg","Station Vélib n°9005 Anvers Square","48.8826054","2.3449477",NA,NA,NA,"point_of_interest establishment"
