"Id","Name","Lat","Lng","Price_level","Rating","Nb_Rating","Type"
"ChIJL4Pb9nBu5kcRci8aQvd9Cv4","Boulevard de la Chapelle","48.8845098","2.3611414",NA,NA,NA,"route"
"ChIJOTwJXnBu5kcRSIO3V8lha9o","Hôtel du Square","48.8848806","2.3607324",NA,"2.8","50","lodging point_of_interest establishment"
"ChIJ6_MHX3Bu5kcR3oVEnFull-Y","La Royale","48.8846098","2.3609622",NA,"3.6","34","bar point_of_interest establishment"
"ChIJ8aG0X3Bu5kcRUCJ0y823UME","Studio BW","48.884773","2.360805",NA,"5","1","point_of_interest establishment"
"ChIJq6p2QrJt5kcRLr7OVTrcuAw","JMG CARGO","48.8847729","2.3608047",NA,"2.2","44","finance point_of_interest establishment"
"ChIJRfPvE3Fu5kcR0y3SId7-y5M","AFC","48.8844998","2.361457",NA,NA,NA,"moving_company point_of_interest establishment"
"ChIJs2Si8nBu5kcRhIQJ8nji_IY","Teletech","48.8847573","2.3615565",NA,NA,NA,"point_of_interest store establishment"
"ChIJLeD57XBu5kcRrFQv7k9k7gY","Sohan Café","48.8846206","2.3615691","2","4.7","205","cafe restaurant food point_of_interest store establishment"
"ChIJwZ4-YXBu5kcRT5OSNH0pJ0w","LADAPT SESSAD Paris","48.8850683","2.3606347",NA,"3.8","5","point_of_interest establishment"
"ChIJRzVT3_xv5kcRjPBSmGSlds8","Western Union","48.884628","2.360816",NA,NA,NA,"finance point_of_interest establishment"
"ChIJ4cXqX3Bu5kcRaKPRP3PH5eQ","Mondial Relay Jmg Gargo","48.8847729","2.3608047",NA,"5","1","point_of_interest establishment"
"ChIJ4cXqX3Bu5kcR00Rm5xR2E8I","7 Noir","48.8847729","2.3608047",NA,NA,NA,"point_of_interest establishment"
"ChIJNZ4WP5pv5kcR96kUqzSlvvc","Rabbani centre","48.8847729","2.3608047",NA,"4","1","point_of_interest establishment"
"ChIJcTyU8nBu5kcRe_PZQYrJ7Yk","La Chapelle","48.8847377","2.361459",NA,NA,NA,"transit_station point_of_interest establishment"
"ChIJNZgEW3Bu5kcRWJINTQnm9gY","La Chapelle","48.8844174","2.3605691",NA,"3.1","107","subway_station transit_station point_of_interest establishment"
"ChIJNbZoNj5v5kcRElptMrE_6qQ","LADAPT Paris - Centre d'accueil de jour (CAJ)","48.8849915","2.360675",NA,NA,NA,"point_of_interest establishment"
"ChIJ8yl-jHBu5kcRHnUA6wU3wXs","Riner Judo Connection","48.8849861","2.3612707",NA,NA,NA,"point_of_interest establishment"
"ChIJj4W4XnBu5kcRRorM6aitU5E","Place de la Chapelle","48.8845561","2.360351",NA,"1","1","bus_station transit_station point_of_interest establishment"
"ChIJr8Dx8nBu5kcR_I5ZsL-fjSE","Vijay Telecom","48.8847573","2.3615565",NA,"3.8","9","point_of_interest establishment"
"ChIJD7fiBh9u5kcRYJSMaMOCCwQ","Paris","48.856614","2.3522219",NA,NA,NA,"locality political"
"ChIJpWsHWHBu5kcRcQC3B5w-pOY","Relais de la Chapelle","48.884244","2.360837",NA,"1","1","gas_station point_of_interest establishment"
"ChIJvXP_93Bu5kcRmxdUSNQ4qWs","Express Station Service","48.8842224","2.3608527",NA,NA,NA,"point_of_interest establishment"
"ChIJ__8P-HBu5kcRmpvN4hYM4FI","ELAN","48.8842163","2.360866",NA,NA,NA,"gas_station point_of_interest establishment"
