"Id","Name","Lat","Lng","Rating","Nb_Rating","Type"
"ChIJAcKRXrlt5kcR81OEJWW6YYU","3-1 Rue David d'Angers","48.8813655","2.3968605",NA,NA,"route"
"ChIJlRJ25rtt5kcRJX4IhVbRXkk","Wulgue Alain","48.8811645","2.3977701",NA,NA,"point_of_interest establishment"
"ChIJf0vK4btt5kcRSXESJE8TiJg","HeyTeam","48.8813735","2.3973664",NA,NA,"point_of_interest establishment"
"ChIJwTLI8btt5kcR36PsQM5FRcQ","Rochandco Multiservices","48.8812495","2.397072",NA,NA,"laundry point_of_interest establishment"
"ChIJf0vK4btt5kcRZQpahpojW9w","Julien Frederic","48.8813735","2.3973664","5","6","point_of_interest establishment"
"ChIJsbYJX7lt5kcRsZGSrl_xAew","Deflisques Damien","48.8813735","2.3973664",NA,NA,"point_of_interest establishment"
"ChIJM0KGWLlt5kcRkT12N11ARt0","Bodyroyall","48.8811422","2.3971491",NA,NA,"point_of_interest establishment"
"ChIJFxPB_Ltt5kcR5t9uMaiYtqk","Larive Olivier","48.881041","2.3972888",NA,NA,"point_of_interest establishment"
"ChIJD7fiBh9u5kcRYJSMaMOCCwQ","Paris","48.856614","2.3522219",NA,NA,"locality political"
