"Id","Name","Lat","Lng","Price_level","Rating","Nb_Rating","Type"
"ChIJK4MPIUhu5kcRII_wW9mY7eU","54-66 Rue Saint-Lazare","48.8768743","2.333255",NA,NA,NA,"route"
"ChIJTdLG1jdu5kcR0WmYV8Gglek","Société Générale","48.8768248","2.3324718",NA,"1.8","20","bank atm finance insurance_agency point_of_interest establishment"
"ChIJTdLG1jdu5kcRLvsOyb-7NO0","La Rotonde","48.8766538","2.3325523","2","3.6","584","cafe restaurant food point_of_interest establishment"
"ChIJ3wUE2Tdu5kcR9guVRjEyN60","Igefi","48.8764489","2.3329918",NA,NA,NA,"point_of_interest establishment"
"ChIJIYdG7Tpu5kcRR6WjWvaiM7A","Urban Gaming","48.8767876","2.3329756",NA,"4.7","20","point_of_interest establishment"
"ChIJQfJhKUhu5kcRILbnnMXCV8w","Crédit du Nord","48.8768302","2.3324776",NA,"2","7","bank atm finance point_of_interest establishment"
"ChIJaUwg3zdu5kcRSvKdY7ekjm4","Docendi","48.8764233","2.3331904",NA,"4.2","5","point_of_interest establishment"
"ChIJLYXRJkhu5kcRu1MpPPgtEOg","Xavier Ferrand","48.8767931","2.3331027",NA,NA,NA,"point_of_interest establishment"
"ChIJ67qIJkhu5kcRVeK1YNkpUUI","ARPEGE","48.876717","2.3330161",NA,NA,NA,"accounting finance point_of_interest establishment"
"ChIJ_6D52Ddu5kcRKz0uDi80CVQ","Formation lean","48.8764813","2.3329967",NA,NA,NA,"point_of_interest establishment"
"ChIJ_6D52Ddu5kcRRlncAkq0q0s","Oscar","48.8764726","2.3329678",NA,NA,NA,"point_of_interest establishment"
"ChIJtR8kpjpu5kcRh5Ow_oXgFrM","Novaminds","48.8764533","2.3328996",NA,"4","1","point_of_interest establishment"
"ChIJP95w1zdu5kcRZN4gIfCfmqI","Redifi Laila","48.8765669","2.3326523",NA,"5","4","dentist health point_of_interest establishment"
"ChIJP95w1zdu5kcR4zJQKP5Pn7Y","Municipality of Paris","48.8765669","2.3326523",NA,NA,NA,"doctor health point_of_interest establishment"
"ChIJj2VZ3zdu5kcRjz5s2VZBaFY","Je Suis Guitariste!","48.8765754","2.3331814",NA,NA,NA,"point_of_interest establishment"
"ChIJj2VZ3zdu5kcRJLtbA3utoRA","A Simple Plan","48.8765754","2.3331814",NA,NA,NA,"point_of_interest establishment"
"ChIJA4Di2Ddu5kcRpDXlTvcmdEw","Multifonds","48.8764418","2.3330043",NA,NA,NA,"point_of_interest establishment"
"ChIJVVUBN4Rv5kcRM9reyGfG7uY","EIC","48.8767931","2.3331027",NA,NA,NA,"point_of_interest establishment"
"ChIJecre3jdu5kcR1OAVJEGfdR8","Auxale","48.8764233","2.3331904",NA,NA,NA,"point_of_interest establishment"
"ChIJD7fiBh9u5kcRYJSMaMOCCwQ","Paris","48.856614","2.3522219",NA,NA,NA,"locality political"
"ChIJpf-r2Tdu5kcRXLuM9xBq_pg","ToutSurMesFinances.com","48.8764233","2.3331904",NA,NA,NA,"point_of_interest establishment"
"ChIJa63n3jdu5kcRigDwGXsSCCI","Belzidsky Nadine","48.8764233","2.3331904",NA,"5","1","lawyer point_of_interest establishment"
"ChIJVVUBfjhu5kcRiggMsCmT7zI","INFOMEDIA","48.876423","2.33319",NA,NA,NA,"point_of_interest establishment"
"ChIJsZEAJEhu5kcRALjx0XygndM","Michino SARL","48.876423","2.33319",NA,"5","1","point_of_interest establishment"
"ChIJzeOKJkhu5kcRWGj1Xvq2nrI","Film Oblige","48.8769562","2.33286",NA,NA,NA,"point_of_interest establishment"
"ChIJ29lU3jdu5kcRtNPb1y5AXy4","Hotel Châteaudun Opéra","48.8764786","2.3332979",NA,"4","1","lodging point_of_interest establishment"
"ChIJHTR3Jkhu5kcRnB31S1SR4-Q","Anode Management","48.8769562","2.33286",NA,NA,NA,"point_of_interest establishment"
"ChIJ_bJfJkhu5kcR77ksb9uBdQs","Toi et Moi - Conseil conjugal et familial - Paris","48.8769445","2.3328446",NA,"4.7","3","health point_of_interest establishment"
"ChIJ91PBJUhu5kcRvl_Aw4uMWXg","Jean Claude Biguine","48.8769329","2.3327831",NA,"3.7","46","hair_care point_of_interest establishment"
"ChIJq6qe5wpt5kcR-yAF20xuixE","Marine FLEVIN Coaching","48.8769562","2.33286",NA,NA,NA,"point_of_interest establishment"
"ChIJAQDwJUhu5kcRDzSYOz4G9MM","L'atelier de Myrrha","48.8769562","2.33286",NA,NA,NA,"point_of_interest establishment"
"ChIJAQDwJUhu5kcRGoNfA_lRaJw","Digital Mammouth","48.8769562","2.33286",NA,NA,NA,"point_of_interest establishment"
"ChIJ9wxlJUhu5kcRDtN3UPg1dhk","Notarim","48.8769562","2.33286",NA,"3.2","9","point_of_interest establishment"
"ChIJ37vv3jdu5kcRfCnrfrOWPf4","UK Visa Application Centre","48.8764247","2.3333251",NA,"3.4","73","embassy point_of_interest establishment"
"ChIJa63n3jdu5kcRw4N02jlD0IY","TLScontact– Visa Application Centre Paris","48.87641","2.3333167",NA,"4.1","1140","local_government_office point_of_interest establishment"
"ChIJkVYEJkhu5kcRIutlTpM92cU","Lucien - Saint Lazare","48.8769414","2.3326172",NA,"4","37","restaurant food point_of_interest establishment"
"ChIJ8Tw2vDhu5kcRH_2DV4sdiTQ","Laffitte Academy","48.8763947","2.3333449",NA,"4","1","restaurant food point_of_interest establishment"
"ChIJS2HwK0hu5kcRsu4vZEeIUv8","Credij","48.8769048","2.3324824",NA,NA,NA,"point_of_interest establishment"
"ChIJK1zhI0hu5kcR05SlYJNIrIE","Le Terrabis","48.8769662","2.3332295",NA,"4","158","restaurant food point_of_interest establishment"
"ChIJEUwgIEhu5kcRKxZuUCXQBTc","Kelly Informatique","48.8767726","2.3335058",NA,"4.2","10","point_of_interest establishment"
"ChIJjwlN2Ddu5kcR74Hh6ScV6_s","Id MidCaps","48.8764533","2.3328996",NA,NA,NA,"real_estate_agency point_of_interest establishment"
"ChIJP9JXJkhu5kcRK1GAs7RXqe8","Groupe Cogefi-Afrique","48.8767876","2.3329756",NA,NA,NA,"finance point_of_interest establishment"
"ChIJDU6HJUhu5kcRpQDTziAOo-E","La Bonbonnière Saint-Honoré","48.8770539","2.3328272",NA,NA,NA,"food point_of_interest store establishment"
"ChIJAQDwJUhu5kcR2wpzo2oTH70","Lise Chalifour","48.8769562","2.33286",NA,NA,NA,"point_of_interest establishment"
"ChIJTdLG1jdu5kcRv-j8kncsVIY","Radiology and Ultrasound Cabinet","48.8765715","2.3326099",NA,"4.1","19","health point_of_interest establishment"
"ChIJKXrRJkhu5kcR5uCV7QUrdGA","VIRTUAL VISIT 360","48.8767931","2.3331027",NA,NA,NA,"point_of_interest establishment"
"ChIJxdNaFpVv5kcRdTtHrKB1WlQ","OPCO 2i","48.8761762","2.3330619",NA,"2.8","6","point_of_interest establishment"
"ChIJIZvJTxHsC0ERmKpvOb-ck68","Francoise Orabi","48.8769764","2.333337",NA,"1.9","18","doctor health point_of_interest establishment"
"ChIJizcU4Tdu5kcRIbnVesZWDgI","Sony Music Entertainment France","48.8764171","2.3335222",NA,"4.3","35","point_of_interest establishment"
"ChIJTdLG1jdu5kcRdSa457M6X88","LAVOIX","48.8765094","2.3325594",NA,"3.8","13","point_of_interest establishment"
"ChIJHTR3Jkhu5kcRNkc3ClTWKR0","La Cornaline","48.8769191","2.3329719",NA,"4.6","248","book_store point_of_interest store establishment"
"ChIJj_gQ2Mpv5kcRza0K0nPZTWU","Synergie Paris","48.8762054","2.333018",NA,"2.6","22","point_of_interest establishment"
"ChIJoUzk0Ddu5kcRWHPStPrvOTo","Callon Avocat & Conseil","48.8762019","2.3325885",NA,"5","2","lawyer point_of_interest establishment"
"ChIJmxXv0Dhu5kcRYcbXTAY3Dp0","Euro-fiduciaire","48.8764489","2.3329918",NA,"5","2","accounting finance point_of_interest establishment"
"ChIJbwYE2Tdu5kcRCSxpQYPgqdk","Flachs Bertrand","48.8764489","2.3329918",NA,NA,NA,"lawyer point_of_interest establishment"
"ChIJYesfhDhu5kcRqlqNdnUGjyY","Keslassy Michael","48.8764233","2.3331904",NA,NA,NA,"point_of_interest establishment"
"ChIJ6ZRmLEhu5kcRABn9cM_Mg0U","Pomme de Pain","48.8768636","2.3325326","2","3.1","21","meal_delivery cafe restaurant food point_of_interest establishment"
"ChIJTdLG1jdu5kcRXyVL-5Utaxk","Fan-Sin","48.8767571","2.3328024",NA,"4.4","10","restaurant food point_of_interest establishment"
"ChIJT9AFQkpu5kcRqzwwlXGRwvU","Cubik Partners","48.8764726","2.3329678",NA,"4.7","18","point_of_interest establishment"
"ChIJMxNnKEhu5kcRAmNU3St07Dw","Boulangerie Louerghemmi","48.8767361","2.3327157",NA,NA,NA,"point_of_interest establishment"
