"Id","Name","Lat","Lng","Price_level","Rating","Nb_Rating","Type"
"ChIJweeaGGRu5kcRgU0YFh9htxc","57-51 Rue Léon","48.8900582","2.3533605",NA,NA,NA,"route"
"ChIJPep6HmRu5kcRLEQSOnasJHY","Cuvier Galleze Karim","48.8903264","2.352934",NA,"4.3","3","store point_of_interest establishment"
"ChIJI8t3QWRu5kcRQBdnpDMRqlE","Collective Multi-Host And Family Municipal","48.8897815","2.3535446",NA,NA,NA,"point_of_interest establishment"
"ChIJH7-2JmRu5kcR6RBE4KOwCWA","Grans Ridot","48.8897037","2.3531352",NA,NA,NA,"point_of_interest establishment"
"ChIJ2Xwzd9xv5kcRKnkesdE5uwk","Philippe Dureuil Photographies","48.8897673","2.3533922",NA,"5","4","point_of_interest establishment"
"ChIJOVi4ImRu5kcR-GzkJawrTzo","Profil De Face","48.889963","2.3535244",NA,NA,NA,"point_of_interest establishment"
"ChIJgeVLI2Ru5kcRfmcx4uN1-b4","Espoir 18","48.8897815","2.3535446",NA,NA,NA,"point_of_interest establishment"
"ChIJPZNmGGRu5kcRNYDB9L9qcuQ","Sarl Bella Couturier","48.8901","2.3534437",NA,NA,NA,"point_of_interest establishment"
"ChIJRSyqGWRu5kcRJLpYs4zxIyM","Chez Léon","48.8901841","2.3534373","1","4.3","64","bar point_of_interest establishment"
"ChIJ2UwUtU1v5kcR6b6-nghc6KQ","Camara couture","48.8901839","2.3534293",NA,"4","1","clothing_store point_of_interest store establishment"
"ChIJRSyqGWRu5kcRo139tU_ZqpQ","Desrues Isabelle Anne","48.8901839","2.3534293",NA,NA,NA,"point_of_interest establishment"
"ChIJq6rGHmRu5kcRocpgj9-dcJM","Chez Adele","48.890258","2.3531857",NA,NA,NA,"point_of_interest establishment"
"ChIJO5GtHmRu5kcRuZRlJr2hpLQ","Villlage de Marcadet","48.890258","2.3531857","1","4.6","50","restaurant food point_of_interest establishment"
"ChIJ5wS_H2Ru5kcRm2Z3gg-2ufw","Restaurant Le Djoloff","48.8903013","2.3531221",NA,"4.6","13","restaurant food point_of_interest establishment"
"ChIJJ50pO2Ru5kcRSkqbzWQmv1M","Selarl Du Dr Diallo Yaya Labbo","48.8895689","2.353578",NA,NA,NA,"doctor health point_of_interest establishment"
"ChIJAcDXOmRu5kcRUBQqnTgSmMw","Jnr Industry","48.8895563","2.3535836",NA,NA,NA,"point_of_interest establishment"
"ChIJAcDXOmRu5kcRr879sbmL_eY","ADFI Ass Defense Familles Et Individus","48.8895563","2.3535836",NA,"4","1","point_of_interest establishment"
"ChIJAcDXOmRu5kcRon76hcz3DoM","Recherche Conseil d'Utilité Sociale (ASS)","48.8895563","2.3535836",NA,NA,NA,"point_of_interest establishment"
"ChIJAcDXOmRu5kcR11inVU-FrFY","Docteur Diallo Yaya-Labbo","48.8895563","2.3535836",NA,"4.5","6","doctor health point_of_interest establishment"
"ChIJD7fiBh9u5kcRYJSMaMOCCwQ","Paris","48.856614","2.3522219",NA,NA,NA,"locality political"
