"Id","Name","Lat","Lng","Rating","Nb_Rating","Type"
"ChIJC-PVo8tt5kcRVtTO0proD6k","Galerie de l'Ourcq","48.8927745","2.3885",NA,NA,"route"
"ChIJFzCgrctt5kcRWWd0I3yphVI","L'Artère, le jardin des dessins","48.8925264","2.3895009","4.5","2","park point_of_interest establishment"
"ChIJOy3EvMtt5kcRSL-EOh7sRMM","Carousel","48.89244","2.3884959","3.3","6","point_of_interest establishment"
"ChIJ_-r4qctt5kcRyLTFnVIiNEI","La folie numérique","48.8930523","2.3893716","4.3","8","point_of_interest establishment"
"ChIJD7fiBh9u5kcRYJSMaMOCCwQ","Paris","48.856614","2.3522219",NA,NA,"locality political"
