"Id","Name","Lat","Lng","Rating","Nb_Rating","Type"
"ChIJD7fiBh9u5kcRYJSMaMOCCwQ","Paris","48.856614","2.3522219",NA,NA,"locality political"
"ChIJhZWjmHJu5kcRrahOxxdGvKg","Fer de France","48.8773799","2.3578761",NA,NA,"point_of_interest establishment"
"ChIJm5WjmHJu5kcRleMqlQkT8Kw","wwakup","48.8773799","2.3578761",NA,NA,"health point_of_interest establishment"
"ChIJczFLdHdv5kcRTiL7YgVWCkk","Hotel libertel gare du nord","48.8776563","2.3571526",NA,NA,"lodging point_of_interest establishment"
"ChIJ6RoEfxVu5kcRrUYfcsGZh_w","SNCF Développement","48.8773975","2.357765","2.5","4","point_of_interest establishment"
"ChIJ_2BenHJu5kcRriDpCrzkPLI","Lucasalexisclement2036","48.877813","2.357747",NA,NA,"lawyer point_of_interest establishment"
"ChIJm5WjmHJu5kcRlXHPqGRi6-U","BHR","48.877299","2.3577288",NA,NA,"point_of_interest establishment"
"ChIJu2eemHJu5kcRV8OwGpaxFW4","Bâtiment EuroAlsace","48.8773715","2.357871","4","2","travel_agency point_of_interest establishment"
"ChIJTbMkrQxu5kcR4BqUaMOCCwU","10th arrondissement of Paris","48.8785161","2.3540347",NA,NA,"sublocality_level_1 sublocality political"
