"Id","Name","Lat","Lng","Price_level","Rating","Nb_Rating","Type"
"ChIJF_pC2cRt5kcR7bIqDOZ4NdQ","2-8 Avenue de Laumière","48.8828932","2.3814074",NA,NA,NA,"route"
"ChIJ5duE18Rt5kcRMO-CClqLn00","L'Atlantide","48.8830308","2.3809725","2","4.4","409","restaurant food point_of_interest establishment"
"ChIJ65aF2sRt5kcRATGpi5uO_3g","O Yakuza Sarl","48.8827093","2.3810517",NA,NA,NA,"restaurant bar food point_of_interest establishment"
"ChIJQ6buxMRt5kcRbMqpEvKeFAM","Mairie de Paris (Direction de la Voirie et des Déplacements)","48.882677","2.3813124",NA,NA,NA,"city_hall local_government_office point_of_interest establishment"
"ChIJp6Qu1sRt5kcRy9odzcy0AzY","BSD Ingénierie","48.8830798","2.3808624",NA,NA,NA,"point_of_interest establishment"
"ChIJqdfc1cRt5kcRX1vZ6mCt-s4","Chouen Ollier Camille","48.8830798","2.3808624",NA,"4.8","18","doctor health point_of_interest establishment"
"ChIJ9UtwzsRt5kcRu9E90Z1yxXM","Le Boudoir du regard 19ème","48.8824411","2.38078",NA,"4.7","386","beauty_salon spa point_of_interest establishment"
"ChIJa-RQLdtt5kcR31-6N-gRBjA","MAC Events","48.8824468","2.3807563",NA,NA,NA,"point_of_interest establishment"
"ChIJq_N2zsRt5kcRWS16mvStfkI","Compagnie In Cauda","48.8824468","2.3807563",NA,NA,NA,"point_of_interest establishment"
"ChIJq_N2zsRt5kcRfnvxKxTASGE","Les Sentinelles des Collections","48.8824339","2.3806982",NA,NA,NA,"point_of_interest establishment"
"ChIJ2_u60cRt5kcRmva22l64zCQ","Fabrice Millet architecture","48.8826577","2.3808838",NA,NA,NA,"point_of_interest establishment"
"ChIJb8023cRt5kcR8utIwX6DlzI","OMS 19","48.8825582","2.3816987",NA,"4","1","point_of_interest establishment"
"ChIJbQw3k71x5kcRPdPgwIrwoXc","Laure De Matharel - Ostéopathe","48.8826804","2.3804197",NA,"5","1","health point_of_interest establishment"
"ChIJa7qF2sRt5kcRPlYMwchxfuU","Driving School Des Buttes Chaumont","48.8826495","2.3810322",NA,"4.6","26","point_of_interest establishment"
"ChIJEdVFxcRt5kcRMNBU9KOQt8w","Rebillon Funeral and Marble","48.8824484","2.3811779",NA,"2","1","funeral_home point_of_interest establishment"
"ChIJW4xVLNtt5kcRGs2Gu0BsNfo","AFECOM Expertise comptable & Conseil","48.8827831","2.3803976",NA,"3.4","5","accounting finance point_of_interest establishment"
"ChIJR6QN28Rt5kcRdjO4lMf_wsw","Marques Carlos","48.882677","2.3813124",NA,NA,NA,"restaurant bar food point_of_interest establishment"
"ChIJWSDHxMRt5kcR4ZNBxJYarcI","Pharmacie de la Mairie","48.8824457","2.3812403",NA,"4.5","10","pharmacy health point_of_interest store establishment"
"ChIJFTYXw8Rt5kcRYodBW4K9iGs","LCL Banque et assurance","48.8824428","2.3812286",NA,"2","12","bank atm finance insurance_agency point_of_interest establishment"
"ChIJD7fiBh9u5kcRYJSMaMOCCwQ","Paris","48.856614","2.3522219",NA,NA,NA,"locality political"
"ChIJBRGe2sRt5kcRJSIAOe-7RMs","Saïko Restaurant Casher Asiatique Paris 19","48.8827092","2.3810516",NA,"4.3","162","restaurant food point_of_interest establishment"
"ChIJgb910MRt5kcRzpZug33I0kE","Anaisjuliehugo5589","48.8826446","2.3811058",NA,NA,NA,"school point_of_interest establishment"
"ChIJgcZB0MRt5kcRs7YgdJG3ya8","Etiennesergeedgard6307","48.882637","2.381019",NA,NA,NA,"real_estate_agency point_of_interest establishment"
"ChIJC_GH2cRt5kcRSSsVe04IeWI","Relooking","48.8828569","2.3812653",NA,NA,NA,"store point_of_interest establishment"
"ChIJRXL20cRt5kcRWK0M04EI0hk","Vip Clope","48.8827254","2.3808766",NA,NA,NA,"store point_of_interest establishment"
"ChIJR6QN28Rt5kcR4lSEp-0jDmI","Le Marigny","48.88267","2.3812856",NA,"3.9","87","bar restaurant food point_of_interest establishment"
"ChIJzWNZ0MRt5kcRwgUYRJo94MY","Codjia Jérôme","48.8827524","2.3808589",NA,NA,NA,"furniture_store home_goods_store point_of_interest store establishment"
"ChIJcbkLwwVt5kcRxJtPpiZmdS8","Bistrot MIYA","48.8829033","2.381203",NA,"4.9","21","restaurant food point_of_interest establishment"
"ChIJcc_t2cRt5kcRTECBWCIYfsU","Le Grenier A Cereales","48.8829033","2.381203",NA,"3","2","point_of_interest establishment"
"ChIJUyoixkNt5kcRTTzqRgUsohs","Permanence Parlementaire du député Mounir MAHJOUBI, 19ème Arrondissement","48.8829033","2.381203",NA,NA,NA,"local_government_office point_of_interest establishment"
"ChIJcc_t2cRt5kcR5RXoYdHn048","Action On Tourne","48.8829033","2.381203",NA,NA,NA,"point_of_interest establishment"
"ChIJR6QN28Rt5kcRPPKulqdF3vA","Lerigoleur Yann","48.882677","2.3813124",NA,NA,NA,"point_of_interest establishment"
"ChIJKfoH0MRt5kcR59b-L79Bo8c","Colombehubertjerome6099","48.882581","2.381105",NA,NA,NA,"school point_of_interest establishment"
"ChIJKQoY0MRt5kcRvmfOPWFlS1M","Simondonnetristan8873","48.882581","2.381019",NA,NA,NA,"lawyer point_of_interest establishment"
"ChIJzfe32sRt5kcRasX60Dh1N-E","Simondonnetristan8972","48.882581","2.381191",NA,NA,NA,"point_of_interest establishment"
"ChIJq5vc2cRt5kcRLJFrfE9pH4M","Gila Presse","48.8829535","2.3811741",NA,NA,NA,"point_of_interest establishment"
"ChIJ64AT28Rt5kcRxxBtMAoyBaI","Quentinjulienoceane3142","48.882637","2.381363",NA,NA,NA,"lawyer point_of_interest establishment"
"ChIJ-4zy28Rt5kcRFBTLMhu5u54","Etiennesergeedgard6336","48.882781","2.381436",NA,NA,NA,"point_of_interest establishment"
"ChIJY-G71sRt5kcRSW9e9mC4DnM","Colombehubertjerome6058","48.882919","2.380848",NA,NA,NA,"lawyer point_of_interest establishment"
"ChIJsbZd2cRt5kcR3lPvmEvvMK0","La Vieille France","48.88299","2.3811221",NA,"4.7","48","bakery food point_of_interest store establishment"
"ChIJDc4NHYJy5kcRjmn1t5UdgFg","Le Méliès","48.8826644","2.3807664",NA,NA,NA,"point_of_interest establishment"
"ChIJC2j_08Rt5kcRuZfL2z9tnYQ","Lucasalexisclement2029","48.8828566","2.3807613",NA,NA,NA,"school point_of_interest establishment"
"ChIJK_o1xcRt5kcR68jo1vyRGhg","Dominiquefrancissuzanne3544","48.882524","2.381191",NA,NA,NA,"point_of_interest establishment"
"ChIJPSkm0sRt5kcRPKiYHbSaId8","Thomasmanonmarie4838","48.882668","2.380749",NA,NA,NA,"doctor health point_of_interest establishment"
"ChIJX4WK0cRt5kcRziLaHHvQeHU","Kevinalexandrecamille8698","48.882637","2.380762",NA,NA,NA,"lawyer point_of_interest establishment"
"ChIJ4XHTz8Rt5kcR5cAo861wgp0","Simondonnetristan8971","48.882524","2.380934",NA,NA,NA,"doctor health point_of_interest establishment"
"ChIJG1IE1MRt5kcRShjQ8mZFMsY","Anaisjuliehugo5576","48.882893","2.380749",NA,NA,NA,"lawyer point_of_interest establishment"
"ChIJMfPBz8Rt5kcR70F2cwLxiEw","WOXUP Douche facile d accès","48.882485","2.381005",NA,NA,NA,"home_goods_store general_contractor point_of_interest store establishment"
"ChIJU1Wp18Rt5kcRQsBzlQHrAyk","American English School","48.8830378","2.3809909",NA,NA,NA,"school point_of_interest establishment"
"ChIJpwhMJWdu5kcR-vSIYotJm_8","Muller Feuga Antoine","48.8830378","2.3809908",NA,NA,NA,"point_of_interest establishment"
"ChIJ5duE18Rt5kcRENEs_32TIdY","Institut de Beauté Laumière","48.8830503","2.3810675",NA,"4.9","9","beauty_salon point_of_interest establishment"
"ChIJ92iK08Rt5kcRL-ptu2bIXzY","Anaisjuliehugo5590","48.882863","2.380676",NA,NA,NA,"point_of_interest establishment"
"ChIJZQRU28Rt5kcRD8ccoXEa1hI","Quentinjulienoceane3198","48.882555","2.381436",NA,NA,NA,"school health point_of_interest establishment"
"ChIJN5Q_0sRt5kcRonyHGve9bpg","Colombehubertjerome6072","48.882637","2.380676",NA,NA,NA,"point_of_interest establishment"
"ChIJI0bbxMRt5kcRKftPuv23YfQ","Lefebvre Quentin","48.8824348","2.3812722",NA,NA,NA,"point_of_interest establishment"
"ChIJMzAazsRt5kcRpk_ajD3hkMY","Zuber Julien","48.8824611","2.3808101",NA,NA,NA,"health point_of_interest establishment"
"ChIJqdfc1cRt5kcRHnvnPk2SJWY","Etienne Forin sage-femme libérale","48.8830798","2.3808624",NA,"5","9","health point_of_interest establishment"
"ChIJVX7R18Rt5kcRp0z7Z7LeL1E","Nermont Stephanie","48.8830798","2.3808624",NA,"4.3","6","point_of_interest establishment"
"ChIJGSzseyJt5kcRg-s4o7ESvtw","Boutique Hotel","48.8831294","2.3809957",NA,NA,NA,"travel_agency point_of_interest establishment"
"ChIJVSHQ18Rt5kcRa2o_WGuwkfM","Shoes Des Marques","48.8831369","2.3810143",NA,NA,NA,"point_of_interest establishment"
