"Id","Name","Lat","Lng","Price_level","Rating","Nb_Rating","Type"
"ChIJXxsFKTRs5kcRY1HbKzX0sw4","Boulevard Périphérique","48.900474","2.3898757",NA,NA,NA,"route"
"ChIJo7YIfDZs5kcR2C5wAYLHp2A","L'Orange Bleue","48.901112","2.390079","2","3.8","183","restaurant food point_of_interest establishment"
"ChIJVZKphTZs5kcRJIlp7K7Bt88","Sarl A.r International","48.9011192","2.3898875",NA,"5","1","point_of_interest establishment"
"ChIJYRvgsg1s5kcRoYJPzTiW-Ds","Milicevic","48.901126","2.38943",NA,NA,NA,"point_of_interest establishment"
"ChIJD7fiBh9u5kcRYJSMaMOCCwQ","Paris","48.856614","2.3522219",NA,NA,NA,"locality political"
