"Id","Name","Lat","Lng","Price_level","Rating","Nb_Rating","Type"
"ChIJxy91ZINt5kcRq7BxsMQJS_E","169-151 Rue de Bagnolet","48.8633459","2.4073024",NA,NA,NA,"route"
"ChIJI1nMZoNt5kcRlWXkiq9rJZE","Driving School 2000","48.8635507","2.4072652",NA,"4.9","170","point_of_interest establishment"
"ChIJI1nMZoNt5kcRscx3tGkaaZ4","AD Assurances et crédit.","48.8636079","2.4072786",NA,"4.3","8","insurance_agency point_of_interest establishment"
"ChIJI1nMZoNt5kcRmpHqNRFU7Nc","Serin Catherine","48.8636079","2.4072786",NA,NA,NA,"point_of_interest establishment"
"ChIJ1zvnWINt5kcRdfEMkgp2i_8","Groupe Service Solidaire","48.8641479","2.407145",NA,NA,NA,"point_of_interest establishment"
"ChIJ1zvnWINt5kcRFvW_5eVNaOg","Thomas-Bourgneuf Martine","48.8641479","2.407145",NA,NA,NA,"point_of_interest establishment"
"ChIJ1zvnWINt5kcRhIs0BDFDHeA","Arif Parcours","48.8641479","2.407145",NA,NA,NA,"point_of_interest establishment"
"ChIJPa4RWINt5kcRQMl9s4ePQ-k","Abyssinia Café Restaurant","48.8643125","2.4070251","2","4.5","260","bar restaurant food point_of_interest establishment"
"ChIJRQ8q6s1t5kcRyRhl5qEKSb4","Ménage Service","48.8641479","2.407145",NA,"5","1","health point_of_interest establishment"
"ChIJi2FDYYNt5kcRMuQoyKAj9J4","Bugniet-Cury Armance","48.8634256","2.4071794",NA,NA,NA,"point_of_interest establishment"
"ChIJKcRbXoNt5kcRi9Opq6GB-2c","Ratp-Mrf","48.8638811","2.4072064",NA,NA,NA,"point_of_interest establishment"
"ChIJJ7fEYINt5kcRanaN5SNg2KE","Electrical Sppliance Store","48.8636079","2.4072786",NA,NA,NA,"store point_of_interest establishment"
"ChIJI1nMZoNt5kcR50JtCm8p06g","D.t.p","48.8636079","2.4072786",NA,"5","2","point_of_interest store establishment"
"ChIJXTesk2ht5kcR1x_fmKYu7Xw","Nation Photo | Comptoir Pro","48.8641444","2.4071457",NA,NA,NA,"point_of_interest establishment"
"ChIJTeKby4Rt5kcRFDSKx5WnkAs","Cabinet de Conseil BabelConseil","48.8639382","2.4074569",NA,NA,NA,"point_of_interest establishment"
"ChIJ2USDXYNt5kcRkR5ErRJ5n8k","Laverie Automatique","48.8637777","2.4074719",NA,"3","2","laundry point_of_interest establishment"
"ChIJsUELgc5u5kcRGCiNAGfadsQ","Iqra Paris","48.8635507","2.4072652",NA,"4.8","11","point_of_interest establishment"
"ChIJU44P7l5v5kcRz0nGwFSZlNM","Traducteur assermenté arabe français","48.8635507","2.4072652",NA,"5","21","point_of_interest establishment"
"ChIJxbVxYYNt5kcR-YeD8x4FLZI","Atelier Bleu","48.8634837","2.4071522",NA,NA,NA,"point_of_interest establishment"
"ChIJD7fiBh9u5kcRYJSMaMOCCwQ","Paris","48.856614","2.3522219",NA,NA,NA,"locality political"
"ChIJM0WatrNt5kcRO00mCA1mDuY","Bouddha institut","48.863463","2.4071725",NA,"4.6","11","beauty_salon hair_care point_of_interest establishment"
