"Id","Name","Lat","Lng","Price_level","Rating","Nb_Rating","Type"
"ChIJ0wBlaj5u5kcRwW5qiab1rzA","24-34 Rue Bergère","48.8725576","2.3441262",NA,NA,NA,"route"
"ChIJqdMkPT5u5kcRKnr5T_LD7GY","ibis Styles Paris Lafayette Opéra (fermé pour travaux)","48.8728288","2.3449033",NA,"3.7","238","lodging point_of_interest establishment"
"ChIJiX5VOD5u5kcRudXxUknmqDU","Hôtel Mercure Paris Opéra Faubourg Montmartre","48.872993","2.3445795",NA,"3.9","396","lodging point_of_interest establishment"
"ChIJxRy3PD5u5kcRjpxH3RrbNWU","Hôtel Mercure Paris Opéra Lafayette (fermé pour travaux)","48.8729159","2.3449197",NA,NA,NA,"lodging point_of_interest establishment"
"ChIJb5BGOD5u5kcR3AMOG-uopoc","La Boule Rouge","48.8732307","2.344627","2","4.1","290","restaurant food point_of_interest establishment"
"ChIJIVpDPT5u5kcRMy78IkVi8wM","Costa Group International","48.8726247","2.3449042",NA,"2.3","3","travel_agency point_of_interest establishment"
"ChIJixb5aT5u5kcRC-AmfLU0Bu8","T.Paris","48.8726333","2.3442771",NA,"5","1","point_of_interest establishment"
"ChIJN0mJPz5u5kcRQpDkBai_KqE","FlatSolution designer 3D freelance","48.872693","2.344434",NA,NA,NA,"point_of_interest establishment"
"ChIJWTVeVZZv5kcRAiLC7B73h14","Jean Bellecour","48.8725978","2.3444278",NA,"3.4","5","point_of_interest establishment"
"ChIJK8-WPz5u5kcRPLFtdihQhLA","Atelier Parisien d'Horlogerie","48.8725891","2.3443984",NA,"4.8","122","point_of_interest establishment"
"ChIJJbO2QT5u5kcR6pZuOJOMkaw","Globe Linguistique","48.8726066","2.3441521",NA,NA,NA,"travel_agency point_of_interest establishment"
"ChIJOznXOz5u5kcRw5inP3KYN4M","Studio MTX","48.872994","2.3448075",NA,NA,NA,"point_of_interest establishment"
"ChIJL_ChFT5u5kcR3faicLRH2QE","Gregorutti Fabrice","48.8726466","2.3447815",NA,NA,NA,"point_of_interest establishment"
"ChIJWVgIOT5u5kcRwvbYNnAceJo","Bacus","48.8730217","2.3448105",NA,NA,NA,"point_of_interest establishment"
"ChIJb7xARj5u5kcRgFsd9pznqEs","bourse de voisinage","48.8731934","2.3441434",NA,"4","1","point_of_interest establishment"
"ChIJndjkaj5u5kcRp9cOliMSkAg","Qad","48.8724663","2.3442669",NA,NA,NA,"point_of_interest establishment"
"ChIJ6XbjOT5u5kcR2VzbtFXhTso","Adrien Patout","48.8731974","2.344753",NA,NA,NA,"point_of_interest establishment"
"ChIJKYJjaj5u5kcRqoFUQCD_YSw","BIEN BIEN/ BIEN BIEN 2","48.8726381","2.3442316","2","4.6","798","restaurant food point_of_interest establishment"
"ChIJSX5kFT5u5kcRqw_X-JPHZWg","Conteur","48.8725686","2.3445239",NA,NA,NA,"point_of_interest establishment"
"ChIJD7fiBh9u5kcRYJSMaMOCCwQ","Paris","48.856614","2.3522219",NA,NA,NA,"locality political"
"ChIJaa7oFT5u5kcRY4ncdqgXcx4","Scribeur","48.8725686","2.3445239",NA,NA,NA,"point_of_interest establishment"
"ChIJJQvcRD5u5kcRD9GnlL4j-Kw","Red Media Store","48.8730465","2.3438069",NA,"2.4","46","point_of_interest establishment"
"ChIJOwcbRj5u5kcRRok5bN2DdG0","VIDEO FINANCE - Communication Financière","48.8731978","2.3441585",NA,NA,NA,"point_of_interest establishment"
"ChIJA71ARj5u5kcRMFBaxegoMBs","ciib","48.8731978","2.3441585",NA,NA,NA,"finance point_of_interest establishment"
"ChIJzwE0FD5u5kcRZKzgZOoTf6k","DANSE Mathieu Infirmier Diplomé D'Etat","48.8724174","2.3446242",NA,NA,NA,"health point_of_interest establishment"
"ChIJYY7JFT5u5kcR5yQ1jlm1yDE","ERWAN LE NAOUR","48.8724174","2.3446242",NA,NA,NA,"painter art_gallery point_of_interest establishment"
"ChIJ9ZtugORt5kcRQAL58ESPYj4","Vassilia Galy-Guerlin Cabinet d'osthéopathie","48.8724174","2.3446242",NA,"5","9","health point_of_interest establishment"
"ChIJLUCA8pZv5kcRrxysapTksGQ","Technic'Art Drone - 1ère agence de communication par drone","48.8724174","2.3446242",NA,"5","1","point_of_interest establishment"
"ChIJ_5BWWz5u5kcRCYjOCEFs_sg","Esterel (Esterel)","48.8729172","2.3437046",NA,NA,NA,"point_of_interest establishment"
"ChIJLwvcRD5u5kcR7MfGwNrCsQk","Realisations","48.8730465","2.3438069",NA,NA,NA,"point_of_interest establishment"
"ChIJ16niRj5u5kcRl2wjSU0vU_I","Perez M","48.873037","2.3443856",NA,NA,NA,"food point_of_interest establishment"
"ChIJ16niRj5u5kcRozzkCRNc8sM","Dabou Consulting","48.8730373","2.3443505",NA,NA,NA,"point_of_interest establishment"
"ChIJWVgIOT5u5kcRk1UNJzy_8D4","Montex","48.8730007","2.344593",NA,NA,NA,"point_of_interest establishment"
"ChIJKYJjaj5u5kcRqXbzaYbtrnE","Trcc Consulting T.r.c.c","48.8726913","2.3441708",NA,NA,NA,"accounting finance point_of_interest establishment"
"ChIJKYJjaj5u5kcR76C617oogjQ","E Auction","48.8726333","2.3442771",NA,NA,NA,"point_of_interest establishment"
"ChIJ4_j4aT5u5kcRQo84-dYmF_U","Drujon Quellier Laurence","48.8727217","2.3440905",NA,NA,NA,"point_of_interest establishment"
"ChIJrxtCFT5u5kcR3nBi_k1-h2Y","Cohen Melanie","48.8726046","2.3443714",NA,NA,NA,"general_contractor point_of_interest establishment"
"ChIJJbO2QT5u5kcRO3eLrcjtz9Y","Residence Bergère","48.8726428","2.3441944",NA,"4.4","75","lodging point_of_interest establishment"
"ChIJuwyQRj5u5kcRKo3Hlu5A3Yw","SUMiBi KAZ","48.8730249","2.3441353",NA,"4.7","195","restaurant food point_of_interest establishment"
"ChIJ4YaJQz5u5kcRCyIgaBRvnCU","Selim Monique","48.872976","2.3440619",NA,"5","1","point_of_interest establishment"
"ChIJ86_lZMNv5kcRRS7tVXfClLA","Pastore","48.8725686","2.3445239",NA,"4.7","78","restaurant food point_of_interest establishment"
"ChIJXdi5Rz5u5kcRw7xzLSRO5Uw","Icart Hélène","48.8731441","2.3443365",NA,NA,NA,"point_of_interest establishment"
"ChIJOznXOz5u5kcRiZa_W7pDmr0","Converteo","48.8730217","2.3448105",NA,NA,NA,"point_of_interest establishment"
"ChIJAyp88jdv5kcRtGBSWYmV82w","PETIT DELI","48.8730279","2.3439999",NA,"4.8","36","restaurant food point_of_interest establishment"
"ChIJFQhJTj5u5kcRhx0ALUThIB0","Le Royal Bergère","48.8725155","2.3448719","2","3.7","307","bar restaurant food point_of_interest establishment"
"ChIJAweSHSFv5kcRmM-gKLFqYWw","investissez dans les entreprises que CiiB prépare à entrer en bourse","48.873157","2.3442049",NA,"5","1","finance point_of_interest establishment"
"ChIJC8lGPT5u5kcRNhzzNX45CkM","shcm","48.8728011","2.3449261",NA,NA,NA,"lodging point_of_interest establishment"
"ChIJO-6YzD9u5kcR2UVdJvbu-6A","David VINCENT Webdesigner Freelance","48.8731143","2.3447512",NA,NA,NA,"point_of_interest establishment"
"ChIJMcFqYvFv5kcRU1FSkXUzsCg","Makham Thaï | Restaurant Thailandais Paris","48.8730302","2.3439099",NA,"4.6","182","restaurant food point_of_interest establishment"
"ChIJRbjCFT5u5kcRthqJ6AG_wtg","T Verna-Dai-Gobbi","48.8725248","2.3447051",NA,NA,NA,"point_of_interest establishment"
"ChIJ94jCFT5u5kcRQXExhxloNmo","Caffe' Vergnano 1882","48.8725182","2.3447003",NA,"3.5","6","cafe food point_of_interest establishment"
"ChIJA71ARj5u5kcRJDNL3os4dcU","Love PME - Financement alternatif participatif","48.873195","2.3441563",NA,NA,NA,"finance point_of_interest establishment"
"ChIJI0hFaj5u5kcRGA7C55gF1XM","Samic","48.8724828","2.3441744",NA,NA,NA,"point_of_interest establishment"
"ChIJzwE0FD5u5kcRcUxc4FuqSWg","Cabinet Infirmières et Infirmiers","48.8724174","2.3446242",NA,"5","18","health point_of_interest establishment"
"ChIJ_YdLOD5u5kcRqLujd4UOGh4","Hagler Adele","48.8732307","2.344627",NA,NA,NA,"health point_of_interest establishment"
"ChIJb5BGOD5u5kcRfk-2kXg51nI","Hagler Investissement","48.8732307","2.344627",NA,NA,NA,"point_of_interest establishment"
"ChIJb5BGOD5u5kcRLfiohTiw-G4","Smhn (0)","48.8732307","2.344627",NA,NA,NA,"point_of_interest establishment"
"ChIJAQBUaj5u5kcRCXogsdEc4vs","Ness'immo","48.8724579","2.3441967",NA,NA,NA,"point_of_interest establishment"
"ChIJSarvRmlv5kcRDr1QKakQKAY","Taisiia","48.8731974","2.344753",NA,NA,NA,"point_of_interest establishment"
"ChIJ1UFVRrlv5kcRKEX2cd8mcHs","Aubertin Patrick","48.8730465","2.3438069",NA,NA,NA,"physiotherapist health point_of_interest establishment"
