"Id","Name","Lat","Lng","Price_level","Rating","Nb_Rating","Type"
"ChIJeZgMA_Vt5kcRipcJCTR1E48","18-24 Rue de la Folie-Regnault","48.857636","2.3872974",NA,NA,NA,"route"
"ChIJYYVdHfVt5kcRXV138s845OI","Philippe Postic","48.8578339","2.3875537",NA,"2.5","2","point_of_interest establishment"
"ChIJh9sGPNZx5kcRfa8lUp1Jevk","Bryce RAMEAU - SERVICES SUR MESURE","48.857774","2.387909",NA,NA,NA,"food point_of_interest establishment"
"ChIJw7dBIPVt5kcRqNUAdA_5K7c","Risterucci Françoise","48.857709","2.3880663",NA,NA,NA,"point_of_interest establishment"
"ChIJ-ZOhH_Vt5kcRwbxH8ifZvgI","Tina Merkes Architecture","48.857709","2.3880663",NA,NA,NA,"point_of_interest establishment"
"ChIJ-ZOhH_Vt5kcR8qtzMpOSwC8","Sabatier Franck","48.857709","2.3880663",NA,NA,NA,"point_of_interest establishment"
"ChIJse4h4fRt5kcRa6QtsAZwedw","Rose","48.8578691","2.3881085",NA,NA,NA,"point_of_interest establishment"
"ChIJ6RjZ3_Rt5kcRu3IJ0FBS-VE","Intégrale 4 Sarl","48.8578691","2.3881085",NA,NA,NA,"point_of_interest establishment"
"ChIJVYnk3_Rt5kcRoSx4ugSGVV4","Bruno Person","48.8578691","2.3881085",NA,NA,NA,"point_of_interest establishment"
"ChIJse4h4fRt5kcR56idIzSdNe4","ID Coiffure","48.8580472","2.3879391",NA,"4.7","23","hair_care point_of_interest establishment"
"ChIJw7dBIPVt5kcRqM5RZH93ptY","Ateliers Varan","48.857709","2.3880663",NA,"3.5","2","point_of_interest establishment"
"ChIJLVF44_Rt5kcRlDiBOSvc0i4","Restaurant Candela 2","48.858182","2.3876506","2","4","152","cafe bar restaurant food point_of_interest store establishment"
"ChIJnSmC5PRt5kcRD6Ig7qZSsQM","OCAMPO PRO","48.858182","2.3876507",NA,NA,NA,"general_contractor point_of_interest establishment"
"ChIJ9f_EoIlt5kcRDcySwtgmXV4","Caradec Loeiz","48.857709","2.3880663",NA,NA,NA,"point_of_interest establishment"
"ChIJw7dBIPVt5kcRnDPhNREtAcU","Stef Sabatier-Sitoleux","48.857709","2.3880663",NA,NA,NA,"point_of_interest establishment"
"ChIJNR7VKPht5kcRpwT5cX4LKq8","Bryce Paris - SERVICES SUR MESURE","48.857774","2.387909",NA,NA,NA,"food point_of_interest establishment"
"ChIJZ3RAHvVt5kcR821TBvx0n9g","Taster","48.857774","2.387909",NA,"1","2","point_of_interest establishment"
"ChIJY67fHfVt5kcRetkjrMw4hA0","D&D R'n Bar à Thèmes","48.857755","2.387923",NA,"5","2","bar restaurant food point_of_interest establishment"
"ChIJ39CHBPVt5kcR-vX7cj5GiSk","Delchini","48.8575142","2.3872744",NA,NA,NA,"point_of_interest establishment"
"ChIJD7fiBh9u5kcRYJSMaMOCCwQ","Paris","48.856614","2.3522219",NA,NA,NA,"locality political"
"ChIJHVEw4vRt5kcRLZF4Fz3cgKo","Cabinet Infirmier","48.8579823","2.3877792",NA,"3","3","health point_of_interest establishment"
"ChIJ2TFE4vRt5kcR63z7DYENhSw","Alexandre Bouteiller","48.8579898","2.3877622",NA,NA,NA,"health point_of_interest establishment"
"ChIJiQMv4vRt5kcRmLzoeCyCa90","Assya Ihathotane","48.8579825","2.3878012",NA,NA,NA,"point_of_interest establishment"
"ChIJiQMv4vRt5kcRJtbshBHv1RI","Morand Vanessa","48.8579825","2.3878012",NA,NA,NA,"health point_of_interest establishment"
"ChIJiQMv4vRt5kcRirWAWcEDpsw","Font Cecile","48.8579825","2.3878012",NA,NA,NA,"point_of_interest establishment"
"ChIJZe1pGfVt5kcRiKKdZsTJO8A","square de la Folie-Régnault","48.857457","2.3878511",NA,"4.7","7","park tourist_attraction point_of_interest establishment"
"ChIJleljAfVt5kcRCznsVUXWVV4","Stylo Pub","48.8576577","2.3870849",NA,NA,NA,"point_of_interest establishment"
"ChIJw7dBIPVt5kcRtGe4Wh5KZTc","Bruno GAUDIN","48.857709","2.3880663",NA,NA,NA,"point_of_interest establishment"
"ChIJw9PI_PRt5kcR-lkWKahqe8o","Chevailler Julie","48.8580461","2.3874549",NA,NA,NA,"point_of_interest establishment"
"ChIJ6RjZ3_Rt5kcRGdQ9jS0F2f8","DF Presse","48.8578691","2.3881085",NA,NA,NA,"point_of_interest establishment"
"ChIJG6B6_vRt5kcRmFOXBKcj1Oo","C M J P","48.8579887","2.387091",NA,NA,NA,"point_of_interest establishment"
"ChIJFQcMHfVt5kcRLTk_IZE2fpM","Marchand Gilles","48.8579887","2.387091",NA,NA,NA,"point_of_interest establishment"
"ChIJ6YLY3_Rt5kcRBxZZ2V4HCrw","Hotel Chez Arty","48.857954","2.388182",NA,NA,NA,"school point_of_interest establishment"
