"Id","Name","Lat","Lng","Price_level","Rating","Nb_Rating","Type"
"ChIJGdYPVltu5kcRA1iBxwycRao","4-6 Rue du Mont-Cenis","48.8868431","2.3413064",NA,NA,NA,"route"
"ChIJxbgiplxu5kcRQxS3QNZc3Uc","Sacré-Cœur Souvenirs","48.8871481","2.3416758",NA,"4.3","135","point_of_interest store establishment"
"ChIJy6QcqFxu5kcR-_RdjmfKCSc","Bournazel Pierre-Yves","48.887134","2.3413154",NA,NA,NA,"point_of_interest establishment"
"ChIJdVshqFxu5kcRHC3N7bf7c2k","Association Française d’Eutonie Gerda Alexander","48.8870375","2.3413999",NA,NA,NA,"point_of_interest establishment"
"ChIJX-1zplxu5kcRrw1-Hahpcuo","La Goutte de Lait","48.8871422","2.341716",NA,"3.9","45","food point_of_interest store establishment"
"ChIJcVBKUVtu5kcR1Snb94ltDJA","La comédie","48.8869079","2.3412453",NA,"5","1","bar point_of_interest establishment"
"ChIJj5gnsFxu5kcRyKy2jWjSOPA","La Virgule","48.8869824","2.3420342","2","3.8","283","bar restaurant food point_of_interest establishment"
"ChIJ_VCZrFxu5kcRrd-C2PTlm3M","Cimetière du Calvaire","48.8868433","2.3419011",NA,"4.2","17","cemetery point_of_interest establishment"
"ChIJMwfkp1xu5kcRx-YzuMVRUjE","Au Petit Creux","48.8869529","2.3414163",NA,"2.3","144","restaurant food point_of_interest store establishment"
"ChIJk2SSp1xu5kcRA_BpVaySSvM","Le Déli's Café","48.8871819","2.3413292",NA,"3","163","cafe bar restaurant food point_of_interest establishment"
"ChIJIYwfskRu5kcRw-RHkaHmdtM","La Bohème du Tertre","48.8867496","2.3411085","3","2.9","512","restaurant food point_of_interest establishment"
"ChIJs6kAV1tu5kcRRbnkEkrAAo0","Le Ceni's","48.8869854","2.3412454","2","3.6","287","cafe restaurant food point_of_interest establishment"
"ChIJy6QcqFxu5kcRBv7A3whGMjE","Ogeti Groupe Saint Michel","48.887193","2.3413269",NA,"2.6","11","point_of_interest establishment"
"ChIJjSXQqFxu5kcRepLucdzE6wQ","Les Ateliers de Montmartre","48.8870237","2.3414273",NA,"4.4","14","lodging point_of_interest establishment"
"ChIJL-Ypplxu5kcRsK1bJS9KaMs","Durand Carole","48.8870375","2.3413999",NA,NA,NA,"point_of_interest establishment"
"ChIJ___Lr1xu5kcRcM4UwWksvpM","GRENOUILLES","48.8870872","2.3416801",NA,"4.4","291","restaurant food point_of_interest establishment"
"ChIJv7GZqVxu5kcRMJiWZ62LJAg","Kaeppelin Renaud","48.8868806","2.3415062",NA,NA,NA,"point_of_interest establishment"
"ChIJt8Aoe6Nv5kcR7Gtvs8WkYaE","CROQ'MINUTE CREPERIE","48.8870719","2.3413096",NA,"2.8","22","cafe food point_of_interest establishment"
"ChIJcbq4V1tu5kcRGonBG0Mlr7g","Théâtre des Merveilles","48.8870338","2.3412881",NA,NA,NA,"point_of_interest establishment"
"ChIJD7fiBh9u5kcRYJSMaMOCCwQ","Paris","48.856614","2.3522219",NA,NA,NA,"locality political"
"ChIJ07_aV1tu5kcRlsn2pHHSTDY","Yunta Lopesino Mariano","48.8870338","2.3412881",NA,NA,NA,"point_of_interest establishment"
"ChIJqWeYV1tu5kcRdHtzMrRcgvc","Croq' Minute","48.8870338","2.3412881",NA,"4.5","4","restaurant bar food point_of_interest establishment"
"ChIJg3wdWFtu5kcREhZ83V7jrdw","Creacio","48.887135","2.3413353",NA,NA,NA,"point_of_interest establishment"
"ChIJL-Ypplxu5kcRuHuCAjjmebA","Goldery Anais Nadia","48.8872191","2.341525",NA,NA,NA,"point_of_interest establishment"
"ChIJp8aKPXlv5kcRVJkiOI7FbwA","Young Artists Montmartre - YAM Galerie","48.8869872","2.3412515",NA,"4.5","10","art_gallery point_of_interest establishment"
"ChIJxbgiplxu5kcR_UJiHLusQTw","Arthenice","48.8872197","2.3417219",NA,NA,NA,"finance point_of_interest establishment"
"ChIJ36JWTvdv5kcRT4p7bBLmqAg","Au Coeur Couronné","48.887111","2.3419232",NA,NA,NA,"restaurant food point_of_interest store establishment"
"ChIJZ0SHWFtu5kcRzwaZ4j2cVOQ","Tartempion","48.88728","2.3413624","2","2.6","151","restaurant food point_of_interest establishment"
"ChIJdWwSQNBv5kcRtjN2tD1mNzI","Place Jean Marais","48.8867397","2.3414323",NA,"4.4","5","point_of_interest establishment"
"ChIJwY3BVltu5kcRqURCAE9Rdbw","Mausset Alain","48.8869952","2.3410508",NA,NA,NA,"point_of_interest establishment"
"ChIJuxp0Cy9v5kcR51MNvDp08Zw","Au Coeur Couronné","48.8871218","2.3420003",NA,"5","3","grocery_or_supermarket restaurant food point_of_interest store establishment"
"ChIJ_fdFXltu5kcRfM_DKLmhh_M","Mont Cenis - Cortot","48.887383","2.341548",NA,"4","1","transit_station point_of_interest establishment"
"ChIJw8DqWFtu5kcRn9ihUslTzmQ","AxoStudio","48.887365","2.3413147",NA,NA,NA,"point_of_interest establishment"
"ChIJTScbUVtu5kcR9DBRAPeTW18","Districhoc","48.8869534","2.3408993",NA,"4","1","food point_of_interest store establishment"
"ChIJb0H0VFtu5kcRjwi6VvIxBlg","Roumieu Max","48.8867282","2.3410669",NA,NA,NA,"point_of_interest establishment"
"ChIJ_QTPqlxu5kcRmeKkGODQPG0","Place du Tertre - Norvins","48.8865948","2.3414749",NA,"2.5","2","bus_station transit_station point_of_interest establishment"
"ChIJCxVTVUNu5kcRxjXwtjXfWg4","Paroisse Saint-Pierre de Montmartre","48.8866786","2.3419959",NA,"4.6","475","tourist_attraction church place_of_worship point_of_interest establishment"
