"Id","Name","Lat","Lng","Rating","Nb_Rating","Type"
"ChIJ-VMgZjFs5kcRl9qjrJLFcv4","Boulevard de la Commanderie","48.9013113","2.3859423",NA,NA,"route"
"ChIJTwx-ZzFs5kcR8qJQ1Ldtujg","FUTURMA","48.9011551","2.3861824",NA,NA,"point_of_interest establishment"
"ChIJRXWRXTFs5kcRcY3QQFB2ELg","Place Auguste Baron","48.9011175","2.386239",NA,NA,"transit_station point_of_interest establishment"
"ChIJfaWoXTFs5kcRTMM84t8ckHs","Place Auguste Baron","48.901151","2.386302",NA,NA,"transit_station point_of_interest establishment"
"ChIJ3RNMbzFs5kcRMGpmIAfVa_s","Fulbe and Khem","48.9013933","2.3858371","1","1","point_of_interest establishment"
"ChIJsSVcZzFs5kcR9pSRNXZFQ60","Place Auguste Baron","48.9008904","2.3863673","1","1","bus_station transit_station point_of_interest establishment"
"ChIJD7fiBh9u5kcRYJSMaMOCCwQ","Paris","48.856614","2.3522219",NA,NA,"locality political"
