"Id","Name","Lat","Lng","Type"
"ChIJQedDeJlt5kcRdgMa-W_xh0o","12-24 Rue Haxo","48.8704582","2.4049017","route"
"ChIJHa3yfJlt5kcRBnG6-UMAVqw","Jean Philippe ROBIN","48.8703174","2.4052726","point_of_interest establishment"
"ChIJaw54eZlt5kcRCPRGkqwfsxo","Venidom","48.8705319","2.4050387","point_of_interest establishment"
"ChIJ5ZFteZlt5kcRJP_Ig5_dy7k","GR 10009","48.8705348","2.4050356","point_of_interest establishment"
"ChIJowg_aJlt5kcRPLjTI1xJyBw","Réservoir de Ménilmontant","48.8710147","2.4058177","premise point_of_interest establishment"
"ChIJD7fiBh9u5kcRYJSMaMOCCwQ","Paris","48.856614","2.3522219","locality political"
