"Id","Name","Lat","Lng","Price_level","Rating","Nb_Rating","Type"
"ChIJ5YZIsUlu5kcRTZImtZEvHgo","18-20 Rue Blanche","48.8780385","2.3318655",NA,NA,NA,"route"
"ChIJAwo7tElu5kcRLELgf0HZSyA","Bistro Des Deux Théâtres","48.8780556","2.3319444","2","3.9","488","bar restaurant food point_of_interest establishment"
"ChIJk5dxtklu5kcRQRHIE2QoFC4","Inspection de l'Education Nationale","48.8780936","2.3317431",NA,NA,NA,"city_hall local_government_office point_of_interest establishment"
"ChIJTfM2S0hu5kcRMoXYQ5R-iFA","U.f.a.c","48.8780685","2.3322053",NA,NA,NA,"point_of_interest establishment"
"ChIJqcemTUhu5kcR6A9r2hdC0z0","L'Inattendu","48.8783571","2.3322042","2","3.8","112","restaurant food point_of_interest establishment"
"ChIJMZbRtElu5kcRlOWZqWYMKCw","Akokdo","48.8780685","2.3322053",NA,"3","2","point_of_interest establishment"
"ChIJoV62EqoJ5kcRI7BOLMIyi34","eac","48.8780685","2.3322053",NA,NA,NA,"point_of_interest establishment"
"ChIJsxVItElu5kcRKpxR8eG83n4","Welcom' to Paris","48.878072","2.331946",NA,"1","2","travel_agency point_of_interest establishment"
"ChIJRbQVs0lu5kcRw6pl0RA0rCY","Albert","48.878283","2.332124","2","4.5","238","restaurant bar food point_of_interest establishment"
"ChIJRbQVs0lu5kcRLxmw9Z9SADk","Saint Germain","48.8782834","2.3321244",NA,"5","3","restaurant food point_of_interest establishment"
"ChIJRbQVs0lu5kcRU75J7hOEGyE","Justaucorps","48.8782885","2.3321569",NA,NA,NA,"point_of_interest establishment"
"ChIJReW3TEhu5kcRyChu1fbvAtU","Styles & Créations","48.8782885","2.3321569",NA,"3","2","point_of_interest establishment"
"ChIJT4bWsklu5kcR4JHgwTk5zjM","Elise Pelladeau- Psychologue Cabinet de Psychothérapie et Consultations psychologiques","48.8783571","2.3322042",NA,NA,NA,"health point_of_interest establishment"
"ChIJD35-005u5kcRnmM_ZgYkdOU","Merk","48.8779382","2.3317078",NA,NA,NA,"insurance_agency point_of_interest establishment"
"ChIJS4XcR0Bu5kcRommYuuivY78","Sylvia Lounis Psychologue Psychothérapeute","48.878405","2.3323566",NA,"5","1","health point_of_interest establishment"
"ChIJkZhXy0lu5kcRLCVyXxNSMqU","Kozumi Higaki","48.8776792","2.3321288",NA,NA,NA,"point_of_interest establishment"
"ChIJoXpPSEhu5kcRIWV7rfluLpU","9àPic","48.8779691","2.3327649",NA,"5","6","point_of_interest establishment"
"ChIJ1wuwpWqJ5kcRlnlmlA4zLOk","AZ Nettoyage","48.8776513","2.3324245",NA,NA,NA,"point_of_interest establishment"
"ChIJe00tS0hu5kcRiqIJFKnEN0M","MANAPPS","48.8780644","2.3322146",NA,NA,NA,"point_of_interest establishment"
"ChIJD7fiBh9u5kcRYJSMaMOCCwQ","Paris","48.856614","2.3522219",NA,NA,NA,"locality political"
"ChIJA9SCTEhu5kcRuIa7SNR_R1o","FM2J Conseil","48.8781857","2.3323478",NA,NA,NA,"point_of_interest establishment"
"ChIJBzCxehVu5kcRWmsIWgD70nI","Mademoiselle de Guise","48.8776135","2.3321671",NA,"5","39","point_of_interest clothing_store store establishment"
"ChIJIZ1JP0du5kcRA5N1LNVZbZM","Atelier Jamin","48.8781765","2.331993",NA,NA,NA,"point_of_interest establishment"
"ChIJF71Uyklu5kcRMTdpe_vyMgw","Anne Landry - Cabinet de psychothérapie","48.8775993","2.3321107",NA,"5","1","health point_of_interest establishment"
"ChIJkZhXy0lu5kcRNm680ARgwzc","DAMOUR HABITAT","48.8775993","2.3321107",NA,"3.7","16","finance general_contractor point_of_interest establishment"
"ChIJTfM2S0hu5kcRmGYCG2hdqs8","Oméga Hightech","48.8780644","2.3322146",NA,NA,NA,"point_of_interest establishment"
"ChIJUQpIS0hu5kcRtdyQyWQByZY","SIAGI","48.8780644","2.3322146",NA,NA,NA,"atm bank finance point_of_interest establishment"
"ChIJoylby0lu5kcRNoC9fM0MAQA","AZ NETTOYAGE & SERVICES","48.8775993","2.3321107",NA,"4.8","9","point_of_interest establishment"
"ChIJXfPey0lu5kcRxyNC3E1-PbY","Hanoï Corner","48.8776569","2.3318356",NA,"4.7","208","cafe restaurant food point_of_interest store establishment"
"ChIJk7P9e6l65kcRKniGrkz-g3k","Construction21","48.8776569","2.3318356",NA,NA,NA,"point_of_interest establishment"
"ChIJtURGS0hu5kcRFj7saY1dRLY","Besser Sebbag Patricia","48.8780685","2.3322053",NA,NA,NA,"point_of_interest establishment"
"ChIJTfM2S0hu5kcR1I9z5-pwz58","Cga Buralistes Presse Chr","48.8780644","2.3322146",NA,NA,NA,"point_of_interest establishment"
"ChIJoUUcAEdu5kcRb1pnm4R-m4M","Brecx Daphné","48.877729","2.332297",NA,"4.6","29","dentist health point_of_interest establishment"
"ChIJlY2mtElu5kcRYP0p-IzHXbs","Via Chocolat","48.8781964","2.3321738",NA,"4.6","12","food point_of_interest establishment"
"ChIJneNbeg1u5kcR5avupHZXxvU","Franprix","48.8783006","2.3326275",NA,"3.7","56","supermarket grocery_or_supermarket restaurant food point_of_interest store establishment"
"ChIJUQpIS0hu5kcRNamripry-I8","Sebbag Abraham","48.8780644","2.3322146",NA,NA,NA,"point_of_interest establishment"
"ChIJe00tS0hu5kcRDW76UdSXtA4","Brown & French","48.8780685","2.3322053",NA,NA,NA,"point_of_interest establishment"
"ChIJt5OUJi1v5kcRpuYoC3c9nlY","N9 Notaire - Office notarial du 2 rue Jean-Baptiste Pigalle","48.8780685","2.3322053",NA,NA,NA,"finance point_of_interest establishment"
"ChIJe00tS0hu5kcRy7rj-6jiuR4","Derimay Benoît","48.8780685","2.3322053",NA,NA,NA,"point_of_interest establishment"
"ChIJzeMnTjZu5kcRlFW3qT4GAGM","Docteur Denis Bouter","48.8780558","2.3322678",NA,NA,NA,"dentist health point_of_interest establishment"
"ChIJg2YTtUlu5kcRBJUlvHBxbek","Score Vauban","48.8779616","2.3320842",NA,NA,NA,"point_of_interest establishment"
"ChIJg2YTtUlu5kcRpT4tCYKeah4","54ter Rue De Châteaudun","48.8779616","2.3320842",NA,NA,NA,"point_of_interest establishment"
"ChIJASsU0IZv5kcRSege_Ga0ZeM","Bistrot des 2 théâtres","48.8780678","2.331999",NA,"5","1","restaurant food point_of_interest establishment"
"ChIJQ06mtElu5kcR_HCxarLHKZk","Atelier du Confiseur","48.8781786","2.3321621",NA,NA,NA,"food point_of_interest store establishment"
"ChIJCRZItElu5kcRuvDiZK42pRg","Chez Matthew","48.8780716","2.3319455",NA,NA,NA,"point_of_interest establishment"
"ChIJCRZItElu5kcRlaRK0hWUCek","CM Plus France","48.8780716","2.3319455",NA,NA,NA,"point_of_interest establishment"
"ChIJTdLG1jdu5kcRfkPhDOu4LrY","Valérie Rousseau","48.8780716","2.3319455",NA,"4.6","9","physiotherapist health point_of_interest establishment"
"ChIJXwdQNUhu5kcRzdxU4apHbpg","La Possible Échappée","48.877836","2.3322295",NA,NA,NA,"point_of_interest establishment"
"ChIJrZ2qOEhu5kcR69xrpxJa0PQ","Radio du N9uf","48.877836","2.3322295",NA,NA,NA,"point_of_interest establishment"
"ChIJRbQVs0lu5kcRXct55rqbI9w","Hamac Conseils","48.8782834","2.3321244",NA,NA,NA,"point_of_interest establishment"
"ChIJpb5mtklu5kcRakEAk91NlpQ","School Of Boys Ville De Paris","48.8780168","2.3317789",NA,NA,NA,"school point_of_interest establishment"
"ChIJkZhXy0lu5kcRSE2mv9yFBbg","Le Brigadier","48.8777087","2.3320647","2","3.5","213","restaurant food point_of_interest establishment"
"ChIJVfhny0lu5kcRkUfB0u1p3q0","Amal Gallier","48.8777864","2.3319819",NA,NA,NA,"health point_of_interest establishment"
"ChIJT4bWsklu5kcRZ1NcXNrV23E","Scp Zribi Et Texier","48.8783571","2.3322042",NA,"3","2","point_of_interest establishment"
"ChIJWYX6qxhv5kcR4RABcAxZ2EE","Anna Ivanov","48.8783633","2.3323531",NA,NA,NA,"health point_of_interest establishment"
"ChIJkZhXy0lu5kcRG-ptrnsokwg","Bellelle Jean-François","48.8776792","2.3321288",NA,NA,NA,"restaurant food point_of_interest establishment"
"ChIJq6qaTkhu5kcRNa0E4yAiAhc","Distripigalle","48.8782988","2.332619",NA,NA,NA,"point_of_interest establishment"
"ChIJS0IZsElu5kcRKgNtOCYaCtE","Secrets de Famille","48.8783333","2.3316667",NA,"4.4","106","bar restaurant food point_of_interest establishment"
"ChIJu-SJ5Htv5kcRtFGywoaCUo8","Cabinet Vanneau","48.8784437","2.3324195",NA,NA,NA,"lawyer point_of_interest establishment"
"ChIJtZSMTUhu5kcRL7JVPhx3RHE","Plombier Paris - AD Service","48.8784437","2.3324195",NA,"3.6","23","plumber electrician locksmith general_contractor point_of_interest establishment"
