"Id","Name","Lat","Lng","Price_level","Rating","Nb_Rating","Type"
"ChIJedq8Gk9u5kcRpQeqey4w01Q","59-49 Boulevard de Clichy","48.8834422","2.3332996",NA,NA,NA,"route"
"ChIJl5POHk9u5kcRYrrNOTh6tUs","Hôtel Moulin Plaza","48.8830556","2.3327778",NA,"3.7","312","lodging point_of_interest establishment"
"ChIJAQCQG09u5kcRa6TWP1VSaoE","Moulin Rouge Suite - 3 Rooms","48.8835219","2.3327692",NA,"4.7","15","lodging point_of_interest establishment"
"ChIJLY2eAk9u5kcRjNx5gAaixZQ","MONOPRIX","48.8834857","2.332851",NA,"3.4","364","supermarket grocery_or_supermarket food point_of_interest store establishment"
"ChIJc9yqHk9u5kcRrxl-1n1OOrU","Forêt Patrimoine","48.883108","2.333078",NA,NA,NA,"real_estate_agency point_of_interest establishment"
"ChIJQ-Rg4U5u5kcRi_kVdcrfM2k","le montovani pizza'man","48.883222","2.3327606",NA,NA,NA,"restaurant food point_of_interest establishment"
"ChIJ-WWYHk9u5kcRGgIaQI9-iZM","Le Dulcinéa","48.883156","2.33282","2","4.3","351","restaurant food point_of_interest establishment"
"ChIJuxqG4k5u5kcRBwnmcjg8NUs","EnGenius France Téléphonie : Production 2020","48.883395","2.332577",NA,"5","1","point_of_interest establishment"
"ChIJgcOQ-05u5kcReJEIyFjICFk","Buffalo Grill Paris (Blanche)","48.8834364","2.3324923","2","3.6","1736","restaurant food point_of_interest establishment"
"ChIJhbxs4U5u5kcRi78nRc3-7UI","MADE IN P!GALLE","48.8831571","2.3323964",NA,"5","15","point_of_interest store establishment"
"ChIJy9Mo4U5u5kcRwSXvDydpKVY","La Marmotiere","48.8830852","2.3323007",NA,NA,NA,"point_of_interest establishment"
"ChIJFXESGU9u5kcRORh3odkdBds","Teulières Véronique","48.8831158","2.3331012",NA,NA,NA,"health point_of_interest establishment"
"ChIJ-QOJPU9u5kcR2twD2J1vZLg","Le Carrousel","48.8828713","2.3332855","2","4","229","bar point_of_interest establishment"
"ChIJScTr4E5u5kcRr7zGQfjim6c","Ligue Ile De France De","48.883027","2.3323048",NA,NA,NA,"point_of_interest establishment"
"ChIJKx9m7hJu5kcRgg3sWchjs5s","Fetis Laurent","48.8834662","2.3323126",NA,NA,NA,"point_of_interest establishment"
"ChIJsX7O4E5u5kcRdp7j3gcsKWY","Kint & Sencia Brasil","48.8830187","2.3322833",NA,NA,NA,"point_of_interest establishment"
"ChIJQ83T4E5u5kcRlzMCIoPNo7U","Fédération Autonome de la Fonction Publique","48.8830187","2.3322832",NA,NA,NA,"point_of_interest establishment"
"ChIJfRMEHE9u5kcRPNAMEU48cO0","Blanche","48.8833148","2.3329093",NA,"3","2","transit_station point_of_interest establishment"
"ChIJ8RZ_Hk9u5kcRF_yb_TD0TmU","Good Dirty Sound","48.8832075","2.3327873",NA,NA,NA,"point_of_interest establishment"
"ChIJD7fiBh9u5kcRYJSMaMOCCwQ","Paris","48.856614","2.3522219",NA,NA,NA,"locality political"
"ChIJQbbWHU9u5kcRHGZTvDhSxPw","Dubaï Palace","48.8832323","2.3327779",NA,"3.9","7","cafe food point_of_interest establishment"
"ChIJqRsVq5Rv5kcR1f1fu835VSo","Pho Tritaste","48.8831932","2.3327745",NA,"5","2","restaurant food point_of_interest establishment"
"ChIJd17aHU9u5kcR-mhLgLDHSJM","Platinium cafe shesha","48.883243","2.332756",NA,"5","2","cafe food point_of_interest establishment"
"ChIJl2-OG09u5kcRPT0Yn7jvb5c","Blanche","48.8833105","2.3330232",NA,NA,NA,"point_of_interest establishment"
"ChIJVUH8HE9u5kcR4sZlH5wjq4Q","Viarouge Danièle","48.8833271","2.3330325",NA,NA,NA,"health point_of_interest establishment"
"ChIJKRLRHU9u5kcRpxHkuxuS7pI","Parigi Hotel","48.8833271","2.3330325",NA,NA,NA,"lodging point_of_interest establishment"
"ChIJK5M3HE9u5kcRc3MtOF2FNFg","SCM Coutand-Linguenheld-Depardieu","48.8833271","2.3330325",NA,NA,NA,"health point_of_interest establishment"
"ChIJoQ9dHk9u5kcRUKwCSncvIRQ","Sarl Dulcigno","48.8831262","2.3327708",NA,NA,NA,"restaurant food point_of_interest establishment"
"ChIJFXESGU9u5kcRqJyfA3XUcyw","Tiphaine DELARUE","48.8831498","2.3331137",NA,"5","4","health point_of_interest establishment"
"ChIJK5M3HE9u5kcRYybqfc5sG0k","Comité des Forêts","48.883108","2.333078",NA,"5","2","natural_feature point_of_interest establishment"
"ChIJbdo4GU9u5kcRlcB0jCrOw2c","Fornier de Violet Jean-Benoît","48.8831096","2.3330825",NA,NA,NA,"doctor health point_of_interest establishment"
"ChIJfaxyGU9u5kcR8697yI4jZos","Trossat Florence","48.8831096","2.3330825",NA,NA,NA,"doctor health point_of_interest establishment"
"ChIJFXESGU9u5kcRZILbkkzpVBg","Pro Silva","48.8831158","2.3331012",NA,NA,NA,"point_of_interest establishment"
"ChIJfaxyGU9u5kcRzlfJ2z2VXz0","J. Charlon Osteopathe","48.8831158","2.3331012",NA,NA,NA,"health point_of_interest establishment"
"ChIJBdWFHU9u5kcRRFuDPO1eshE","String Club","48.8833159","2.3326142",NA,"1","2","point_of_interest establishment"
"ChIJj-IKHU9u5kcRCYNGgPbFtI4","Michel Vital","48.8833159","2.3326142",NA,NA,NA,"point_of_interest establishment"
"ChIJNVuwGU9u5kcRcW3LNyOSxpc","Théâtre Carré Blanc","48.8830812","2.3331963",NA,"5","1","point_of_interest establishment"
"ChIJHal4MU5v5kcRlQ8qS2nxSEc","PIZZA MILL","48.8830812","2.3331963",NA,"5","8","restaurant food point_of_interest establishment"
"ChIJNVuwGU9u5kcR91Y8MzCg8VA","Zh Food","48.8830812","2.3331963",NA,NA,NA,"point_of_interest establishment"
"ChIJFTKlHk9u5kcRLzMQLxFO8lE","Hajati Vjola","48.8830812","2.3331963",NA,NA,NA,"point_of_interest establishment"
"ChIJT61Ext1v5kcRfwLzxIE1fLY","Open Tour Station","48.883475","2.3330094",NA,NA,NA,"point_of_interest establishment"
"ChIJ7-mFAU9u5kcRJ5gKTSD-UR0","Kiosque de la Place Blanche à Paris","48.883475","2.3330095",NA,NA,NA,"premise point_of_interest establishment"
"ChIJfWFm_U5u5kcRsOVt9lJ9Jl0","MF Murat Formation","48.8833922","2.332601",NA,NA,NA,"point_of_interest establishment"
"ChIJ4RVSYFtv5kcRIIDjSYjsvpE","Casa bianca","48.8829648","2.3329081",NA,NA,NA,"lodging point_of_interest establishment"
"ChIJjUtGH09u5kcRjonKyhPY4tg","Atelier BEPG","48.8829648","2.3329081",NA,NA,NA,"point_of_interest establishment"
"ChIJld2cBE9u5kcRcUtFoiBbiaM","Kiosque à Journaux","48.8835238","2.3328632",NA,"5","3","point_of_interest store establishment"
"ChIJeRIzHU9u5kcRZMGO1utJIZ4","Piece Of Cake studios","48.8835219","2.3327692",NA,NA,NA,"point_of_interest establishment"
"ChIJB9rp805u5kcReGcJ3xyg4oM","Blanche","48.8835411","2.3330067",NA,"4","1","bus_station transit_station point_of_interest establishment"
"ChIJLWKQEghv5kcR4Iz-xv94O-M","Dawastreet","48.8831614","2.33243",NA,"5","8","restaurant food point_of_interest store establishment"
"ChIJy2da4U5u5kcRAy3FH-o9eOs","Dawa","48.8831614","2.33243",NA,"5","4","restaurant food point_of_interest establishment"
"ChIJa_jY405u5kcR3HAyTWVvZ5M","Meyenberg Ute","48.8832296","2.3323981",NA,NA,NA,"point_of_interest establishment"
"ChIJfWFm_U5u5kcRxYiyJq7eMxU","Mmt Dalal Freres Sarl","48.8834498","2.3325127",NA,NA,NA,"point_of_interest establishment"
"ChIJxZ1FW7Fv5kcRnJZFLsZzAYo","Organisation soirée Paris entreprise - évènements privés","48.8830643","2.3333843",NA,NA,NA,"point_of_interest establishment"
"ChIJBTji405u5kcR4mT2DSiFzc8","Luperelle","48.8832497","2.3323685",NA,NA,NA,"supermarket grocery_or_supermarket food point_of_interest store establishment"
"ChIJn60eHUFv5kcRgZ7nYQfiJV8","THE POKE BOWL FACTORY","48.882847","2.3328899",NA,NA,NA,"restaurant food point_of_interest establishment"
"ChIJXeHuIU9u5kcReyVU-7svT18","Bm (Le Fontania)","48.882847","2.3328899",NA,NA,NA,"point_of_interest establishment"
"ChIJveKP0U5u5kcR5BnV0T0NJIo","Chiropracteur Anais Marques","48.8828422","2.3330515",NA,"4.8","12","health point_of_interest establishment"
"ChIJ3ZUuIk9u5kcRMOWApndU5R0","Goret Marie-Françoise","48.882829","2.3329667",NA,NA,NA,"health point_of_interest establishment"
"ChIJBdZlIk9u5kcRGHd5d4pU9nE","Aria Telecom","48.8828343","2.3330893",NA,"5","3","point_of_interest establishment"
"ChIJq6oeEU9u5kcRZPxqMvBdKdE","Sb Diffusion","48.8832973","2.3335353",NA,NA,NA,"point_of_interest establishment"
