"Id","Name","Lat","Lng","Price_level","Rating","Nb_Rating","Type"
"ChIJGbW1c2Fu5kcRd0SpTHJh_NA","11-1 Rue du Simplon","48.8933855","2.352003",NA,NA,NA,"route"
"ChIJA1wZBmFu5kcRjd7OntLGGXk","Municipality of Paris","48.8936089","2.351041",NA,NA,NA,"city_hall local_government_office point_of_interest establishment"
"ChIJBe9sD2Fu5kcRtmx-OPoP2Vw","LA POSTE","48.893497","2.351067",NA,"1.6","39","post_office finance point_of_interest establishment"
"ChIJ01Dsp2Fu5kcRWG2av4fcbd8","Raphaël de Mercey","48.893912","2.3511679",NA,NA,NA,"point_of_interest establishment"
"ChIJ1Xm9fylv5kcRZAWOjdqhYjM","Pagemtouillet","48.8935926","2.3514854",NA,NA,NA,"point_of_interest establishment"
"ChIJ8w4OCWFu5kcRFL_8KpRJc54","Place Cécile-Brunschvicg","48.8937464","2.3513683",NA,NA,NA,"point_of_interest establishment"
"ChIJzyf9CGFu5kcRZMkwOz36Nvo","Ecole Polyvalente Simplon","48.8936653","2.3512374",NA,NA,NA,"point_of_interest establishment"
"ChIJ_Wv0nINv5kcRPGlBh-EUZmA","place Cécile Brunschvicg","48.8936653","2.3512374",NA,"5","1","point_of_interest establishment"
"ChIJy2VjEWFu5kcRsAYcWmUi5RY","La Bouche","48.8935207","2.3510943",NA,NA,NA,"point_of_interest establishment"
"ChIJQfBPcmFu5kcRQ7joMMx_ivI","Mon Vin Monval","48.893335","2.3519711",NA,NA,NA,"point_of_interest establishment"
"ChIJ3ZvTsdZv5kcRSXD4ZbXx7KE","La banque postale","48.8935025","2.3510635",NA,"1.7","6","bank finance point_of_interest establishment"
"ChIJ01Dsp2Fu5kcRx6QXAbep0_w","L'incontournable","48.893912","2.3511679","2","4","58","restaurant food point_of_interest establishment"
"ChIJ01Dsp2Fu5kcRnkaczn45zW4","Groult Louise","48.893912","2.3511679",NA,"5","1","point_of_interest establishment"
"ChIJUVVKBmFu5kcRPxYkIy_FAoU","Restaurant Brasserie Le Boinod","48.8936974","2.3509758",NA,NA,NA,"point_of_interest establishment"
"ChIJgzGpla1v5kcRIChOfvG6g3g","L' INCORTOUNABLE","48.8940102","2.3512418",NA,NA,NA,"restaurant bar liquor_store food point_of_interest store establishment"
"ChIJD7fiBh9u5kcRYJSMaMOCCwQ","Paris","48.856614","2.3522219",NA,NA,NA,"locality political"
