"Id","Name","Lat","Lng","Price_level","Rating","Nb_Rating","Type"
"ChIJFygQ9kNu5kcRb6kCjS88yUM","Boulevard de Rochechouart","48.8824046","2.3410303",NA,NA,NA,"route"
"ChIJT8DfikNu5kcRsw5HodbRHRU","Toli Banana","48.8828733","2.3412611",NA,NA,NA,"point_of_interest establishment"
"ChIJiTJZCkRu5kcRwc6QfcUBLVg","Les Flingueurs","48.8825325","2.3409389","2","3.9","237","bar night_club point_of_interest establishment"
"ChIJE3rmDERu5kcR1w2Q2C_1ypg","Bulle Santé","48.8825927","2.3404901",NA,NA,NA,"point_of_interest establishment"
"ChIJE3rmDERu5kcRVOGQErYKC3U","BIo Energie Center","48.8825927","2.3404901",NA,NA,NA,"point_of_interest establishment"
"ChIJK_IWCURu5kcROQRIxFsUPqE","Agence Low Cost SAP","48.882468","2.34052",NA,"4.6","20","real_estate_agency finance point_of_interest establishment"
"ChIJAQBAWahj5kcRBG5HqkmYEn8","Vladimir Marchitan","48.882468","2.34052",NA,"5","1","point_of_interest establishment"
"ChIJgUHEi0Nu5kcRVC7S0ZUvUc0","Pierre KIM Consult","48.8829894","2.3412815",NA,NA,NA,"point_of_interest establishment"
"ChIJFTtVbURu5kcROe6pEPl5iSE","Acuity Data","48.8827504","2.3403152",NA,NA,NA,"point_of_interest establishment"
"ChIJgUHEi0Nu5kcR_1K4JYb6IPw","XPLUS Consultants","48.8829894","2.3412815",NA,NA,NA,"point_of_interest establishment"
"ChIJPdR99kNu5kcR1FBAEAFuOnw","Kintaro","48.882521","2.34104",NA,"4.6","242","restaurant food point_of_interest establishment"
"ChIJk-PeikNu5kcRaqdBKYVM8oU","Desenfant Alexandre","48.8828445","2.34108",NA,NA,NA,"point_of_interest establishment"
"ChIJiTJZCkRu5kcRO4r8JT7yvh8","Metmer Belaid","48.8825653","2.3409004",NA,"5","1","point_of_interest establishment"
"ChIJbQsACkRu5kcRWqdWCVNBnXs","Le Couloir","48.8825653","2.3409004",NA,"3","2","bar point_of_interest establishment"
"ChIJBaR_ikNu5kcReL3vi7rQ9GM","Rallye2T","48.8828982","2.3410454",NA,NA,NA,"point_of_interest establishment"
"ChIJI7N79UNu5kcRa-pMf66cqHo","Paris Metro","48.8826012","2.3410465",NA,"4","1","point_of_interest establishment"
"ChIJV9F99kNu5kcRt0WAOan6380","Veney Marie-Claude","48.8826012","2.3410465",NA,NA,NA,"point_of_interest establishment"
"ChIJPdR99kNu5kcRXzRVIXSSaNg","Perez Paul","48.8826012","2.3410465",NA,NA,NA,"point_of_interest establishment"
"ChIJQbMvi0Nu5kcRGNVAemqzbNA","Spring Interactive","48.8827581","2.3412394",NA,NA,NA,"point_of_interest establishment"
"ChIJD7fiBh9u5kcRYJSMaMOCCwQ","Paris","48.856614","2.3522219",NA,NA,NA,"locality political"
"ChIJDzAOCURu5kcRjtpGEw4Niy4","Etevenon Magdeleine","48.8825927","2.3404901",NA,NA,NA,"point_of_interest establishment"
"ChIJe8jfikNu5kcReyLcPP5PVt8","Segura Dominique","48.8828733","2.3412611",NA,NA,NA,"point_of_interest establishment"
"ChIJT8DfikNu5kcRCXzJ9ekLGdg","Friedman Jeffrey","48.8828733","2.3412611",NA,NA,NA,"point_of_interest establishment"
"ChIJCTDXC0Ru5kcRSiOI2vLLa90","Mkf","48.8824399","2.3407889",NA,NA,NA,"point_of_interest establishment"
"ChIJCTDXC0Ru5kcRFBZpMGgfdb8","Oseille Et Compagnie","48.8824399","2.3407889",NA,NA,NA,"finance point_of_interest establishment"
"ChIJu4yaCURu5kcRhJR8NnaagCA","Bilena Chaussures","48.8824399","2.3407889",NA,NA,NA,"store point_of_interest establishment"
"ChIJq-IkCkRu5kcRNvF8ZbaRuek","FOOD CENTER","48.882433","2.3408321",NA,"3.2","48","restaurant food point_of_interest establishment"
"ChIJQdY79ENu5kcRZpc_9n62F6o","Chase Peter","48.88254","2.3412101",NA,NA,NA,"point_of_interest establishment"
"ChIJyT9SZdlv5kcRulO-dyvSMzc","Evoke Dance for All Latin Styles |Salsa| Bachata| Burlesque & Wedding Choreoraphies, Classes and lessons","48.882468","2.34052",NA,"5","10","school point_of_interest establishment"
"ChIJq6o6DERu5kcRtBZZ6ebf9oc","Psychologue Hypnose Paris 18 : Sébastien GALLAND psychologue du travail Gay Friendly","48.882468","2.34052",NA,"5","1","health point_of_interest establishment"
"ChIJfUGYTzVv5kcRKkWEPRbyzkc","Evelyne PERRONNET - Massage & Naturopathie","48.8824675","2.3405195",NA,NA,NA,"health point_of_interest establishment"
"ChIJq6o6DERu5kcR-u8PUlS4rJ0","Lieben","48.8824675","2.3405195",NA,NA,NA,"point_of_interest establishment"
"ChIJ2dU79ENu5kcRmqdsdFiS4Vg","Fadel Fouad","48.8825107","2.341233",NA,NA,NA,"doctor health point_of_interest establishment"
"ChIJuwyE9ENu5kcRyTg1TU9_pPs","Bar-Tabac La Cigale","48.8825933","2.3413412",NA,"3.3","10","bar point_of_interest establishment"
"ChIJ2c9TCURu5kcRoJXjbgBFVmU","Zoum","48.8823977","2.3406647",NA,NA,NA,"point_of_interest establishment"
"ChIJgUHEi0Nu5kcR0404s_Ny61Q","Phalaenopsis","48.8829894","2.3412815",NA,NA,NA,"point_of_interest establishment"
"ChIJ8RNl5Axv5kcRYUL5eIwjptc","Statue de André Gill","48.8828413","2.3402656",NA,NA,NA,"point_of_interest establishment"
"ChIJkZiIbURu5kcRoS9Z_n0yM1I","Mc Loughlin Mary","48.8829453","2.3403229",NA,NA,NA,"point_of_interest establishment"
"ChIJEZnsUyJv5kcRuDkAT0yblTI","Point Nickel","48.8825789","2.3413752",NA,"1","1","atm bank finance point_of_interest establishment"
"ChIJ94Op7CBv5kcRbiPUe5Oj_Ew","Bollywood boulevard","48.8825876","2.3413863",NA,NA,NA,"book_store point_of_interest store establishment"
"ChIJHzCP80Nu5kcRWkQSmtVXC8k","Delice Time","48.8825876","2.3413863",NA,NA,NA,"point_of_interest establishment"
"ChIJQ2PTEkRu5kcR3w6iB9NxKec","Write On","48.8827429","2.3401698",NA,NA,NA,"point_of_interest establishment"
"ChIJuWNmiUNu5kcRvnx6yinsC30","Le Laboratoire du Tapis","48.883072","2.341298",NA,"4.9","12","laundry point_of_interest store establishment"
"ChIJN57qmWtu5kcR0Ln-22GLhc8","T.d.f.bat","48.8830723","2.3412982",NA,NA,NA,"general_contractor point_of_interest establishment"
"ChIJR_7PiUNu5kcRC6wD8xgZRAs","Iosquare","48.8831647","2.3411047",NA,NA,NA,"point_of_interest establishment"
