"Id","Name","Lat","Lng","Rating","Nb_Rating","Type"
"ChIJJ__r_HNu5kcRGVKiKGdID4o","197 Rue la Fayette","48.880773","2.3626169",NA,NA,"route"
"ChIJW20a_XNu5kcRZW7gvA27uW0","ibis Paris Gare du Nord Château-Landon 10ème","48.8810273","2.3627739","3.8","1173","lodging point_of_interest establishment"
"ChIJf_N55HNu5kcR4nAIW-yCRO8","Meubles Pascal","48.88061","2.3625387","5","7","furniture_store home_goods_store general_contractor point_of_interest store establishment"
"ChIJjbRP7HNu5kcRnOVK7aureU4","ADHESIF GRAND FORMAT","48.8809422","2.3623034",NA,NA,"point_of_interest store establishment"
"ChIJO7qK43Nu5kcRB9FiTh34SjA","Printmarket","48.8809206","2.3623562","4.5","71","point_of_interest store establishment"
"ChIJ7Xlc4nNu5kcR2Zj5g6QYcWY","B The Best","48.8809653","2.3624249","3.4","5","hair_care point_of_interest establishment"
"ChIJ68Mv4XNu5kcRaTIfbkF4U4A","Le Chiquito","48.8807814","2.362109","3.8","17","bar point_of_interest establishment"
"ChIJ-TohN3Ju5kcRvd7vf-Y9kXQ","Berrebi Alain","48.8806256","2.3626199","4.4","7","dentist health point_of_interest establishment"
"ChIJqa16_HNu5kcRiP8vi_ptQ_I","Turnkey Hedefransa","48.8806957","2.3628104",NA,NA,"point_of_interest establishment"
"ChIJj1KG-3Nu5kcR32p5JDy4RyI","Monser - Diagnostic Immobilier Paris","48.8807197","2.3628036","4.9","53","finance point_of_interest establishment"
"ChIJp7dyaE5u5kcR8ax8O-m4ACE","Joji Prod","48.88072","2.362804","5","2","point_of_interest establishment"
"ChIJCzoS-nNu5kcRP_F_I1tKTrk","Abs Partners","48.8806957","2.3628104",NA,NA,"point_of_interest establishment"
"ChIJqa16_HNu5kcRu0Cpli4d5qc","DN VERONIK","48.8807039","2.3628686",NA,NA,"point_of_interest establishment"
"ChIJj1KG-3Nu5kcRldwfExUuVoE","Balthazar Productions","48.8807039","2.3628686","5","1","point_of_interest establishment"
"ChIJj1KG-3Nu5kcRR2saKbhY5CM","ABRIAL STUDIO","48.8807039","2.3628686","5","2","electronics_store home_goods_store point_of_interest store establishment"
"ChIJZTjXrOJt5kcRLjetB31DSfc","WHAT THE SHOP - Digitalisation du point de vente","48.8807039","2.3628686","5","2","point_of_interest establishment"
"ChIJCzoS-nNu5kcRKto2Ly1lu5k","Von Meier Achim","48.8807039","2.3628686",NA,NA,"point_of_interest establishment"
"ChIJCzoS-nNu5kcRYvzo-IiJpBQ","2NE Architecture","48.8807039","2.3628686",NA,NA,"point_of_interest establishment"
"ChIJJQcu5XNu5kcRRMNUBxsVaSY","Docteur Flavia BORHA","48.880524","2.3626197","5","2","dentist health point_of_interest establishment"
"ChIJD7fiBh9u5kcRYJSMaMOCCwQ","Paris","48.856614","2.3522219",NA,NA,"locality political"
"ChIJAQCM4XNu5kcRnxB-iH6YeOw","Atefor","48.8809422","2.3623034",NA,NA,"point_of_interest establishment"
"ChIJHZuPX3Fu5kcRKMrWKhOSPfM","metrochrome","48.8810758","2.3621135",NA,NA,"point_of_interest establishment"
"ChIJW2aC_HNu5kcR9IbMyWhBaVY","Emmanuelle Huynh","48.8807197","2.3628036",NA,NA,"point_of_interest establishment"
"ChIJCR-AYHFu5kcRRskNGuM8ahE","4en1 YAMAHA","48.881208","2.362098","3.9","220","car_repair point_of_interest store establishment"
"ChIJK-eD_nNu5kcRqQcATLXzMvw","Valoria","48.8807318","2.363053",NA,NA,"restaurant food point_of_interest establishment"
"ChIJewjJ3XNu5kcRWDWz3mpTSdc","Doble A - Arostegui Architecture","48.880646","2.3617601",NA,NA,"point_of_interest establishment"
"ChIJA4D34nNu5kcRfsbhu8B2lno","Chamontin Francoise","48.8810149","2.3624459",NA,NA,"point_of_interest establishment"
"ChIJFy5_5HNu5kcRbRQ-24thv-A","Château Landon","48.880715","2.362462",NA,NA,"transit_station point_of_interest establishment"
"ChIJBZoEzKRv5kcRnOFgD7CgqPI","Enseigne Market","48.8808923","2.3623526","5","10","point_of_interest store establishment"
"ChIJAVnZ43Nu5kcR73OUY02zeic","Decoration","48.8808266","2.362337",NA,NA,"point_of_interest establishment"
"ChIJ2QU34nNu5kcRqxoqdzoT8A0","Ledmark","48.8809128","2.3623984",NA,NA,"point_of_interest establishment"
"ChIJ7Xlc4nNu5kcR8DhuqEWlaAY","Verdes Auguste-dormeuil Sandrine","48.8809422","2.3623034",NA,NA,"point_of_interest establishment"
"ChIJiWlc4XNu5kcRSf22iHTPqyo","Libérons Paris","48.8807897","2.3622838","5","4","point_of_interest establishment"
"ChIJ46SWYvVu5kcRkwdq2hIgNLg","LEDMARK ENSEIGNE DE LUXE","48.8809477","2.3623123","4.4","13","point_of_interest store establishment"
"ChIJ6a-B4HNu5kcRgTwvSTK24Cc","Druelle Delphin","48.8809472","2.3621773",NA,NA,"point_of_interest establishment"
"ChIJb-j-z7Fv5kcRkrL7AVhw3IE","Onepark","48.8809021","2.3627077",NA,NA,"parking point_of_interest establishment"
"ChIJ-be24XNu5kcR6qtz45Nk94s","Bendjoudi Samir","48.8809497","2.3620794",NA,NA,"finance point_of_interest clothing_store store establishment"
"ChIJ0wJ3e2Fu5kcReKtvO-JpCLc","Activops","48.881076","2.362114","5","2","point_of_interest establishment"
"ChIJBXbh_Jlt5kcR7ZTmNI_9YxM","YAP ARCHITECTURE","48.8810758","2.3621135",NA,NA,"point_of_interest establishment"
"ChIJyV8HeWtv5kcRdqKnci9Fcio","Astrologue ET spiritualiste fameux et puissant de l'inde","48.8810758","2.3621135",NA,NA,"point_of_interest establishment"
"ChIJHZuPX3Fu5kcRjFz2yCgpT_w","FUSO","48.8810758","2.3621135","5","3","point_of_interest establishment"
"ChIJHZuPX3Fu5kcRonj9ge86mmo","Azoulai Albert","48.8810758","2.3621135",NA,NA,"point_of_interest establishment"
"ChIJHZuPX3Fu5kcROYNwrkulukY","Carving","48.8810837","2.3621174",NA,NA,"point_of_interest establishment"
"ChIJ-TohN3Ju5kcRQCg2NMLSci4","Agentissimo - Paris","48.88063","2.3626532","2.3","3","point_of_interest establishment"
"ChIJ7_32_HNu5kcRiIXx7pPG6lE","Parking ibis gare du nord","48.880823","2.3628304",NA,NA,"parking point_of_interest establishment"
"ChIJUf48HWNv5kcR4S_ih2flFfc","饭店","48.8809603","2.3628487",NA,NA,"restaurant food point_of_interest establishment"
"ChIJ76wzWHFu5kcR3WRMzLJWi5Y","Lanotte Marjolaine","48.8811743","2.3624986",NA,NA,"point_of_interest establishment"
"ChIJf_N55HNu5kcRDr62oBkSNjY","Phan Huy Chinh","48.8805248","2.3625104",NA,NA,"dentist health point_of_interest establishment"
"ChIJf_N55HNu5kcRTEERMso0VxA","Koskas Elisabeth","48.8805248","2.3625104",NA,NA,"dentist health point_of_interest establishment"
"ChIJj1KG-3Nu5kcRXlWC7BaAATs","10:15 Productions","48.8807039","2.3628686",NA,NA,"point_of_interest establishment"
"ChIJj1KG-3Nu5kcRqKVx-S5KG60","CV Star","48.8807039","2.3628686","5","2","point_of_interest establishment"
"ChIJo77X7kJu5kcRTD-TWEztjhc","Atelier D Architecture Topique","48.8807039","2.3628686",NA,NA,"point_of_interest establishment"
"ChIJocr0_HNu5kcRv-gkuXDlPjA","Crunch Bomb","48.8807039","2.3628686",NA,NA,"point_of_interest establishment"
"ChIJqa16_HNu5kcR6g8rOAss9l4","Luigi Bormoli France","48.8807039","2.3628686",NA,NA,"point_of_interest establishment"
"ChIJqa16_HNu5kcR8Sr2p9HL3S0","MERCITALIA Logistics S.p.A.","48.8807039","2.3628686",NA,NA,"point_of_interest establishment"
"ChIJqa16_HNu5kcR-2oaBidu-4Y","Architecture et paysage 05","48.8807039","2.3628686",NA,NA,"point_of_interest establishment"
"ChIJYR1hs7dv5kcRkMQhe53ScIw","Milvain Terrancier","48.880756","2.3629098",NA,NA,"store point_of_interest establishment"
"ChIJJQcu5XNu5kcRASFrXikEgfc","Coste Laurence","48.880524","2.3626197",NA,NA,"doctor health point_of_interest establishment"
"ChIJJQcu5XNu5kcReCm-1q4Q-Zo","Maquaire Roger","48.880524","2.3626197",NA,NA,"point_of_interest establishment"
"ChIJ7_R55HNu5kcRPNAzXltqKxo","Buhre Klei-buhre Susanne","48.880524","2.3626197",NA,NA,"point_of_interest establishment"
