"Id","Name","Lat","Lng","Rating","Nb_Rating","Type"
"ChIJj3N_ZoZy5kcRSmj7dEeHnAY","Avenue Gallieni","48.8467194","2.4155407",NA,NA,"route"
"ChIJr43JX4Zy5kcRaDWJ_eHne70","Charles Traiteur","48.8470141","2.4158013","3.6","138","bakery food point_of_interest store establishment"
"ChIJRUFxYYZy5kcRhUeRFUqAiuQ","Hypercacher","48.8470571","2.41551","4.1","408","supermarket grocery_or_supermarket food point_of_interest store establishment"
"ChIJ5aXJkzpz5kcRqkofNygWj-g","Marcomtouillet","48.847086","2.4154215",NA,NA,"point_of_interest establishment"
"ChIJhclfCHlt5kcRwAOSRxI6rW4","Eurolines","48.8465825","2.4156147",NA,NA,"point_of_interest establishment"
"ChIJi14TfYZy5kcRDhLrHdIUK4E","La Boucherie Gourmet","48.847009","2.4160926","4.5","82","food point_of_interest store establishment"
"ChIJB8edXIZy5kcR9r37ljs_aQU","Godin","48.8466952","2.4150165",NA,NA,"point_of_interest establishment"
"ChIJzYk0Y4Zy5kcRKYxpPv0-UUo","Allostock-mobile","48.847109","2.4161762",NA,NA,"point_of_interest establishment"
"ChIJD7fiBh9u5kcRYJSMaMOCCwQ","Paris","48.856614","2.3522219",NA,NA,"locality political"
