"Id","Name","Lat","Lng","Price_level","Rating","Nb_Rating","Type"
"ChIJqXpqymVu5kcR00f0VJjnfzE","46-54 Rue Doudeauville","48.8885246","2.3540793",NA,NA,NA,"route"
"ChIJDQalf-Nt5kcR4mPsufkkosI","Éditions Lignes","48.888565","2.3537572",NA,NA,NA,"point_of_interest establishment"
"ChIJixDpz2Vu5kcRiZNbVigS3xY","Phanie, Centre de l'ethnologie","48.8882462","2.3534145",NA,NA,NA,"university point_of_interest establishment"
"ChIJ7TobGn9x5kcRjp0Q0axMhLA","Post Éditions","48.8885878","2.3538191",NA,NA,NA,"point_of_interest establishment"
"ChIJVzEIzGVu5kcRc_3Hx_VRkfo","Moerman David","48.888243","2.3539494",NA,NA,NA,"point_of_interest establishment"
"ChIJMZX7ymVu5kcRIz5NX7sEC_o","agence pekelo.","48.8886324","2.3540231",NA,NA,NA,"point_of_interest establishment"
"ChIJxyEpyGVu5kcRsAG1p17ucAQ","SUPERGESTES","48.8884482","2.354168",NA,"4.6","21","point_of_interest establishment"
"ChIJP1HDtWVu5kcRBwvJgwWqdLc","Marie-Louise","48.8886623","2.3542404",NA,NA,NA,"point_of_interest establishment"
"ChIJEyZqtWVu5kcRp0PCqGWznt0","Sunny Side Animation mariage","48.8886748","2.3542426",NA,NA,NA,"point_of_interest establishment"
"ChIJ7--f0WVu5kcRuGi1-iOyNkQ","Les Déménageurs Franciliens","48.8882872","2.3532173",NA,NA,NA,"moving_company point_of_interest establishment"
"ChIJvyoRzmVu5kcRnxQxvvlPXq4","Omadis","48.8883712","2.3534759","1","4.5","132","bar point_of_interest establishment"
"ChIJMwcZ_yQX5kcRYFtLkTtATAw","Jo-Repair","48.8884853","2.3544341",NA,"4.9","26","point_of_interest establishment"
"ChIJBxnmtWVu5kcRntUwWk-ZGHY","SUPERFICIES Conseil Immobilier","48.888442","2.3541022",NA,"4.7","21","real_estate_agency point_of_interest establishment"
"ChIJ09QNtGVu5kcRJRFrjzl7VDQ","Mercerie","48.8885007","2.3544798",NA,"4.5","2","store point_of_interest establishment"
"ChIJqe8YtGVu5kcR8rJOq0frnG8","Alaïs Raslain","48.8884685","2.3544298",NA,NA,NA,"point_of_interest establishment"
"ChIJd6nJs2Vu5kcR5muvjGhUO6k","frenchfourch","48.8884685","2.3544298",NA,NA,NA,"point_of_interest establishment"
"ChIJwVeuzmVu5kcR9iNptioPr58","Icr Paris Cosmetic","48.8884256","2.3537725",NA,NA,NA,"point_of_interest establishment"
"ChIJVzEIzGVu5kcR3riUg7GhEsk","Kumasi Market","48.8884126","2.3537673",NA,"4","1","clothing_store point_of_interest store establishment"
"ChIJnZ1XyWVu5kcR9N93fMTdxSE","All Wok","48.8884182","2.3538548",NA,"4.1","8","restaurant food point_of_interest establishment"
"ChIJD7fiBh9u5kcRYJSMaMOCCwQ","Paris","48.856614","2.3522219",NA,NA,NA,"locality political"
"ChIJmxaOzmVu5kcRJ3Brv2_COmE","Dixhuitieme Avenue","48.8884026","2.3536652",NA,NA,NA,"point_of_interest establishment"
"ChIJMZ4IsI9v5kcRuDIOaNoeQms","Hazarbuz Hadeera","48.8883552","2.3537014",NA,NA,NA,"hospital health point_of_interest establishment"
"ChIJM7HpzWVu5kcR6krZNzDQY38","Dix Mille Bonheurs","48.8885676","2.3537888",NA,"4","5","restaurant food point_of_interest establishment"
"ChIJP1HDtWVu5kcRtw23Hv3qWNY","Sabougnouma de Touba","48.8884313","2.3539836",NA,"5","2","moving_company point_of_interest establishment"
"ChIJu54JqDxv5kcRFOtPBNuS6zk","18eme Avenue - Goutte d'Or","48.8884783","2.3535632",NA,"5","5","real_estate_agency point_of_interest establishment"
"ChIJCSQ1gFJv5kcRmcHn2zBUpnk","Mama Boutique","48.8885878","2.3538191",NA,NA,NA,"point_of_interest store establishment"
"ChIJO3-OzmVu5kcRd-fU7DXDtwQ","Taranga Shop","48.8885808","2.3537014",NA,NA,NA,"point_of_interest establishment"
"ChIJU_UCy2Vu5kcRTjhgVBwOZAc","Boulangerie L'Amandine","48.8885988","2.3538848",NA,"3.9","32","bakery restaurant food point_of_interest store establishment"
"ChIJTXhVzGVu5kcRAMN4SwWqkjM","S A R L D F T Touba","48.8886132","2.3536531",NA,NA,NA,"point_of_interest establishment"
"ChIJM7HpzWVu5kcRHQR2NfUtsS4","boulangerie Merhamah","48.8885546","2.3535176","1","4.1","18","bakery food point_of_interest store establishment"
"ChIJAaI8zmVu5kcRhrTH7VQHMUw","Bar À Thèmes Musical","48.8883698","2.353477",NA,"4","2","bar point_of_interest establishment"
"ChIJj0TUbulv5kcR6gD8aCcXvO4","Jouete Sallespuais","48.8882279","2.3537079",NA,NA,NA,"point_of_interest establishment"
"ChIJdeX2yGVu5kcRB9M5L724QbI","Humanease","48.888243","2.3539494",NA,NA,NA,"point_of_interest establishment"
"ChIJU8DKputv5kcRlj2ucKAdNXA","La Maison Du Bonheur","48.888243","2.3539494",NA,"5","1","museum point_of_interest establishment"
"ChIJdeX2yGVu5kcR-y-KcKpDJOg","Chez Alex & Val","48.888243","2.3539494",NA,"1.7","3","restaurant food point_of_interest establishment"
"ChIJdeX2yGVu5kcRz_rr921IUZw","Sci Cayeux-ollivier-poulet","48.888243","2.3539494",NA,NA,NA,"point_of_interest establishment"
"ChIJLxj9zGVu5kcRoaEUUPJmcQk","Kaneshie Market","48.8886491","2.3536542",NA,NA,NA,"point_of_interest establishment"
"ChIJ595c129v5kcRZGG41lN97KI","abdullakeyaan.com","48.8886324","2.3540231",NA,NA,NA,"point_of_interest establishment"
"ChIJRwbmI4xv5kcRSrXivxJExEs","De Rossi Victor","48.8886324","2.3540231",NA,NA,NA,"point_of_interest establishment"
"ChIJabhfymVu5kcRDnP_EkCLTlw","Godet Constance","48.8886324","2.3540231",NA,NA,NA,"point_of_interest establishment"
"ChIJBdJfymVu5kcR94fc5cW66nY","Exotique Lkn Africa","48.8886141","2.3540751",NA,NA,NA,"grocery_or_supermarket food point_of_interest store establishment"
"ChIJi-im1mVu5kcRbRZSjZVsBGA","Lampe Fall","48.8883646","2.3531777",NA,"4.5","29","movie_rental electronics_store home_goods_store point_of_interest store establishment"
"ChIJY7s00mVu5kcROVP8ZpCM_qg","Top Bat Le Batiment","48.888532","2.353331",NA,"3.3","4","hardware_store point_of_interest store establishment"
"ChIJweXVzGVu5kcRnhceEIEIlko","Bar Des Amis","48.888755","2.3536584",NA,NA,NA,"point_of_interest establishment"
"ChIJcWDatWVu5kcR3f95wpOi37Q","Aida Beaute","48.888474","2.3542854",NA,NA,NA,"beauty_salon point_of_interest establishment"
"ChIJuzo_0mVu5kcRVsgBpOf7Ddk","Suissa Albert","48.8885632","2.3533089",NA,"5","2","hardware_store point_of_interest store establishment"
"ChIJz8BazWVu5kcRSNhYfnj9gKs","Lmp","48.8887307","2.3535164",NA,NA,NA,"point_of_interest establishment"
"ChIJW9vWtWVu5kcRIvf6yjkJuxA","Yunikon Production","48.8884607","2.3543031",NA,NA,NA,"point_of_interest establishment"
"ChIJ4RrQtWVu5kcRN16_2o5DNuo","A.T.A Audio Visuel","48.8884607","2.3543031",NA,NA,NA,"store point_of_interest establishment"
"ChIJP1HDtWVu5kcRj8bzCmhwudw","Schirippa Pasquale","48.8886623","2.3542404",NA,NA,NA,"point_of_interest establishment"
"ChIJP1HDtWVu5kcRdgPZMXPu3L8","Parmentier Pierre","48.8886623","2.3542404",NA,NA,NA,"lawyer finance point_of_interest establishment"
"ChIJy1bDtWVu5kcRLl_0rkCA4pc","Cherrier Julien","48.8886623","2.3542404",NA,NA,NA,"point_of_interest establishment"
"ChIJgw1FMmRu5kcRVfqKKnm8Ehs","Tichy Hôtel","48.8888704","2.3536861",NA,"3.2","5","lodging point_of_interest establishment"
"ChIJ7--f0WVu5kcRvoKYCBwgGsQ","Zatout Salem","48.8882872","2.3532173",NA,"4.5","2","restaurant bar food point_of_interest establishment"
"ChIJmbMBtWVu5kcRf84BonfBw8A","Guinee Store","48.8886118","2.3543389",NA,NA,NA,"point_of_interest store establishment"
"ChIJD4AL1GVu5kcRf5TXYUq7O2Y","Restaurant Best Africa","48.8885165","2.3531757","1","3.5","140","restaurant food point_of_interest establishment"
"ChIJefEgM2Ru5kcR3XlnS1jrNoA","Hotel Tout Confort","48.8888394","2.3536686",NA,NA,NA,"lodging point_of_interest establishment"
"ChIJraqW02Vu5kcR5AedLq6xr4w","Arthur Avellano","48.8885659","2.3531772",NA,"5","2","point_of_interest establishment"
"ChIJ49d-1GVu5kcR0ArgW4cjx8w","MoneyGram","48.8885659","2.3531772",NA,NA,NA,"finance point_of_interest establishment"
"ChIJ_wbf02Vu5kcRmV4XpVRoEQo","Sakal Izdihar","48.8885659","2.3531772",NA,NA,NA,"point_of_interest establishment"
