"Id","Name","Lat","Lng","Price_level","Rating","Nb_Rating","Type"
"ChIJWUL9oplt5kcROmi3JyZXpzM","179 Avenue Gambetta","48.8714821","2.4041997",NA,NA,NA,"route"
"ChIJOWr-mJlt5kcRtXXcShHsjbA","Société Générale","48.8712074","2.4042713",NA,"2.6","12","bank atm finance insurance_agency point_of_interest establishment"
"ChIJOWr-mJlt5kcR5_hHTwBa7io","Filippi Christian","48.8711743","2.4042105",NA,"4.3","6","health point_of_interest establishment"
"ChIJjz1Joplt5kcRoiwdulVimdM","Le Saint Fargeau","48.871356","2.404299","2","3.9","51","cafe bar restaurant food point_of_interest store establishment"
"ChIJzbavmZlt5kcRwqkBz3UnuBQ","Nicole Coupeau- Sophrologie-Hypnose-Paris","48.8711743","2.4042105",NA,"5","1","health point_of_interest establishment"
"ChIJB0MOpJlt5kcRBHhzMDF5BPQ","France foto","48.8716303","2.4045943",NA,"3.4","9","point_of_interest establishment"
"ChIJM-wxlplt5kcRyttcR3mB1pI","Au Troquet de la Place","48.871336","2.403878","2","3.9","166","restaurant bar food point_of_interest establishment"
"ChIJOWr-mJlt5kcRpd713vS2WdI","DME CONSEIL- Agence LAFORET","48.8710639","2.4042061",NA,"4","16","real_estate_agency point_of_interest establishment"
"ChIJ8doikZlt5kcRYioAf945xio","Mac'Corn","48.8709749","2.4039665",NA,NA,NA,"food health point_of_interest store establishment"
"ChIJ6VmYvJlt5kcRyQhKRKW6iyU","BNP Paribas - Paris Place Saint Fargeau","48.8714875","2.4036665",NA,"4.5","4","bank atm finance point_of_interest establishment"
"ChIJA-T0o5lt5kcRNle6pFJ8yxQ","Reflets de Soie","48.871341","2.4043846",NA,"3.5","4","point_of_interest clothing_store store establishment"
"ChIJAz0RvZlt5kcRqEGCeJym5Nc","Optique Saint-Fargeau","48.871428","2.403746",NA,"4.4","19","health point_of_interest store establishment"
"ChIJA7yeoplt5kcRrzlHyIjLS0I","Saint-Fargeau","48.871376","2.404176",NA,NA,NA,"bus_station transit_station point_of_interest establishment"
"ChIJH_UDl5lt5kcRed5Pq3Y0P5E","Nouri Mohamed","48.8714874","2.4041033",NA,NA,NA,"point_of_interest store establishment"
"ChIJLeH0o5lt5kcRbGnGWHFLTZI","Patricia Lauren S","48.8713559","2.4042989",NA,"4.1","19","hair_care point_of_interest establishment"
"ChIJ2UMLpJlt5kcRrtV0nL_v_F0","Saint-Fargeau","48.8716027","2.404102",NA,"4.3","15","subway_station transit_station point_of_interest establishment"
"ChIJMWMAoplt5kcRylaNSrxr1Ts","Goussou Ilija","48.8713513","2.4044431",NA,"5","4","food point_of_interest store establishment"
"ChIJG_0Plplt5kcRpTxWOJaRXj4","Boulangerie Walter Camaj","48.8713305","2.4037765",NA,"3.7","27","bakery food point_of_interest store establishment"
"ChIJ7YaXLzRt5kcRyrM-nYRcGcU","Dr Olivier DUWAT","48.8711743","2.4042105",NA,"3","1","doctor health point_of_interest establishment"
"ChIJD7fiBh9u5kcRYJSMaMOCCwQ","Paris","48.856614","2.3522219",NA,NA,NA,"locality political"
"ChIJOWr-mJlt5kcRssZtrVoCF8o","Allard Claire","48.8711743","2.4042105",NA,"5","2","health point_of_interest establishment"
"ChIJOWr-mJlt5kcR3no6vJArmo8","Cabinet diététique Matthieu Race","48.8711743","2.4042105",NA,"5","4","health point_of_interest establishment"
"ChIJty95FZht5kcRAaCOT5vQNNY","Centre Auditif Saint Fargeau","48.8715159","2.404483",NA,"5","3","health point_of_interest store establishment"
"ChIJ2UMLpJlt5kcRc3-EQvEz0ng","Saint-Fargeau","48.87169","2.404384",NA,"3.8","5","transit_station point_of_interest establishment"
"ChIJNRNJn5lt5kcRO8T6wSMZukU","Etude Saint Fargeau","48.8712691","2.4044765",NA,"4.8","5","real_estate_agency point_of_interest establishment"
"ChIJYXJsvJlt5kcRPJaczfYgFGc","Caisse d'Epargne Paris Saint Fargeau","48.8715805","2.4037551",NA,"1.5","19","bank finance insurance_agency health point_of_interest establishment"
"ChIJIYCgoZlt5kcRUc0isPfD624","Dsn Automobiles","48.8715131","2.4045517",NA,NA,NA,"point_of_interest establishment"
"ChIJ-YkIoZlt5kcR_kkK_vwP0Hw","N G S A Et Audio","48.8715131","2.4045517",NA,"1","1","point_of_interest establishment"
"ChIJEWhovplt5kcRiV7Y1WDaHYU","Kiosque à journaux","48.8714875","2.4036665",NA,NA,NA,"point_of_interest establishment"
"ChIJs3kA53tt5kcRbLc40cIXsAo","Book - Julie Reggiani Photographe - Book Comedien - Pub","48.871725","2.404307",NA,"5","20","point_of_interest establishment"
"ChIJZbf0lplt5kcRI18hDcgSfVk","Jie","48.8711601","2.4037423",NA,NA,NA,"shoe_store point_of_interest store establishment"
"ChIJ__8voZlt5kcRxqfdrRpWRBM","Pharmacie Levy","48.8716303","2.4045943",NA,NA,NA,"point_of_interest establishment"
"ChIJcaH7CJlt5kcRqUDp9aYew3M","Visuel Center","48.8716303","2.4045943",NA,"4.8","4","health point_of_interest store establishment"
"ChIJkchIoZlt5kcRFlTMvJZi6NU","Laveau Annie","48.8716303","2.4045943",NA,"5","3","dentist health point_of_interest establishment"
"ChIJp3bmQW5t5kcRmaeY_cTpn8I","Assistante Maternelle Almond Caroline","48.8718033","2.4040937",NA,NA,NA,"point_of_interest establishment"
"ChIJFwszoJlt5kcRwWuemkiuJ3I","Bonfanti Philippe","48.8713936","2.4046922",NA,"5","1","point_of_interest establishment"
"ChIJT8-1kJlt5kcRD5ACLGyUPV0","Boulangerie Viennoiseries Traiteur Confiseries","48.8710368","2.4039806",NA,"2.4","7","bakery food point_of_interest store establishment"
"ChIJswF1u5lt5kcRNx6M8jn5NGQ","Sapeurs Pompiers","48.8718576","2.4038536",NA,"4.9","13","fire_station point_of_interest establishment"
"ChIJ1wYbu5lt5kcRuVPAeOv9Oa0","Centre De Secours Ménilmontant","48.8718328","2.4040723",NA,NA,NA,"health point_of_interest establishment"
"ChIJkchIoZlt5kcR-va99_yIKDk","Pharmacie Saint Fargeau","48.8716575","2.4046825",NA,"3.5","40","pharmacy health point_of_interest store establishment"
"ChIJ53K0lplt5kcR75r_DGqjD2A","The palace of fruit","48.871102","2.403686",NA,"3.7","10","grocery_or_supermarket food point_of_interest store establishment"
"ChIJL6M8kZlt5kcRV3LQ_s8UC_4","Bébé Linou","48.8709749","2.4039665",NA,NA,NA,"grocery_or_supermarket food point_of_interest store establishment"
"ChIJL6M8kZlt5kcRtB_dcQh8oy0","Boutonné Romain","48.8709749","2.4039665",NA,"5","1","point_of_interest establishment"
"ChIJ8doikZlt5kcRr9fUL17Y8DQ","Calliger Hugues","48.8709749","2.4039664",NA,NA,NA,"point_of_interest establishment"
"ChIJowg_aJlt5kcRPLjTI1xJyBw","Réservoir de Ménilmontant","48.8710147","2.4058177",NA,NA,NA,"premise point_of_interest establishment"
