"Id","Name","Lat","Lng","Rating","Nb_Rating","Type"
"ChIJqWv9melt5kcRMsz9ivTezVA","91-71 Rue de Belleville","48.8736154","2.3841092",NA,NA,"route"
"ChIJFSU6sult5kcRDsYS4dnSjaA","Centre contrôle technique Dekra","48.8737345","2.3827812","3.6","17","car_repair point_of_interest establishment"
"ChIJlWxPyhVu5kcR4LjaJAd7MtM","Agence Inbound Marketing 1min30","48.873633","2.383551","4.1","12","point_of_interest establishment"
"ChIJP978s-lt5kcRjj5TisU1x0M","Ciné Horizon","48.8739668","2.3828331","4","1","point_of_interest establishment"
"ChIJPTC-rOlt5kcRLy3B5iUvqcM","Jeunesse En Mission","48.8736751","2.3827993","5","1","point_of_interest establishment"
"ChIJnWZfrult5kcRgoSc8MRvVz4","A TRIANON","48.873537","2.382913","4.3","62","restaurant food point_of_interest establishment"
"ChIJje-EaIpt5kcROLKPCfytcxU","A CASA DI NONNA - Cuisine Italienne D’amour","48.8734697","2.383483","4.7","70","restaurant food point_of_interest establishment"
"ChIJP2cmpOlt5kcRv9HeqHXDlPQ","Le Baccara","48.8734307","2.3832822","3.1","20","cafe bar food point_of_interest establishment"
"ChIJt0satw1u5kcRBx5_gTsDM_E","Marie-Brune Mauvernay","48.874033","2.3837704",NA,NA,"health point_of_interest establishment"
"ChIJRQUvselt5kcR_RL7sz0kKHI","Raphaëlle Joubert","48.8739738","2.3829918",NA,NA,"point_of_interest establishment"
"ChIJEZ4jvult5kcRwWo2xNojXow","Copy Bolivar","48.8740078","2.3838386",NA,NA,"point_of_interest establishment"
"ChIJ5XCsuult5kcRnXL9uo7ZUtQ","Brozz","48.8735884","2.3831878",NA,NA,"point_of_interest establishment"
"ChIJk_vppOlt5kcRkU5BqcCmr14","Croc Time","48.8736021","2.383407","1","3","restaurant food point_of_interest establishment"
"ChIJCbh6pelt5kcRRLH8v_JdOg0","Payal Das","48.8735699","2.3832247","5","1","restaurant food point_of_interest establishment"
"ChIJD0Vao-lt5kcRSbrHoPM7yZo","SARL Maa","48.873633","2.383551","3.7","3","grocery_or_supermarket food point_of_interest store establishment"
"ChIJ5XCsuult5kcR9-j0gEX7HTw","Restaurant Çiğli Kebab","48.8735597","2.3830801","4.1","22","restaurant food point_of_interest establishment"
"ChIJDd9CeKxt5kcRy5Noysa-zXc","Christophe GONDA GESTALT THERAPIE","48.8739738","2.3829918",NA,NA,"health point_of_interest establishment"
"ChIJYaosselt5kcRAG9P4FeGx-E","Garcia Florencia","48.8739738","2.3829918",NA,NA,"point_of_interest establishment"
"ChIJqdjni_dt5kcRStKH7-28CKA","CENTRE NORD CONSTRUCTION","48.873747","2.382756",NA,NA,"general_contractor point_of_interest establishment"
"ChIJD7fiBh9u5kcRYJSMaMOCCwQ","Paris","48.856614","2.3522219",NA,NA,"locality political"
"ChIJP978s-lt5kcRBk-2_8CEwY8","Royai Valentin","48.8739668","2.3828331",NA,NA,"point_of_interest establishment"
"ChIJrYGGrult5kcRSjtnFHJj-vY","69 JLPHOTO 龙氏","48.873537","2.382913","3.8","17","point_of_interest store establishment"
"ChIJrYGGrult5kcRq5EiMjxsi2A","Idjerouidene Mohamed","48.8735367","2.3829127",NA,NA,"point_of_interest establishment"
"ChIJ2TZBagVt5kcRpzZ1iA54nKo","Le Discobar","48.8736558","2.3827699","5","45","bar point_of_interest establishment"
"ChIJdcYJpOlt5kcRfGHtvpgqHLg","Restaurant Indien","48.8734657","2.3834937","4","12","restaurant food point_of_interest establishment"
"ChIJ5WoPmOlt5kcR8o9UZHtWvoY","Anushka","48.8736403","2.3837545","5","1","convenience_store food point_of_interest store establishment"
"ChIJAQDMoult5kcR-oT2zDHEbV0","M-L Visions","48.8736552","2.383765",NA,NA,"point_of_interest establishment"
"ChIJM7j-l-lt5kcRUrPwDtMO9sk","Trésors du Bengale","48.8736552","2.383765","2","2","store point_of_interest establishment"
"ChIJuYE7r-lt5kcRsfgyp9Kx4Ew","Arnika Telecom","48.8734057","2.3830357","4","2","point_of_interest establishment"
"ChIJaf1Zsult5kcRXN6SNwZcbBk","L Empire De La Beaute","48.8738151","2.3826768","1.5","2","point_of_interest establishment"
"ChIJtUp4pOlt5kcR19M8vOGGKfw","Pius & Jennifer","48.8734176","2.383499",NA,NA,"restaurant food point_of_interest establishment"
"ChIJY94wr-lt5kcRbndNzz_FQlo","Afsan Enterprise","48.8734057","2.3830357","5","1","point_of_interest establishment"
"ChIJY94wr-lt5kcRndMmrqVaptk","Bakery La Gourmandise","48.8734057","2.3830357","4.5","13","bakery food point_of_interest store establishment"
"ChIJ2acor-lt5kcRm0dPJ3MnX50","Jannat Multimedia","48.8733986","2.3830163","3.8","5","point_of_interest establishment"
"ChIJAQAMvult5kcReDdwfqmdPFU","Primeur Bolivar","48.8740078","2.3838386",NA,NA,"point_of_interest establishment"
"ChIJu-Xn6ult5kcRJhHQTSwr2G8","Merah Zoubir","48.8740078","2.3838386","4","2","point_of_interest establishment"
"ChIJK4XfVjNt5kcRrk_KlC5xjLQ","Lieu de naissance d'Edith Piaf.","48.8734588","2.3837485","5","1","tourist_attraction point_of_interest establishment"
