"Id","Name","Lat","Lng","Rating","Nb_Rating","Type"
"ChIJeZw-kuFt5kcRaWJZCqUkcGQ","155-151 Avenue Parmentier","48.8715334","2.3699134",NA,NA,"route"
"ChIJEfCileFt5kcR_EDu9hhUZo4","Stéphane Cazenave - Helios Internet","48.872019","2.369993","2","1","point_of_interest establishment"
"ChIJQax9luFt5kcRb2AaFyuinyk","Société de l'Hotel du Globe","48.8719201","2.3700442",NA,NA,"lodging point_of_interest establishment"
"ChIJEfCileFt5kcRe0YGuzOwAGE","Synarip Force Ouvriere","48.8719474","2.369768",NA,NA,"point_of_interest establishment"
"ChIJIRkan-Ft5kcR9qFkzG41OdE","Nextilia","48.8719301","2.3708287",NA,NA,"point_of_interest establishment"
"ChIJCVrpnOFt5kcR0hHo2S47e9k","BoCaL'architecture - BOTTINGA Casper - CASTANET Sandrine","48.8716106","2.370686",NA,NA,"point_of_interest establishment"
"ChIJVVUVkOFt5kcRghQQzFi6ZoM","Les stocks du Marais","48.871519","2.3701957","4","10","clothing_store point_of_interest store establishment"
"ChIJD-PxmuFt5kcROxh15RWJr8k","L' atelier stratégie","48.8715136","2.3702428",NA,NA,"point_of_interest establishment"
"ChIJvwu4muFt5kcR3aK9QZfah2s","Septet Cecile","48.8714748","2.3704143",NA,NA,"point_of_interest establishment"
"ChIJ_aEZleFt5kcR7_kA0daeD1c","FO Construction","48.8719474","2.369768",NA,NA,"point_of_interest establishment"
"ChIJVVUVkOFt5kcR248Eb4QboZw","MIRHA","48.8715136","2.3702428",NA,NA,"general_contractor point_of_interest establishment"
"ChIJExMKC-Ft5kcRyKX9iqmf25U","Charro Frederic","48.8716903","2.3698064",NA,NA,"accounting finance point_of_interest establishment"
"ChIJCVrpnOFt5kcRYNmVz--uoYU","PARISHOLIDAYS.fr","48.8716106","2.370686",NA,NA,"point_of_interest establishment"
"ChIJ8UwumOFt5kcRqVNQw6ZjwqE","Little Bear Production","48.8719328","2.3704023",NA,NA,"point_of_interest establishment"
"ChIJQRfKl-Ft5kcR9I4KCGyNZVg","LABEL COBALT","48.8719903","2.3702136",NA,NA,"point_of_interest establishment"
"ChIJBQmMluFt5kcRs344PiEqC4A","LA PLANQUE HOTEL","48.87189","2.37008","4.6","100","lodging point_of_interest establishment"
"ChIJyQgNmOFt5kcRkLXP0H51pWk","Robins Des","48.8720197","2.3705048",NA,NA,"point_of_interest establishment"
"ChIJm2qWmOFt5kcRfcqfhiVbrlM","Roustan Melanie","48.8720197","2.3705048",NA,NA,"point_of_interest establishment"
"ChIJm2qWmOFt5kcReXcpxoUCUNs","Monier Francoise","48.8720197","2.3705048",NA,NA,"point_of_interest establishment"
"ChIJD7fiBh9u5kcRYJSMaMOCCwQ","Paris","48.856614","2.3522219",NA,NA,"locality political"
"ChIJ30P3x0Vt5kcRI1EuBi6OpMg","Gadeliv","48.8719894","2.3705692",NA,NA,"travel_agency point_of_interest establishment"
"ChIJTyrZmOFt5kcRiGkKoyGKyzU","CaptationVideo.com","48.8718791","2.3706469",NA,NA,"point_of_interest establishment"
"ChIJP19CkeFt5kcRYkoVbxpYK1k","SHERIFF DES ECONOMIES","48.8716809","2.3700483",NA,NA,"insurance_agency point_of_interest establishment"
"ChIJL-kcleFt5kcR7Lg_ig7XX6Y","Zuba Alimentation","48.8719252","2.3698095",NA,NA,"grocery_or_supermarket food point_of_interest store establishment"
"ChIJB1Cmd19t5kcRP4vun31egHA","Cali Mia","48.8719168","2.3708029",NA,NA,"restaurant food point_of_interest establishment"
"ChIJ6wYin-Ft5kcR9LqJuhtAkgU","Resto Chez FATOU","48.8719168","2.3708029",NA,NA,"restaurant food point_of_interest establishment"
"ChIJWR-jleFt5kcRVTvBd5Rhro0","Association Grande Ecoute","48.8719474","2.369768",NA,NA,"point_of_interest establishment"
"ChIJEfCileFt5kcR37Xxri7wQ7k","Meurant Antoine","48.8719474","2.369768",NA,NA,"point_of_interest establishment"
"ChIJEfCileFt5kcRyeLRlCCW0hU","CLAIR DE VUE - Photocopieurs Reprographie Visioconférence Audiovisuel","48.8719474","2.369768","4","7","electronics_store home_goods_store point_of_interest store establishment"
"ChIJj_rc8CVt5kcRK0UaJyoxil4","Reap5 (entretien auto-moto à domicile)","48.8720508","2.3707813",NA,NA,"car_repair point_of_interest establishment"
"ChIJU1UVkOFt5kcRNFX4dZYB7UY","Julie Lecoeur","48.8715136","2.3702429",NA,NA,"point_of_interest establishment"
"ChIJ8eXlzgNt5kcRgyRUv8PgFJY","Harrington Paris","48.8715136","2.3702428",NA,NA,"point_of_interest establishment"
"ChIJVVUVkOFt5kcRUsS2rRmukWc","MAISON ET SERVICES PARIS 10 | Ménage, repassage, nettoyage des vitres","48.8715136","2.3702428","4","4","point_of_interest establishment"
"ChIJVVUVkOFt5kcRUeMJZq_7a54","SPUB","48.8715136","2.3702428",NA,NA,"point_of_interest establishment"
"ChIJVVUVkOFt5kcRwHXAF072GFw","LE_SPASS","48.8715136","2.3702428",NA,NA,"point_of_interest establishment"
"ChIJOXNHjuFt5kcR3XAAd4RwH9E","Yansané Inda","48.8715136","2.3702428",NA,NA,"point_of_interest establishment"
"ChIJ5yoIOPtt5kcRiaWw_3jwzCY","Cosmétiques Misseyk à Paris pour Femmes et Hommes","48.8718525","2.3696834",NA,NA,"pharmacy health point_of_interest store establishment"
"ChIJxxLJlOFt5kcRV0VTbxmuFQI","Comestibles","48.8718525","2.3696834",NA,NA,"point_of_interest establishment"
"ChIJzwWSjeFt5kcRFpunz2UN_Dw","Alibert","48.871697","2.3696528","5","1","bus_station transit_station point_of_interest establishment"
