"Id","Name","Lat","Lng","Price_level","Rating","Nb_Rating","Type"
"ChIJMYR2NEBu5kcRWQ-XyaBErBs","41-39 Rue Marguerite de Rochechouart","48.8786651","2.3452488",NA,NA,NA,"route"
"ChIJyy-saFcF5kcRQtlW4Odh2Yc","Ze Hôtel Paris (Hôtel quartier Gare du Nord, Hôtel quartier Opéra Paris)","48.8789432","2.3448623",NA,"4.2","117","lodging point_of_interest establishment"
"ChIJYRKmSkBu5kcRHwJ4j_vOBok","Sobane Restaurant","48.878805","2.3448462","2","4.5","319","restaurant food point_of_interest establishment"
"ChIJ8xvKykFu5kcR4c0FjM9iaN0","Immobilier Parisien","48.8788362","2.3452606",NA,"4.7","13","point_of_interest establishment"
"ChIJAWVBtUFu5kcRJEgqZt2XIPs","Payez Ce Que Vous Voulez","48.8789432","2.3448623",NA,NA,NA,"lodging point_of_interest establishment"
"ChIJm6i_yUFu5kcRcfDDR4lazwc","Inge.st.ar","48.8791821","2.3452276",NA,"5","3","point_of_interest establishment"
"ChIJFenCzUFu5kcROnEd4HVJY48","Les Films à Cinq","48.8791821","2.3452276",NA,NA,NA,"point_of_interest establishment"
"ChIJm6i_yUFu5kcRnSjN_Sr_yL0","Large","48.8791821","2.3452276",NA,NA,NA,"point_of_interest establishment"
"ChIJk1bIy0Fu5kcR2hnJCvRJpm0","Bouillon 47","48.8790957","2.3454481","3","4.6","237","restaurant food point_of_interest establishment"
"ChIJ9eBfSkBu5kcRbKbnBgpAuXc","Chungking Express","48.8787644","2.3449101","2","4","134","restaurant food point_of_interest establishment"
"ChIJG_X5tEFu5kcR5Njtd9zJxkg","KLIPDOMM JLP DISTRI","48.8790185","2.3447219",NA,NA,NA,"point_of_interest establishment"
"ChIJP9xQtEFu5kcROuyesIuF9D0","Le Potager de Charlotte","48.8789984","2.3447152","2","4.7","532","restaurant food point_of_interest establishment"
"ChIJZT6jzUFu5kcR5xAWamAwv2o","36 Corneil","48.8789659","2.3455717","2","4.4","179","bar point_of_interest establishment"
"ChIJHUknNEBu5kcR_5JypkXow2M","Rôtisserie Dufrénoy","48.878611","2.345099",NA,"3.6","31","meal_delivery restaurant food point_of_interest establishment"
"ChIJ3cs3zkFu5kcRr4GoSQpCe9s","Terrabea","48.879266","2.34551",NA,"4.9","11","beauty_salon point_of_interest establishment"
"ChIJTWPK0kFu5kcRHfjxNHZayTs","Bossa Talents","48.8788409","2.3456909",NA,NA,NA,"point_of_interest establishment"
"ChIJkT5XMUBu5kcRGOYyn-L-wEs","Centre dentaire Paris 9 - Smile-only - Maubeuge","48.8786017","2.3453715",NA,"3.3","28","dentist doctor health point_of_interest establishment"
"ChIJ__-PzEFu5kcRvcOtZ3Vfl0o","Gérard Lo Monaco","48.878986","2.3453294",NA,NA,NA,"point_of_interest establishment"
"ChIJH_7CzUFu5kcR1ldXbA_Qb5s","Camille and Margaux","48.878913","2.345311",NA,"4.2","12","point_of_interest clothing_store store establishment"
"ChIJD7fiBh9u5kcRYJSMaMOCCwQ","Paris","48.856614","2.3522219",NA,NA,NA,"locality political"
"ChIJYzDWzEFu5kcR6NdsE2ZMFgs","Ferme Saint Hubert","48.8788744","2.3455192",NA,"4.3","44","food point_of_interest store establishment"
"ChIJj_hTS0Bu5kcRQzfc25-TXsU","Scènes et Vernissages Rénovation","48.8788649","2.3445945",NA,"3.1","7","painter point_of_interest establishment"
"ChIJD208LEBu5kcRHsBzhuoFW3Q","Magasin René Pierre Paris","48.8786328","2.3455488",NA,"4","72","point_of_interest store establishment"
"ChIJEVjEM0Bu5kcRxYOpa0ZyS2U","Celeste Bollack","48.8786017","2.3453715",NA,NA,NA,"point_of_interest establishment"
"ChIJdafAzUFu5kcRFErSqMDmf5c","Pipalottes La Table","48.8791794","2.3455138","2","4.2","208","restaurant food point_of_interest establishment"
"ChIJaUMVNEBu5kcRPPMWlvveULo","CONNEXION IMMOBILIER TRUDAINE","48.8786254","2.34497",NA,NA,NA,"real_estate_agency point_of_interest establishment"
"ChIJoWrzzEFu5kcRw5so308y7B4","Nicolas Rochechouart","48.8789701","2.345206","2","4.4","11","liquor_store food point_of_interest store establishment"
"ChIJvYndtEFu5kcRutG5g2KG8uA","Vitrail Mise au Verre","48.879019","2.344722",NA,"5","2","point_of_interest store establishment"
"ChIJ8xvKykFu5kcRxpKGCpP3UC0","Self Bazar","48.878875","2.3451985",NA,"2.2","33","hardware_store point_of_interest store establishment"
"ChIJK93dzEFu5kcRcXKh-HIqbDQ","Schoeller Eric","48.878986","2.3453294",NA,NA,NA,"point_of_interest establishment"
"ChIJ0V6szEFu5kcRYs6oque4VAI","Coté Bio","48.878874","2.3452863",NA,NA,NA,"point_of_interest establishment"
"ChIJgc_w-edv5kcRqcGqugagdh0","Pipalottes l'Épicerie","48.8788796","2.3453035",NA,"5","1","cafe food point_of_interest store establishment"
"ChIJ0V8htUFu5kcRstSOJHk529Y","La Meeting Room Paris (Salle de Réunion Paris)","48.878976","2.344894",NA,"5","4","point_of_interest establishment"
"ChIJO6gyNUBu5kcRlTmyfE5VsHU","Kbb","48.8788362","2.3452606",NA,NA,NA,"point_of_interest establishment"
"ChIJAbtsQH9v5kcR7YGE3HmWzc8","Dpto paris","48.8791364","2.3450741",NA,NA,NA,"lodging point_of_interest establishment"
"ChIJVUUjNUBu5kcR6I_x1UEBieE","Clermont Architectes - Paris","48.8787805","2.3450071",NA,"5","3","point_of_interest establishment"
"ChIJI8lBzUFu5kcRwxqPuMk6MOk","Maubeuge - Rochechouart","48.8788539","2.3454659",NA,"5","1","transit_station point_of_interest establishment"
"ChIJDTFLzEFu5kcRsKJM5tnelCA","The Dark France","48.8790882","2.3454679",NA,NA,NA,"point_of_interest establishment"
"ChIJDTFLzEFu5kcR3jdcwlPWtxo","La Guissaume","48.8790882","2.3454679",NA,NA,NA,"point_of_interest establishment"
"ChIJ8dnNxH5v5kcRYYHZE61PGfc","Le Comptoir des Quartiers","48.8787114","2.3451462",NA,"4.9","16","shoe_store point_of_interest clothing_store store establishment"
"ChIJP9xQtEFu5kcRgFi2OSZW-ms","12 Arrondissement BNB Paris","48.8790185","2.3447219",NA,NA,NA,"lodging point_of_interest establishment"
"ChIJObXVSkBu5kcRE1ZO-QA0btk","The Golden Leaf","48.878841","2.344749",NA,"5","3","point_of_interest establishment"
"ChIJA3beMkBu5kcRTd0TxQ3vEuY","Patisserie","48.8787927","2.3454671",NA,"4.2","17","bakery food point_of_interest store establishment"
"ChIJueQQzEFu5kcR8qq-SUrLYMc","France Grèce International","48.8791998","2.3454569",NA,NA,NA,"point_of_interest establishment"
"ChIJvUXHyUFu5kcRgSu5OD69PDQ","Ping-Pong Prom","48.8792862","2.3450539",NA,NA,NA,"point_of_interest establishment"
"ChIJ9eBfSkBu5kcR3tiniUO5hMc","Françoise LEYMARIE-LEGARS","48.8787162","2.344823",NA,NA,NA,"health point_of_interest establishment"
"ChIJq6q-MkBu5kcRVJdihXOd8so","Le","48.8788043","2.345556",NA,NA,NA,"point_of_interest establishment"
"ChIJObXVSkBu5kcRsaSGh04CnFo","Briand Patrice","48.8787819","2.3447193",NA,NA,NA,"point_of_interest establishment"
"ChIJYXKPzUFu5kcRwKcc6ElhCk4","Jimmy Slyde Institute Paris","48.8790577","2.3456303",NA,NA,NA,"school point_of_interest establishment"
"ChIJIU-9MkBu5kcRa6YhAHtJhtA","Nayagom","48.8787877","2.3455745",NA,NA,NA,"point_of_interest establishment"
"ChIJIU-9MkBu5kcR_usDthXE5g4","Les Mille Et Une Saveurs","48.8787877","2.3455745",NA,NA,NA,"point_of_interest establishment"
"ChIJU2f5NUBu5kcRmS5rVtSI64A","Koundourakis Dimitri","48.8786254","2.34497",NA,NA,NA,"point_of_interest establishment"
"ChIJv4mAuRRu5kcRJaZduan7lrw","Impro Academy","48.8790561","2.3457005",NA,NA,NA,"university point_of_interest establishment"
"ChIJW_O_M0Bu5kcRDZoA0m0o6E4","Broc And Stock","48.8786328","2.3453493",NA,"3","1","point_of_interest establishment"
"ChIJi_PSNUBu5kcRIfqC8gJjW54","Maubeuge - Rochechouart","48.878592","2.3450675",NA,NA,NA,"transit_station point_of_interest establishment"
"ChIJGQsZgnVv5kcRIGWxW0yj2z8","Mikkeller","48.8786248","2.345361",NA,"4.6","166","bar point_of_interest establishment"
"ChIJrxTSkklv5kcRnyyuuXfpwO4","Les Caves Nysa","48.8786248","2.345361",NA,"5","1","liquor_store food point_of_interest store establishment"
"ChIJ2QdBNEBu5kcR48ZH7Hc9g3c","Legac Bruno","48.8786248","2.345361",NA,NA,NA,"point_of_interest establishment"
"ChIJLaYF0kFu5kcR9Ymhy0VRkqw","Le Dunhill","48.8790561","2.3457005",NA,"3.3","3","point_of_interest store establishment"
"ChIJzbXuhFdv5kcRK1U_cwKP-xs","Missià","48.8790561","2.3457005",NA,"5","8","grocery_or_supermarket restaurant food point_of_interest store establishment"
