"Id","Name","Lat","Lng","Price_level","Rating","Nb_Rating","Type"
"ChIJb7jAv1Bu5kcRqgPkx3NSZsQ","97-91 Rue Lamarck","48.8904993","2.3347394",NA,NA,NA,"route"
"ChIJqfyjvVBu5kcRGoNF3uAq0ho","Hôtel de Flore - Montmartre","48.890501","2.3352011",NA,"4.3","248","lodging point_of_interest establishment"
"ChIJ59q4vVBu5kcR38jbY_2uJ6w","Chirurgien dentiste","48.8905122","2.3350531",NA,"3.8","41","dentist health point_of_interest establishment"
"ChIJz2vH2UZu5kcROZiCdgNXnkQ","MobilActif","48.8903644","2.3350932",NA,NA,NA,"point_of_interest establishment"
"ChIJbYJp_uLWVA0RQ6k9FpiXGsk","Haut de forme Studio","48.890396","2.3347346",NA,NA,NA,"point_of_interest establishment"
"ChIJJbbwvVBu5kcR_qIWB8G_V1o","Icone","48.890565","2.3350872",NA,"4.7","6","clothing_store jewelry_store point_of_interest store establishment"
"ChIJX4aXZN0RrhIRTJoZkTQjjoc","A.M.A Assurances","48.8905224","2.3354761",NA,"4.8","4","insurance_agency point_of_interest establishment"
"ChIJLY7pv1Bu5kcRn0ukcjREGSs","Nuad Sabai Massages","48.890396","2.3347346",NA,"4.4","19","spa point_of_interest establishment"
"ChIJ65aPmFBu5kcRdNNJrJ8UxAQ","Mome Sweet Mome","48.8903015","2.3355179",NA,"1","2","point_of_interest establishment"
"ChIJIT37vlBu5kcRpLYUuvIBV1s","Les Promenades Urbaines","48.8906019","2.3348458",NA,"4","1","point_of_interest establishment"
"ChIJMXwtaTFu5kcRZy_iJgSkMXU","AMA assurances","48.8905387","2.3354763",NA,NA,NA,"insurance_agency point_of_interest establishment"
"ChIJW6xi6lBu5kcRaE9qpc9LbQo","Kiatoo - Matériel informatique reconditionné et d'occasion","48.8904066","2.3345498",NA,"4.2","278","electronics_store point_of_interest store establishment"
"ChIJJ8KzvVBu5kcRWdJcdFvq47s","Un réseau de chirurgiens dentistes - implantologie dentaire","48.8905496","2.3351048",NA,NA,NA,"dentist health point_of_interest establishment"
"ChIJ-RgellBu5kcRBrpejS6KrEA","Crep'uscule","48.8903571","2.3350765",NA,"4.6","133","cafe restaurant food point_of_interest store establishment"
"ChIJ3-rIwVBu5kcRPeunWqHxsCA","Mobalpa","48.8904214","2.3343897",NA,"3.9","44","furniture_store home_goods_store point_of_interest store establishment"
"ChIJ_5pdn1Bu5kcRI_7tnS2ftXo","El Pulpo","48.8901812","2.3356424","2","4.1","216","restaurant food point_of_interest establishment"
"ChIJ-RgellBu5kcR2AiTczHvgzQ","A la Pointe","48.8903617","2.3351268",NA,"4.2","72","hair_care point_of_interest establishment"
"ChIJTV-Fv1Bu5kcRU66e8K566VY","Chi Yo Da","48.890602","2.334846",NA,"4.5","108","bar restaurant food point_of_interest establishment"
"ChIJjfDB-FBu5kcRl5FXNfZ5zXo","Fromagerie Chez Virginie","48.8903532","2.3344652",NA,"4.8","99","food point_of_interest store establishment"
"ChIJD7fiBh9u5kcRYJSMaMOCCwQ","Paris","48.856614","2.3522219",NA,NA,NA,"locality political"
"ChIJ3fWPv1Bu5kcR7zc3ckGYpaQ","Jacqueline Herve","48.8906019","2.3348458",NA,NA,NA,"general_contractor point_of_interest establishment"
"ChIJTV-Fv1Bu5kcR8SbLmS4Cld0","Parichon Jean-Loup","48.8906019","2.3348458",NA,NA,NA,"point_of_interest establishment"
"ChIJ_5pdn1Bu5kcRliiGlDn8WE4","Au Pied du Sacré-Cœur","48.8900104","2.3354326","2","4.4","190","restaurant food point_of_interest establishment"
"ChIJWVzdVp5v5kcRQ_bImovxg58","Sweeft.io - Conseil en marketing et développement","48.890394","2.3351124",NA,NA,NA,"point_of_interest establishment"
"ChIJlY8TvlBu5kcRGqTyY3HEWkI","Cabinet Beghin Et Compagnie","48.8903523","2.3349508",NA,NA,NA,"point_of_interest establishment"
"ChIJPfgjmFBu5kcR-vFghFKpqlE","Pkd Consulting","48.8903053","2.335345",NA,NA,NA,"point_of_interest establishment"
"ChIJV80TmFBu5kcRLjvS9zmjmYE","Eclat Laverie","48.890353","2.3353931",NA,"3","3","laundry point_of_interest establishment"
"ChIJ1ZecLTFv5kcR9YgWMG-qlqg","Carole Serrat","48.8904181","2.3353879",NA,NA,NA,"health point_of_interest establishment"
"ChIJVVVhlVBu5kcR8Ifss5BN-Bo","imaging-medias","48.890396","2.3347346",NA,NA,NA,"point_of_interest establishment"
"ChIJ59q4vVBu5kcR7kFySzYhyxM","Docteur Roxane Behvad","48.8905532","2.3350832",NA,"4","8","dentist health point_of_interest establishment"
"ChIJ65aPmFBu5kcRuaoQynM6eH4","Les Petits Bilingues","48.8903305","2.33549",NA,NA,NA,"point_of_interest establishment"
"ChIJZ1bEolBu5kcRt37E7I-EQ6w","Mon Agent d'Assurances","48.8905101","2.3353939",NA,NA,NA,"point_of_interest establishment"
"ChIJv-O7olBu5kcRfvU8YT23UxA","La Foret","48.8905101","2.3353939",NA,NA,NA,"real_estate_agency point_of_interest establishment"
"ChIJAQD0mFBu5kcR3CNElnYMWXg","Birdie num num","48.8903015","2.3355179",NA,"4.9","52","restaurant food point_of_interest establishment"
"ChIJCS-kmVBu5kcRxvdo8hCjmgk","Alossi Joseph","48.8903015","2.3355179",NA,NA,NA,"point_of_interest establishment"
"ChIJnZpdn1Bu5kcRipBt1ldgB5k","Le Sac du Gourmet","48.8901812","2.3356424",NA,"1.7","3","meal_delivery food point_of_interest establishment"
"ChIJOYEdViNv5kcRH6vtqrHzPrg","Sensitive et Fils","48.8906019","2.3348458",NA,NA,NA,"home_goods_store point_of_interest store establishment"
"ChIJDfb0FIZv5kcRuULJdoBF0d0","GicquelDerfalet","48.8906019","2.3348458",NA,NA,NA,"point_of_interest establishment"
"ChIJ3Qih6lBu5kcRm433nSPYC6w","Atoutek","48.8904066","2.3345498",NA,"4.1","9","point_of_interest establishment"
"ChIJD9PGg1Bu5kcRXbPqkAFmB1E","Baldauf Pascale","48.8900122","2.3355118",NA,NA,NA,"point_of_interest establishment"
"ChIJOV0pwlBu5kcRfCMz3EByjgg","Drawing Classes Paris Montmartre Atelier Armelle Pruniaux","48.890383","2.3344039",NA,NA,NA,"painter point_of_interest establishment"
"ChIJG9rOV1Fv5kcRbQY41tOBX0k","Aurélia Brand Deligne Sophrologue","48.890383","2.3344039",NA,"5","9","health point_of_interest establishment"
"ChIJAQBw6lBu5kcR_eGKsNbvOBQ","Jérémie de Cuyper","48.890383","2.3344039",NA,NA,NA,"point_of_interest establishment"
"ChIJAQBw6lBu5kcRSwS-vq8555Q","Feels Like Home in Paris","48.890383","2.3344039",NA,"5","32","real_estate_agency point_of_interest establishment"
"ChIJjfDB-FBu5kcRzCk8oyG5770","Emilie HAJJI","48.890383","2.3344039",NA,NA,NA,"health point_of_interest establishment"
