"Id","Name","Lat","Lng","Price_level","Rating","Nb_Rating","Type"
"ChIJf4unbWxu5kcRLmUysNZX7oY","121-113 Boulevard de Magenta","48.879805","2.3528659",NA,NA,NA,"route"
"ChIJHZoYd2xu5kcRqkM2ee0VvLw","Chez Michel","48.87957","2.352218","3","4.4","351","restaurant food point_of_interest establishment"
"ChIJdxxfbWxu5kcRdJiMHbYw468","Exact Exchange","48.8800209","2.3523455",NA,"4.5","13","finance point_of_interest establishment"
"ChIJF7wLdmxu5kcR6_Myqn8QhJo","Ircasa","48.8798396","2.3519072",NA,NA,NA,"health point_of_interest establishment"
"ChIJ__8Dc2xu5kcRd0EUyBk1Seg","Vinosaures","48.8798428","2.3525417",NA,NA,NA,"point_of_interest establishment"
"ChIJ7dlMbWxu5kcRbbN4gRqHd38","TIG Studio","48.8798428","2.3525417",NA,"5","3","point_of_interest establishment"
"ChIJd3wQDjhu5kcRIq7y8FAgf2Y","Deuxième Maman","48.8800375","2.3521278",NA,NA,NA,"health point_of_interest establishment"
"ChIJR0psdmxu5kcRBe7f6wh2We8","ELIES Arnaud Chiropodists Pedicure posturologist","48.879628","2.352251",NA,"4.7","18","doctor health point_of_interest establishment"
"ChIJ039eCmxu5kcRbH8lcdAPvkI","TP intérim et assistance","48.8801647","2.3521617",NA,"5","1","point_of_interest establishment"
"ChIJm_WAdmxu5kcR9fkPOwuo0yk","Stéphanie Thierart - Ostéopathe","48.8796508","2.352306",NA,"5","9","health point_of_interest establishment"
"ChIJwaw8cmxu5kcRb5OUOtoAtJk","L'Office Francais de Prestation","48.8797037","2.3526198",NA,"3","1","point_of_interest establishment"
"ChIJ6-Ik9Wtu5kcRIHPxz2P0ieU","Culture Et Liberté","48.8800792","2.351869",NA,"5","1","point_of_interest establishment"
"ChIJmUTvcWxu5kcRmwKYUmHg17c","Dr Pascal Siger","48.8796076","2.3526729",NA,"4.1","19","doctor health point_of_interest establishment"
"ChIJ11Tr9mtu5kcRiQFV-ZDG5T4","Pharmacie Maubeuge","48.8802853","2.3519806",NA,"3.8","10","pharmacy health point_of_interest store establishment"
"ChIJ1yV5dGxu5kcRMrfQ_8lFeQI","Architecture Stories","48.8798039","2.3523722",NA,NA,NA,"point_of_interest establishment"
"ChIJm_WAdmxu5kcRNjQMgEmSWuU","Podologie","48.8796626","2.3522034",NA,NA,NA,"doctor health point_of_interest establishment"
"ChIJ0c2mdWxu5kcR5ZND-YKKC7s","Creneau Interim","48.8799827","2.3521104",NA,"1","1","point_of_interest establishment"
"ChIJi7rddXJu5kcRoZbxHQkKLPw","Café Foresta","48.8802604","2.3528042","2","3.7","338","meal_takeaway bar restaurant food point_of_interest store establishment"
"ChIJR0psdmxu5kcRtBXQNNy4qNw","Jousset Claude","48.8796508","2.352306",NA,"4.5","2","health point_of_interest establishment"
"ChIJD7fiBh9u5kcRYJSMaMOCCwQ","Paris","48.856614","2.3522219",NA,NA,NA,"locality political"
"ChIJaWgsdWxu5kcRstlhGu1GXQo","Gold & Go - Gare du Nord","48.8801294","2.3519941",NA,NA,NA,"finance point_of_interest establishment"
"ChIJlczecGxu5kcRftZNEFqFg0A","Tropiques Initiatives","48.8794974","2.3524255",NA,NA,NA,"point_of_interest establishment"
"ChIJm67EdGxu5kcRP8ayFjJOetY","Men At Work Agence Interim","48.8799256","2.3522885",NA,NA,NA,"point_of_interest establishment"
"ChIJe6E0C2xu5kcRKd70xtlScys","Detente Beaute","48.8799934","2.3523028",NA,NA,NA,"point_of_interest establishment"
"ChIJv3X6dGxu5kcRFCgmK9F14ig","Kiss 23 Beauty Care","48.8798544","2.3522566",NA,NA,NA,"point_of_interest establishment"
"ChIJUXBPC2xu5kcRCf-TYoU6SgU","MoneyGram","48.8800209","2.3523455",NA,"3","1","finance point_of_interest establishment"
"ChIJhTjJDGxu5kcRkiWHEgby4CU","Didier Lea","48.8799733","2.3525116",NA,"5","1","health point_of_interest establishment"
"ChIJAfzvDGxu5kcRUonWE2a4wlk","Au Bout En Train","48.8800598","2.3523859",NA,"4","219","restaurant food point_of_interest establishment"
"ChIJRbfXHWlu5kcRYa5qOy3Q7ME","CEREMONIE EXPRESS","48.8800362","2.3524694",NA,"4","36","point_of_interest clothing_store store establishment"
"ChIJJ-q27UJv5kcRS7wMSzOyEn8","Thwaini Juwelier Paris","48.8798428","2.3525417",NA,"4.6","21","jewelry_store point_of_interest store establishment"
"ChIJrT4STfxv5kcRkVAYBz9yJZ0","Julia Drouot During Piano","48.8798428","2.3525417",NA,NA,NA,"electronics_store home_goods_store school point_of_interest store establishment"
"ChIJg6m5Cmxu5kcRpgqYko6V94Y","LaFédé","48.8800375","2.3521278",NA,NA,NA,"point_of_interest establishment"
"ChIJn_X5c2xu5kcRbR3Tuo5rVRY","Thérèse Bisch","48.8797294","2.3523125",NA,"5","2","point_of_interest establishment"
"ChIJn_X5c2xu5kcR2Gm8cad4wCY","Cazin Delaporte Chantal Marie Pascale","48.8797294","2.3523125",NA,NA,NA,"point_of_interest establishment"
"ChIJK7U2dGxu5kcRcEsyUUAafAE","Londono Art Et Design","48.8797311","2.3522296",NA,NA,NA,"point_of_interest establishment"
"ChIJR0psdmxu5kcR2nkmp6Rjsts","Dr Dominique Defer","48.8796508","2.352306",NA,"3.6","16","doctor health point_of_interest establishment"
"ChIJzwitdmxu5kcRan-sf39zdC0","Pirates D'eau Douce","48.879637","2.352361",NA,"5","3","point_of_interest establishment"
"ChIJDe73imtu5kcRJLFt9sJDtzQ","Espace Service","48.8798396","2.3519072",NA,NA,NA,"point_of_interest establishment"
"ChIJV1EQJ3Zv5kcRQznK7qypbbk","Lasserrereinet","48.8798396","2.3519072",NA,NA,NA,"point_of_interest establishment"
"ChIJV2YsdWxu5kcRvQUJNFp2Dms","Senart Sophie","48.8801294","2.3519941",NA,NA,NA,"point_of_interest establishment"
"ChIJFR8ubGxu5kcRSj3WQf6cpUs","Le Vêtement Similo","48.8796678","2.3527742",NA,"4.5","20","point_of_interest clothing_store store establishment"
"ChIJqSvmdmxu5kcRtdrk2pg_dcA","シェ ミッシェル","48.8795526","2.3522642",NA,NA,NA,"point_of_interest establishment"
"ChIJHZoYd2xu5kcRyHyWWS6B0zY","Breton Thierry","48.8795526","2.3522642",NA,NA,NA,"finance point_of_interest establishment"
"ChIJWcqycmxu5kcR7uwdlYN0ZX8","Le Balto","48.8802904","2.352097",NA,"3.6","33","bar point_of_interest establishment"
"ChIJFR8ubGxu5kcRx2lhdzfAcgU","Siger Dominique","48.8796035","2.3526976",NA,"2.3","14","doctor health point_of_interest establishment"
"ChIJ9UvlGgVv5kcRG5Y12P8wRfQ","SMI Telecom et Mobile","48.8796678","2.3527742",NA,"5","1","point_of_interest establishment"
"ChIJT79tbmxu5kcRkTVTDFYLEPU","Siger Ouazana Florence","48.8796076","2.3526729",NA,"2.6","5","dentist health point_of_interest establishment"
"ChIJmxqQiWtu5kcRFIso_dYKrAI","the climate data factory","48.8796373","2.3518906",NA,NA,NA,"point_of_interest establishment"
"ChIJVzUTCmxu5kcRpl1yeIAqwf4","Objectif Vingt Sur Vingt","48.8802865","2.3520071",NA,NA,NA,"point_of_interest establishment"
"ChIJKxs4phlv5kcRVZzf-X3Nlb0","Doppio","48.8795753","2.3519658",NA,"4.7","80","bar restaurant food point_of_interest establishment"
"ChIJp77EiWtu5kcRnIfMhBfM0ts","Ravary","48.8795753","2.3519658",NA,NA,NA,"point_of_interest establishment"
"ChIJRXzHiexv5kcReIUD_03mVVs","La Pointe du grouin","48.8794974","2.3524255",NA,"3.8","13","restaurant food point_of_interest establishment"
"ChIJGVI3-Ddv5kcRyKYV1Tci2ZQ","Marie-Nadine Prager","48.8794974","2.3524255",NA,NA,NA,"health point_of_interest establishment"
"ChIJLckaT9Bv5kcRQkt-9FEHP3k","Pascale Mamy - Psychanalyste","48.8794974","2.3524255",NA,NA,NA,"health point_of_interest establishment"
"ChIJUdSGcGxu5kcRIbfXDfHnnwI","Jungman Jacques","48.8794974","2.3524255",NA,"3.7","3","doctor health point_of_interest establishment"
"ChIJUdSGcGxu5kcRNKFc4eKGrPE","Jacques Brafman","48.8794974","2.3524255",NA,"1.7","3","doctor health point_of_interest establishment"
"ChIJN36ma7Nv5kcRljKpPtaVXQA","Makeda - Cosmopolitan Beauty Concept","48.88028","2.3519129",NA,"4.3","35","hair_care point_of_interest establishment"
