"Id","Name","Lat","Lng","Rating","Nb_Rating","Type"
"ChIJD7fiBh9u5kcRYJSMaMOCCwQ","Paris","48.856614","2.3522219",NA,NA,"locality political"
"ChIJdwkLfT1v5kcRYOMmx4xXwac","Dpd France 257","48.8946404","2.3572825",NA,NA,"point_of_interest establishment"
"ChIJ6Zo0MX1u5kcR9ZqFtJuK5H0","Deskeo Marx Dormoy","48.8946342","2.3571896","4","3","real_estate_agency point_of_interest establishment"
"ChIJ5Sm-3WJu5kcRUdmZUKAMhbk","Mon 18e","48.8941361","2.3575312",NA,NA,"point_of_interest establishment"
"ChIJZamWt2Bu5kcRYBuUaMOCCwU","18th arrondissement of Paris","48.8915856","2.3495999",NA,NA,"sublocality_level_1 sublocality political"
