"Id","Name","Lat","Lng","Price_level","Rating","Nb_Rating","Type"
"ChIJmRTcI19u5kcR9kWXels4F2c","27-5 Rue Letort","48.8943629","2.3431454",NA,NA,NA,"route"
"ChIJy-DEPF9u5kcR8wGWbFpfe34","Pharmacie Letort","48.8948499","2.3431259",NA,"4.6","11","pharmacy health point_of_interest store establishment"
"ChIJ_wZPI19u5kcRg4kbpP5Tu9c","Editions Tiresias Michel Reynaud","48.8945358","2.3430757",NA,NA,NA,"point_of_interest establishment"
"ChIJJRyRJF9u5kcRalBLUu5OQ7o","Intermediaire Reagir","48.8945447","2.3430062",NA,NA,NA,"point_of_interest establishment"
"ChIJT5AxJF9u5kcRQH21YrN7iz4","Logivitae","48.894335","2.343039",NA,NA,NA,"point_of_interest establishment"
"ChIJzQ9xPF9u5kcRyU72cukqHpg","Warp France","48.8948638","2.3431116",NA,NA,NA,"electronics_store home_goods_store point_of_interest store establishment"
"ChIJsSrQF19u5kcRJCrnebwFjMo","Learning Corps Mémoire","48.8947467","2.3434012",NA,"5","1","point_of_interest establishment"
"ChIJuX7qOV9u5kcR0Z-qH3zuQN8","Lesueur Christine","48.8950442","2.3430673",NA,NA,NA,"point_of_interest establishment"
"ChIJ28BJOV9u5kcR7A7XBfQkLMs","Alto - solutions artistiques","48.8950442","2.3430674",NA,NA,NA,"point_of_interest establishment"
"ChIJ0cBJOV9u5kcRofyJmVOeY4I","Oxyzen","48.8950442","2.3430674",NA,NA,NA,"point_of_interest establishment"
"ChIJdaKqIV9u5kcRjQWblrgUfg8","Kaneloglou Thomas","48.8941733","2.3432674",NA,NA,NA,"point_of_interest establishment"
"ChIJ9xGRPF9u5kcR2asdBBEOyF0","Mathieu","48.8947593","2.3431315",NA,NA,NA,"point_of_interest establishment"
"ChIJAaKBPF9u5kcRC7tLri5A3ug","Excel Pharma","48.8947974","2.3430852",NA,NA,NA,"pharmacy health point_of_interest store establishment"
"ChIJi9m9GF9u5kcRj5846HuV2vc","Helena Coudray Architecte","48.8944613","2.3432539",NA,NA,NA,"point_of_interest establishment"
"ChIJYUrkIl9u5kcRer3FhyhstbM","Ambulance Remy 75","48.8944613","2.3432539",NA,"1","4","health point_of_interest establishment"
"ChIJwwE6GlRv5kcRGtIfCU_eKxI","Chez Salvo y Rosario","48.8945907","2.3433287",NA,NA,NA,"restaurant food point_of_interest establishment"
"ChIJ0zS_Il9u5kcRldBT-N3uVLw","Bits To Parts: Formation À La Fabrication Digitale Et À L'impression 3d","48.8945907","2.3433287",NA,"5","2","point_of_interest establishment"
"ChIJRx5LsHJv5kcRZhc71H-phd8","Le fer à cheval","48.8945907","2.3433287",NA,"4.9","7","restaurant food point_of_interest establishment"
"ChIJVVUZJF9u5kcRlO1OwTnEjjo","Jimmy 2 fois","48.8943618","2.3429737","2","4.6","515","restaurant food point_of_interest establishment"
"ChIJD7fiBh9u5kcRYJSMaMOCCwQ","Paris","48.856614","2.3522219",NA,NA,NA,"locality political"
"ChIJmTZVIV9u5kcRzNlqAp19KrA","After Tray","48.894335","2.343039",NA,NA,NA,"point_of_interest establishment"
"ChIJd9DJL9dv5kcRYkovvCYQJmQ","The Parisian Realtor | Vente Immobilière Sur-Mesure","48.894335","2.343039",NA,"5","1","real_estate_agency point_of_interest establishment"
"ChIJB2yetuPq9EcRgGccn0MmLoM","Louis Angèle Architecte d'intérieur","48.894335","2.343039",NA,NA,NA,"point_of_interest establishment"
"ChIJuX7qOV9u5kcRVAhvE9l21kA","InFiné","48.8948638","2.3431116",NA,NA,NA,"point_of_interest establishment"
"ChIJxbESPV9u5kcRITRqO6cLLhs","Baguette De Tradition","48.8947651","2.3433349",NA,NA,NA,"point_of_interest establishment"
"ChIJ385_VzFv5kcRTLF_G0pP7vU","Enkore","48.8943528","2.3432181",NA,"5","21","restaurant cafe bar food point_of_interest establishment"
"ChIJe7FdPV9u5kcRQdAid-q9kFQ","Boulangerie Letort","48.8947187","2.3433915",NA,"4.3","32","bakery food point_of_interest store establishment"
"ChIJJY3JO19u5kcRMgkmGq4u-DU","S.M.S.","48.894899","2.3429324",NA,NA,NA,"point_of_interest establishment"
"ChIJAQBkPV9u5kcRuFtT5wu6Wcw","Big Moustache","48.8947467","2.3434012",NA,NA,NA,"point_of_interest establishment"
"ChIJ__9jPV9u5kcRJLn7AVrPOp4","Learning Pleine Forme","48.8947467","2.3434013",NA,NA,NA,"point_of_interest establishment"
"ChIJQdxjPV9u5kcR6NjfJxl4dDs","Boulangerie","48.8947481","2.3434078",NA,"3","4","restaurant food point_of_interest establishment"
"ChIJ0cBJOV9u5kcRTfYGzd6COWg","Collective Rpm","48.8950442","2.3430673",NA,NA,NA,"point_of_interest establishment"
"ChIJ0cBJOV9u5kcRSVAdBq63A7U","Full Rhizome","48.8950442","2.3430673",NA,NA,NA,"real_estate_agency point_of_interest establishment"
"ChIJTdw7Ol9u5kcRXVCfwjT2GTA","D'ondes","48.8949169","2.34285",NA,NA,NA,"point_of_interest establishment"
"ChIJsSrQF19u5kcRSJwt-zW--RM","Lilas Coiffure","48.8947615","2.3434564",NA,"2.8","47","hair_care point_of_interest establishment"
"ChIJu0kyIV9u5kcRAufZNQlSHRw","Fu Rong","48.8942462","2.3430208",NA,"3","2","point_of_interest establishment"
"ChIJeRzrIV9u5kcRKx3MAq8bkJc","Lav'Story","48.8942677","2.3433031",NA,"4","1","laundry point_of_interest establishment"
"ChIJdaKqIV9u5kcRS509uc5bJwY","Sunlight Tours","48.8941663","2.343196",NA,"5","4","travel_agency point_of_interest establishment"
"ChIJK75TJl9u5kcRWXr5JKdUpZ4","Sansault Dorota","48.8942005","2.3428276",NA,NA,NA,"point_of_interest establishment"
"ChIJ_bAHIV9u5kcRzl5tjlT4LhA","Ear & Eye","48.8942075","2.3432251",NA,NA,NA,"point_of_interest establishment"
"ChIJ0SaCQydv5kcRX7Oa-RyKFqM","BlackSoap","48.8948843","2.3435129",NA,NA,NA,"point_of_interest establishment"
"ChIJ6VPcFV9u5kcRBBVMI5cG3-o","Perez Vargas Raul","48.8948843","2.3435129",NA,NA,NA,"point_of_interest establishment"
"ChIJjQik_pBv5kcRkPAeLOTpqCQ","Smape","48.8947964","2.3436034",NA,NA,NA,"plumber point_of_interest establishment"
"ChIJ0cBJOV9u5kcRz45A7uWkLWA","Vents Contraires","48.8950442","2.3430673",NA,NA,NA,"point_of_interest establishment"
"ChIJ0cBJOV9u5kcRSSFmspIwDQo","Comet Records","48.8950442","2.3430673",NA,NA,NA,"electronics_store home_goods_store point_of_interest store establishment"
"ChIJ0cBJOV9u5kcR_mTcTDgbLTk","TILT Edit","48.8950442","2.3430673",NA,NA,NA,"point_of_interest establishment"
"ChIJ79LsWq5v5kcR8ldvC2zRbJs","Promenade pour les chiens","48.8950442","2.3430673",NA,NA,NA,"point_of_interest establishment"
"ChIJ0cBJOV9u5kcRy-DBFt48VHE","Le Bouquet","48.8950442","2.3430673",NA,NA,NA,"point_of_interest establishment"
"ChIJFyc7zlFu5kcROAHlWJ4fGhA","Ginger Sounds","48.8950442","2.3430673",NA,NA,NA,"point_of_interest establishment"
"ChIJGTF3GvFt5kcRG5NkKiI4U2s","Noctambule Productions","48.8950442","2.3430673",NA,"5","1","point_of_interest establishment"
"ChIJuX7qOV9u5kcRYd_RxCnhkBU","Relaxation Dynamiq","48.8950442","2.3430673",NA,NA,NA,"point_of_interest establishment"
"ChIJ-Qs-Fl9u5kcRUSGTwLrNHTE","Ben Lakhdar","48.8949021","2.343502",NA,NA,NA,"general_contractor point_of_interest establishment"
"ChIJdaKqIV9u5kcRJOmccs8MJfE","Pierre Guillaume","48.8941733","2.3432674",NA,NA,NA,"point_of_interest establishment"
"ChIJJWdLIF9u5kcRw3HHZpifqV8","Léa Morineau","48.8941733","2.3432675",NA,NA,NA,"point_of_interest establishment"
