"Id","Name","Lat","Lng","Price_level","Rating","Nb_Rating","Type"
"ChIJd9LX9uZt5kcRe9FoybPdVys","7-1 Boulevard de la Villette","48.8724059","2.3764262",NA,NA,NA,"route"
"ChIJgefS-uZt5kcRyh6xIjydwIA","Best Tofu","48.8726341","2.3759479","1","4.4","571","restaurant food point_of_interest establishment"
"ChIJt1075eZt5kcRYODjvZri5Zc","Paris Telecom","48.8726674","2.3759646",NA,NA,NA,"point_of_interest establishment"
"ChIJQQC35-Zt5kcRacQ1-VjZWMs","Association Française de Shuai Jiao A.F.S.J","48.8727343","2.3755326",NA,NA,NA,"point_of_interest establishment"
"ChIJ5Yhi_OZt5kcRDQJ1xEaYxFg","La Plume d'Or","48.873135","2.3762043",NA,"3","2","book_store point_of_interest store establishment"
"ChIJCXWm4OZt5kcR2K4ZZGm0kPU","Sylvianett","48.873017","2.3755484",NA,"3.8","9","laundry point_of_interest establishment"
"ChIJfc8A4eZt5kcRldE71pdIDdw","Pit'Immo","48.8730484","2.3755244",NA,"4.8","6","real_estate_agency point_of_interest establishment"
"ChIJCXWm4OZt5kcRjm0-ptNV3U4","Consultant SEO Paris, Elodie Gythiel","48.8730484","2.3755244",NA,"5","9","point_of_interest establishment"
"ChIJVVUZ5OZt5kcR6NTNSdwTbrQ","BERIZ AUTO SASU","48.8728368","2.3757384",NA,"1","3","car_dealer point_of_interest store establishment"
"ChIJrZLN6OZt5kcRiWxt1CAlCtc","Sigue Global Services","48.8724671","2.375669",NA,"1","1","bank finance point_of_interest establishment"
"ChIJ91T44OZt5kcRD25aSOxJfZE","Marie LIBERMAN","48.8730484","2.3755244",NA,NA,NA,"point_of_interest establishment"
"ChIJ7Xj75OZt5kcRaP92CeK_Qrc","Le Champ D'Elise","48.8727428","2.3758806",NA,"3","1","point_of_interest establishment"
"ChIJVVWx5eZt5kcRciLdZuIiAvU","Nazim Telecom","48.8727172","2.3758163",NA,NA,NA,"point_of_interest establishment"
"ChIJV1UZ5OZt5kcR6FX1ZG7FwmE","Aurélie Zajakala","48.8728368","2.3757385",NA,NA,NA,"point_of_interest establishment"
"ChIJ84P79Clt5kcRrz5kGNELVeA","HM Immo","48.8728368","2.3757384",NA,NA,NA,"real_estate_agency point_of_interest establishment"
"ChIJy--wRwtt5kcRUifB425IXzg","BCRI","48.8728368","2.3757384",NA,NA,NA,"finance point_of_interest establishment"
"ChIJ5YOAuWJt5kcR4qVmnfiticM","Territoires Visuels","48.8726545","2.3758844",NA,NA,NA,"point_of_interest establishment"
"ChIJUSg4n_Zt5kcR3eHLZ_MDsjQ","Yaya Chang Art Studio","48.8726545","2.3758844",NA,NA,NA,"point_of_interest establishment"
"ChIJkS-QZE5t5kcRa-zBhgSpCnc","Bank of Fashion","48.8728103","2.3756977",NA,NA,NA,"point_of_interest establishment"
"ChIJD7fiBh9u5kcRYJSMaMOCCwQ","Paris","48.856614","2.3522219",NA,NA,NA,"locality political"
"ChIJz4Gc5eZt5kcRK5YRu3ED7LE","Chez Petit Jerry","48.8726374","2.3758352","1","3.7","21","restaurant food point_of_interest establishment"
"ChIJyVrL5uZt5kcR7wusShmx7Z8","Zhao Li","48.8728956","2.375614",NA,"3.2","5","food point_of_interest store establishment"
"ChIJp5xa4eZt5kcRNPtysDfhwOI","Dzeljilji Bekir","48.8728956","2.375614",NA,"3","2","point_of_interest establishment"
"ChIJOYNa4eZt5kcR6Mx3i7UbwaQ","Western Union","48.8729181","2.3756133",NA,"2.5","28","finance point_of_interest establishment"
"ChIJuVr44Ltt5kcRmUWh_Ge9Z58","Le rendez-vous","48.8731012","2.3762964",NA,NA,NA,"cafe food point_of_interest establishment"
"ChIJ0TgRdN1t5kcRQaPcDq6NXZY","Les Metalliers Du Val De Marne","48.873135","2.3762043",NA,NA,NA,"point_of_interest establishment"
"ChIJgxDmj2Jt5kcRLjJtRIurhpg","Compagnie franco asiatique de voyage","48.873135","2.3762043",NA,NA,NA,"travel_agency point_of_interest establishment"
"ChIJ9_lIo8tt5kcRdS41YvW0eDw","Abdelilah KASSABI","48.873135","2.3762043",NA,NA,NA,"physiotherapist health point_of_interest establishment"
"ChIJJ_MN_eZt5kcRQEwGq3w52Ew","Lam Xu","48.873135","2.3762043",NA,"2.5","8","doctor health point_of_interest establishment"
"ChIJJ_MN_eZt5kcRr6j5ROOubJo","Nizard Lucien","48.873135","2.3762043",NA,"5","1","dentist health point_of_interest establishment"
"ChIJiSxV5uZt5kcR0ZUnqoubUaQ","Meisia","48.8727343","2.3755326",NA,NA,NA,"point_of_interest establishment"
"ChIJiSxV5uZt5kcRaF1qBJ5UvJs","International Federation of Shou Bo","48.8727343","2.3755326",NA,NA,NA,"point_of_interest establishment"
"ChIJeXMm8OZt5kcRlRAajGgweT8","Aux Bons Amis - Restaurant et traiteur","48.872462","2.3760572",NA,"4","28","restaurant food point_of_interest establishment"
"ChIJ42-AVeZt5kcRvMZiQ65jeQs","Guguin Blanc Valerie Marie Christine","48.8731305","2.3764691",NA,NA,NA,"health point_of_interest establishment"
"ChIJQ3SAVeZt5kcRGIvp_W_Q3X8","Mianet Jean-Claude","48.8731305","2.3764691",NA,"3.6","7","doctor health point_of_interest establishment"
"ChIJcZtM7-Zt5kcRcuMVytMjA34","You wei","48.8725044","2.3756644",NA,"4.7","3","food point_of_interest establishment"
"ChIJ6Vf2_eZt5kcRTUpPxu3sMXQ","Press Papeter","48.8731875","2.3763917",NA,NA,NA,"store point_of_interest establishment"
"ChIJWZ975-Zt5kcR7twa6JVUV0I","Ziran Sarl Shilian","48.8727987","2.3753874",NA,"3.4","5","hair_care point_of_interest establishment"
"ChIJc9VC4OZt5kcRfYyAUX57HWw","Maison De Jade","48.8730983","2.3754852",NA,NA,NA,"jewelry_store point_of_interest store establishment"
