"Id","Name","Lat","Lng","Rating","Nb_Rating","Type"
"ChIJy2JJQfRu5kcRmKGHKayGyKc","47 Avenue de la Porte de Clignancourt","48.9000065","2.3441353",NA,NA,"route"
"ChIJAertQ_Ru5kcRywAI9IUXAk4","Vinci Park Services","48.8999604","2.3444476","2.4","9","parking point_of_interest establishment"
"ChIJJRNKTvRu5kcRw9Ox6WyI7Ak","TOTAL","48.899962","2.3444812","3.5","282","gas_station car_repair point_of_interest establishment"
"ChIJXc0NaPRu5kcRTiJkddt83kI","Speedy","48.9001135","2.3444765","3.8","175","car_repair point_of_interest store establishment"
"ChIJLZcaafRu5kcRR0MirgrqvU0","Pourquery Sylvie","48.9005183","2.3443846",NA,NA,"point_of_interest establishment"
"ChIJg1WIT_Ru5kcRGlOu6T-zPqI","Parking SAGS","48.8999647","2.344839","1.8","12","parking point_of_interest establishment"
"ChIJfcQLbPRu5kcRuGFR6nHuUDs","Michelet - Rosiers","48.9006285","2.3441915",NA,NA,"transit_station point_of_interest establishment"
"ChIJD7fiBh9u5kcRYJSMaMOCCwQ","Paris","48.856614","2.3522219",NA,NA,"locality political"
