"Id","Name","Lat","Lng","Price_level","Rating","Nb_Rating","Type"
"ChIJTwzO91Zu5kcRwL0x-PUg1KI","189-185 Rue Championnet","48.8942556","2.3328542",NA,NA,NA,"route"
"ChIJbX83MVRu5kcRd4C4XBJuH1o","Protilab","48.894776","2.3325667",NA,"3","2","dentist health point_of_interest establishment"
"ChIJM6CfV1Zu5kcRYcSZQGa9w8E","Bettina à Paris","48.8943786","2.3329249",NA,NA,NA,"point_of_interest establishment"
"ChIJOT9MXFZu5kcRVyjwxiaW1zY","Prépa Epsilon (Diderot) - Préparation concours Médecine","48.8944994","2.3326207",NA,"4.6","9","university point_of_interest establishment"
"ChIJrTIl9lZu5kcRzVay_qhVABw","Parexel International France","48.8945117","2.3329861",NA,NA,NA,"health point_of_interest establishment"
"ChIJyTfu_1Zu5kcR2pPf728U7WY","Restaurant David 18","48.894197","2.333299","2","4.3","101","restaurant food point_of_interest establishment"
"ChIJrTIl9lZu5kcR_ARa-vaL0TA","Chauvin Arnoux","48.8942943","2.3326697",NA,"3.3","6","point_of_interest establishment"
"ChIJQ4oIRVZu5kcRr8enxXZcWW4","Résidence appartements Georgette Agutte (CASVP)","48.8950202","2.3328192",NA,NA,NA,"health point_of_interest establishment"
"ChIJ1ZNhRFZu5kcRVfPjzse3WXo","Thomas-Derevoge Etienne","48.8949735","2.3325993",NA,NA,NA,"point_of_interest establishment"
"ChIJN8j9-FZu5kcRLuMj03HU-Xg","Saint Algue - Coiffeur Paris","48.8941723","2.333303",NA,"4.1","37","beauty_salon hair_care point_of_interest establishment"
"ChIJAQBERVZu5kcRBhJ7SKcNZPs","Viva La Vida","48.8949213","2.3328214",NA,NA,NA,"point_of_interest establishment"
"ChIJQVUKW1Zu5kcRcgEd3X2Tv7Y","Au Soleil d'Agutte","48.8949391","2.3327785",NA,"5","2","point_of_interest establishment"
"ChIJme069lZu5kcRbl8mRT1Sde4","Moow","48.8941743","2.3331694",NA,"5","2","shoe_store bar point_of_interest store establishment"
"ChIJM0PIIOpv5kcRZvUxrHxu3B4","Crèche Avenue De St. Ouen- Ganneron","48.894188","2.3326158",NA,NA,NA,"point_of_interest establishment"
"ChIJGbxL_1Zu5kcRnEnFF0oniXo","Seng Long","48.8941705","2.3332008",NA,"4.8","5","store point_of_interest establishment"
"ChIJE1xk_1Zu5kcR-emWuhiHWUA","Sas Drisana","48.8941973","2.3332986",NA,NA,NA,"point_of_interest establishment"
"ChIJqYOQRFZu5kcRI4SfNaiYUzM","Salvan Jeremy","48.8949735","2.3325993",NA,NA,NA,"point_of_interest establishment"
"ChIJD7fiBh9u5kcRYJSMaMOCCwQ","Paris","48.856614","2.3522219",NA,NA,NA,"locality political"
