"Id","Name","Lat","Lng","Price_level","Rating","Nb_Rating","Type"
"ChIJN-SUY3Zu5kcRZkGaK2HUXKs","231-225 Rue la Fayette","48.8818742","2.366777",NA,NA,NA,"route"
"ChIJ330wZ3Zu5kcRk1-chOwCJ6I","Société Conseil","48.8820215","2.3668933",NA,NA,NA,"lawyer finance point_of_interest establishment"
"ChIJvanKZXZu5kcRSZhkRxAT_ac","Kapour Elisabeth","48.8818273","2.3671254",NA,NA,NA,"point_of_interest establishment"
"ChIJvanKZXZu5kcRLAcSbvggAKM","RÉNOVATION IMMOBILIÈRE PARIS","48.881727","2.366803",NA,"3","1","general_contractor painter home_goods_store point_of_interest store establishment"
"ChIJvanKZXZu5kcRDPyDxq1bViM","BNC Nettoyage General","48.8818273","2.3671254",NA,NA,NA,"point_of_interest establishment"
"ChIJa8qQkHZu5kcRh9_rlkBjJCU","FormaFibre","48.8819577","2.3665207",NA,"3.8","11","point_of_interest establishment"
"ChIJqSQMmnZu5kcRcyhtFK81wRc","Bienvenue sur AM Solutions","48.8819577","2.3665207",NA,NA,NA,"point_of_interest establishment"
"ChIJqSQMmnZu5kcR4r9WCKPyJSU","logo instreet","48.8819577","2.3665207",NA,NA,NA,"point_of_interest establishment"
"ChIJY8BUtA5u5kcRmfvT1-Fj_tw","Heimdal","48.8819577","2.3665207",NA,NA,NA,"point_of_interest establishment"
"ChIJI2U6YXZu5kcRKw--TAQIpoM","Press Inter","48.8820036","2.3665874",NA,"5","1","point_of_interest establishment"
"ChIJx5m1ZXZu5kcRQ-jbgzYy07A","Ugal","48.8818273","2.3671254",NA,NA,NA,"point_of_interest establishment"
"ChIJj6WHpjtu5kcR5nRNj8ESss8","Kangaroo Kids | Agency De Garde D'enfants","48.882069","2.3670188",NA,"4.4","7","point_of_interest establishment"
"ChIJA0o3azdu5kcRPVZz7jshxHM","Monceau Fleurs","48.881874","2.3664194",NA,"4","48","florist point_of_interest store establishment"
"ChIJ5drjaHZu5kcRxlSUhfmYmGw","COPY-TOP Louis Blanc - La Fayette / Imprimerie Paris 10ème","48.8820838","2.366974",NA,"4.3","78","point_of_interest store establishment"
"ChIJIVkGZnZu5kcRf3Lcqn7xZ2M","Église Saint-Joseph Artisan","48.8818074","2.3669513",NA,"4.5","44","church place_of_worship point_of_interest establishment"
"ChIJqwBWPHRu5kcRltqMu1Nep14","Franprix","48.8821791","2.3667924",NA,"3","52","supermarket grocery_or_supermarket restaurant food point_of_interest store establishment"
"ChIJ-9MWiHZu5kcRlQ7AypiZQsQ","Wako","48.881656","2.366496","2","3.9","131","restaurant food point_of_interest establishment"
"ChIJ8Xgpd7tv5kcRSHd7qDLqHmo","La Citronnade","48.882191","2.3662805",NA,"5","1","point_of_interest establishment"
"ChIJ1Rj8YHZu5kcRITUU6-DONyI","Relax Permis","48.8819577","2.3665207",NA,NA,NA,"car_rental point_of_interest establishment"
"ChIJD7fiBh9u5kcRYJSMaMOCCwQ","Paris","48.856614","2.3522219",NA,NA,NA,"locality political"
"ChIJtQyjYHZu5kcR9Ktr7IhUkYw","L'Oasis 244","48.8821451","2.3666199",NA,"4.3","109","bar cafe food point_of_interest establishment"
"ChIJRc5-ZHZu5kcRWrYCqac7cyM","SUSHI NARA","48.8817782","2.3667681",NA,"4.2","87","restaurant bar food point_of_interest establishment"
"ChIJRc5-ZHZu5kcRcFP4I-Hl0RE","Same Coiffure","48.8817687","2.3666254",NA,"3.9","14","beauty_salon hair_care point_of_interest establishment"
"ChIJke_DYnZu5kcRAX8gUt-vl58","Louis Blanc","48.8817514","2.3666181",NA,"3","1","transit_station point_of_interest establishment"
"ChIJm_P_ESRv5kcRR3tJbi-NFFs","MB Meals","48.881723","2.3666854",NA,NA,NA,"food point_of_interest establishment"
"ChIJW-RFCmRv5kcRE0P0B7nMxCU","iSkalp Mac Renew","48.881727","2.366803",NA,"4.6","14","point_of_interest establishment"
"ChIJDcAMV4Jv5kcRxVui0WbeooQ","Place des cesu","48.881727","2.366803",NA,NA,NA,"painter point_of_interest establishment"
"ChIJ89COkY9v5kcR13HPU1d6hOw","ARTISAN VITRIFICATEUR","48.881727","2.366803",NA,NA,NA,"painter home_goods_store general_contractor point_of_interest store establishment"
"ChIJW6iSCmNv5kcR3-B9XiLe0dU","El Cártel del Taco","48.8819542","2.3667008","1","4.8","93","restaurant food point_of_interest establishment"
"ChIJl3YLkHBv5kcRf_Pu7aCEhL8","HealthHub","48.8817184","2.3666766",NA,NA,NA,"food health point_of_interest store establishment"
"ChIJXXW-ZHZu5kcRQ6vJCYsYK0M","Sarah Bazar","48.8817184","2.3666766",NA,NA,NA,"point_of_interest establishment"
"ChIJGcmLmnZu5kcRc_M3JictXm4","Lafayette Domiciliations","48.8819434","2.3665927",NA,NA,NA,"point_of_interest establishment"
"ChIJV9VDZHZu5kcRuhQXd282TXY","Agency Etoile Paris La Fayette","48.8817265","2.3665741",NA,"1.7","7","real_estate_agency point_of_interest establishment"
"ChIJD95RhXZu5kcRw4vdsxiBJRg","L'éclat des mains","48.8819992","2.3668309",NA,"4.8","33","beauty_salon point_of_interest establishment"
"ChIJFxmakHZu5kcREVbOZjEEyiI","Chez LOUIS 21","48.8819577","2.3665207",NA,"5","1","point_of_interest establishment"
"ChIJFxmakHZu5kcRyPOVPdMuHTA","CenAsso","48.8819577","2.3665207",NA,NA,NA,"point_of_interest establishment"
"ChIJFxmakHZu5kcRdfo--OPFS9o","Office Training - Formation Bureautique","48.8819577","2.3665207",NA,NA,NA,"point_of_interest establishment"
"ChIJFxmakHZu5kcRbNNGAB7Ky-0","Digiformations - Formation Digitale","48.8819577","2.3665207",NA,NA,NA,"point_of_interest establishment"
"ChIJFxmakHZu5kcR-2cuTtipm1w","Formation Reparation Mobile","48.8819577","2.3665207",NA,"3.9","14","point_of_interest establishment"
"ChIJa8qQkHZu5kcRpMINvX7Jc5k","National Batiment","48.8819577","2.3665207",NA,"5","1","point_of_interest establishment"
"ChIJD95RhXZu5kcRrMyjlTM2bi0","AGV Industry","48.8820309","2.3667906",NA,NA,NA,"point_of_interest establishment"
"ChIJ330wZ3Zu5kcRxj4R4RTvu2I","Babakhanian","48.8820309","2.3667906",NA,NA,NA,"point_of_interest establishment"
"ChIJI2U6YXZu5kcRUJT7LT-nrPU","Touytouyt","48.8820424","2.3666024","1","4.7","166","restaurant food point_of_interest establishment"
"ChIJx5m1ZXZu5kcR93XJ877W3RU","FFSS 75 AMNS","48.8818273","2.3671254",NA,"5","3","point_of_interest establishment"
"ChIJx5m1ZXZu5kcRzPP6LVlY9U8","Fédération Française de Sauvetage et de Secourisme Ile de France","48.8818273","2.3671254",NA,"5","1","point_of_interest establishment"
"ChIJqSQMmnZu5kcRwMSHzgrv0LQ","Nguyen Richard","48.8818273","2.3671254",NA,NA,NA,"point_of_interest establishment"
"ChIJvanKZXZu5kcRP7XKw3MSm-U","Bonnin Roger","48.8818273","2.3671254",NA,NA,NA,"point_of_interest establishment"
"ChIJOVwGYXZu5kcR2kj4tP2wrdI","Louis Blanc","48.8819953","2.3663874",NA,NA,NA,"transit_station point_of_interest establishment"
"ChIJyVrXZ3Zu5kcRbsV6i4rawzQ","Raud Francois","48.8820838","2.366974",NA,NA,NA,"point_of_interest establishment"
"ChIJ_Qt5aXZu5kcRjMXPGvc-cAg","De La Vigne A La Table","48.8820838","2.366974",NA,"4.9","18","liquor_store food point_of_interest store establishment"
"ChIJGXufGbFv5kcRso0T1HWcwDw","Arnaud Babol","48.8820657","2.3670134",NA,"5","7","point_of_interest establishment"
"ChIJ_Qt5aXZu5kcRd3qsFAI6Sgo","Jeannie Trébutien","48.8820657","2.3670135",NA,NA,NA,"point_of_interest establishment"
"ChIJv-x7aHZu5kcRYRFwKP18Yus","Les Marmots","48.882069","2.3670188",NA,NA,NA,"point_of_interest establishment"
"ChIJyVrXZ3Zu5kcRo2hOK0iMjQ0","Centre Dentaire Lafayette Paris 10","48.8820694","2.3670235",NA,"5","13","dentist health point_of_interest establishment"
"ChIJoxEsaXZu5kcRxoX1xZ-wrE0","United Voyages Agence De Voyages","48.8818927","2.3671838",NA,"4.7","6","travel_agency point_of_interest establishment"
"ChIJLRF6Z3Zu5kcRMuBGSSt9mss","Marie Aurelien","48.8821721","2.3667988",NA,NA,NA,"point_of_interest establishment"
"ChIJ3yBQaHZu5kcRdP3749oTfF0","Vins Alcools Champagnes","48.8820823","2.3671312",NA,"5","1","liquor_store point_of_interest store establishment"
"ChIJ-9MWiHZu5kcRIJjje92DqzI","Boucherie Louis Blanc.","48.8816323","2.366229",NA,"4.9","8","food point_of_interest store establishment"
"ChIJUZpWinZu5kcRDf4XdsDrhOg","Tokioyaki","48.8820619","2.3661254",NA,"4","87","restaurant food point_of_interest establishment"
"ChIJB1CvinZu5kcRp5b1YIEFwDM","Ordo","48.882191","2.3662805",NA,NA,NA,"general_contractor point_of_interest establishment"
