"Id","Name","Lat","Lng","Price_level","Rating","Nb_Rating","Type"
"ChIJl9RqxHRy5kcRSJ_z0EmQFIw","232-238 Boulevard Voltaire","48.851916","2.3899949",NA,NA,NA,"route"
"ChIJmy9oKwty5kcRD1HGLjooZXU","Sud Education","48.8512519","2.3899652",NA,NA,NA,"point_of_interest establishment"
"ChIJ3XSisHRy5kcRocKZTrlr0Dc","Dr Cohen Solal Philippe - Dentiste Paris 11","48.851281","2.389611",NA,"4","4","dentist health point_of_interest establishment"
"ChIJIwyZz3Ry5kcRGpyTvlbokMM","Keren Or","48.8516531","2.3900901",NA,NA,NA,"point_of_interest establishment"
"ChIJi8Q7tnRy5kcRpSLmRB28oww","GERARD Laurence","48.8514704","2.3894155",NA,NA,NA,"lawyer finance point_of_interest establishment"
"ChIJ26cxyHRy5kcRN31pVbzbEAs","MegaBuzz","48.8515809","2.3897764",NA,"2","8","point_of_interest establishment"
"ChIJy3xvxghl5kcRqWyq_Y-6JL8","Leetchee Design","48.851421","2.389892",NA,NA,NA,"general_contractor point_of_interest establishment"
"ChIJIwyZz3Ry5kcRolhzWldA4JA","Schemba Philippe","48.8516531","2.3900901",NA,NA,NA,"point_of_interest establishment"
"ChIJjce8znRy5kcRCtuA_AC18J0","La CommVerte","48.8519379","2.3896307",NA,NA,NA,"point_of_interest establishment"
"ChIJnQduwHRy5kcRcfLPyTXlWk8","FRANCES AGENCEMENT","48.8515324","2.3903204",NA,NA,NA,"point_of_interest establishment"
"ChIJF9oRvHRy5kcRe5CQsZrX81c","Ell'a Services","48.8512238","2.3899864",NA,"4.5","26","point_of_interest establishment"
"ChIJ-8wOUfVt5kcRJeXMhy4jnq8","Mission Locale de Paris : site CENTRE","48.8511545","2.3897251",NA,"3","17","point_of_interest establishment"
"ChIJBU9vwXRy5kcR8C-nmWjiz0o","La Délicieuse","48.8518515","2.3897741","2","3.9","312","bakery meal_takeaway restaurant food point_of_interest store establishment"
"ChIJbewSv3Ry5kcRC-5huCMrN7c","BOURSE AGORA","48.8514121","2.3903335",NA,NA,NA,"point_of_interest establishment"
"ChIJb3uIynRy5kcRair7FdCbE0g","André Bongrand Peintre","48.8515749","2.3892172",NA,NA,NA,"point_of_interest establishment"
"ChIJJfZhEP1t5kcRcXcqq4mzNN4","Speedy","48.8515885","2.3900899",NA,"3.2","49","car_repair point_of_interest store establishment"
"ChIJ7deCuXRy5kcRyVvItm4g2T4","Bizart","48.8512715","2.3899659","1","4.3","92","bar point_of_interest establishment"
"ChIJj6m2y3Ry5kcRIHiyfrUC6_o","AD Copy numérique","48.851705","2.389186",NA,"4.2","6","point_of_interest store establishment"
"ChIJy7VlyHRy5kcRSLscKgMT3-c","Valensi Claudia","48.8515809","2.3897764",NA,"3","2","dentist health point_of_interest establishment"
"ChIJD7fiBh9u5kcRYJSMaMOCCwQ","Paris","48.856614","2.3522219",NA,NA,NA,"locality political"
"ChIJAfhbuHRy5kcRInE3ONQA2k4","Ingrid Mongis","48.8514212","2.3898921",NA,NA,NA,"point_of_interest establishment"
"ChIJAfhbuHRy5kcRzgTa4v9DxBs","Robin Edouard","48.8514212","2.3898921",NA,NA,NA,"point_of_interest establishment"
"ChIJBU9vwXRy5kcRW2pMPnaH-us","Mme Legourd Valerie","48.8517848","2.3897732",NA,"1","1","doctor health point_of_interest establishment"
"ChIJkU9vwXRy5kcRviQSnwKg3GI","Renaud-De-La-Faverie Adrien","48.8517753","2.3896292",NA,NA,NA,"point_of_interest establishment"
"ChIJkU9vwXRy5kcRpfavpdiDMjU","El Kouche Hassan","48.8517753","2.3896292",NA,NA,NA,"finance point_of_interest establishment"
"ChIJkU9vwXRy5kcRsq1IqeqP2cQ","Irazoqui Martin","48.8517753","2.3896292",NA,NA,NA,"point_of_interest establishment"
"ChIJBU9vwXRy5kcRrNXgwYKGnqs","Boucherie cacher Franck et Julien Paris","48.8518052","2.389749",NA,"4.3","101","grocery_or_supermarket restaurant food point_of_interest store establishment"
"ChIJIwyZz3Ry5kcRMuy8zgZcN30","Taieb Gil","48.8516531","2.3900901",NA,"5","3","dentist health point_of_interest establishment"
"ChIJs45wxnRy5kcR3TJyrXNoaiM","Frederique Deltombe","48.8518058","2.3899013",NA,"5","1","doctor health point_of_interest establishment"
"ChIJvRYpwHRy5kcRXhvlF2x4jYY","Graux Gueniche Irene","48.8514943","2.3901646",NA,NA,NA,"point_of_interest establishment"
"ChIJ3XSisHRy5kcRL0wH7B9kvhQ","SCI","48.8512808","2.389618",NA,"3.5","2","electronics_store point_of_interest store establishment"
"ChIJ3XSisHRy5kcRRPp7SsSr7_4","Dr Casanova Dominique","48.851281","2.389611",NA,"4.1","8","doctor health point_of_interest establishment"
"ChIJ3XSisHRy5kcRhD4DvlTUg1c","Zaboura Katsianakos Eleni","48.8512806","2.3896114",NA,"4.3","3","point_of_interest establishment"
"ChIJozTffQq_yRIRpHyvS-Iyusk","Eau de design","48.8512806","2.3896114",NA,"3.7","3","point_of_interest establishment"
"ChIJb3uIynRy5kcRGc2RBu1hPNs","Fight For Dignity","48.8515749","2.3892172",NA,NA,NA,"point_of_interest establishment"
"ChIJb3uIynRy5kcRCoZ2UZkVRmU","Mstudio PARIS","48.8515749","2.3892172",NA,"5","1","point_of_interest establishment"
"ChIJA7SOynRy5kcRJiMTfYeLL8M","Choppin","48.8515837","2.3892099",NA,NA,NA,"lawyer point_of_interest establishment"
"ChIJj6m2y3Ry5kcRGps6oBYlTzU","Kornicki Jerome","48.8516713","2.3892127",NA,NA,NA,"point_of_interest establishment"
"ChIJybCC6nRy5kcR4rQ6PyUNZwE","Benassaia Eric","48.8514278","2.3902184",NA,"4.9","12","doctor health point_of_interest establishment"
"ChIJacghEaNv5kcR2N-2ydIdqfA","JK Conseil","48.8519379","2.3896307",NA,NA,NA,"point_of_interest establishment"
"ChIJjce8znRy5kcR054WEjnGTCA","Beth Chabad voltaire","48.8519068","2.3894774",NA,"4","3","synagogue place_of_worship point_of_interest establishment"
"ChIJBXQwnIVz5kcR1pWR6h7mUBc","Table Métis","48.8519038","2.3894013",NA,"4.6","160","bar restaurant food point_of_interest establishment"
"ChIJAfLgynRy5kcRoa4Ul9iMnL8","F.v Art","48.8516799","2.3891544",NA,NA,NA,"point_of_interest establishment"
"ChIJAfLgynRy5kcRBz-AszpSgWY","Vincent Fraikin","48.8516799","2.3891544",NA,NA,NA,"point_of_interest establishment"
"ChIJbewSv3Ry5kcRrqJGCXhUtgc","Dr Karen Taieb","48.8514611","2.3903297",NA,"4","2","health point_of_interest establishment"
"ChIJC53Mz3Ry5kcRBXeYWp5SDyI","Neeru Coiffure","48.8519763","2.3893721",NA,"4.3","28","hair_care point_of_interest establishment"
