"Id","Name","Lat","Lng","Rating","Nb_Rating","Type"
"ChIJD7fiBh9u5kcRYJSMaMOCCwQ","Paris","48.856614","2.3522219",NA,NA,"locality political"
"ChIJF_9xT2lu5kcRrjESyBR_Olw","Hopital lariboisiere","48.8824675","2.3528824","2.9","637","hospital health point_of_interest establishment"
"ChIJaf3ssetv5kcRKpAbSnBT4Bo","ORL Anesthésiste","48.8831114","2.3526269",NA,NA,"hospital health point_of_interest establishment"
"ChIJrU0Z-odv5kcR39xmg1yG63Y","Bâtiment","48.8824904","2.3528231",NA,NA,"lodging point_of_interest establishment"
"ChIJSe_Xt25u5kcRyZ24ILtPH6s","Association CFSR","48.8824904","2.3528232",NA,NA,"point_of_interest establishment"
"ChIJTbMkrQxu5kcR4BqUaMOCCwU","10th arrondissement of Paris","48.8785161","2.3540347",NA,NA,"sublocality_level_1 sublocality political"
