"Id","Name","Lat","Lng","Price_level","Rating","Nb_Rating","Type"
"ChIJScRTmF5u5kcRMUU5wvNfleU","4-10 Rue Duc","48.8919993","2.3433538",NA,NA,NA,"route"
"ChIJEU6wp15u5kcRO9_YBkAyqog","Hippolyte Romain","48.8916323","2.3426824",NA,NA,NA,"point_of_interest establishment"
"ChIJVxwupF5u5kcR6QoSkl5FcrA","Business et Télévision","48.8918677","2.3426833",NA,NA,NA,"point_of_interest establishment"
"ChIJVxwupF5u5kcRIP1pv0eDI_g","Come On Scope","48.8918677","2.3426833",NA,NA,NA,"point_of_interest establishment"
"ChIJzZWDo15u5kcRSsGOifHSgx4","La Grosse Caisse","48.8919595","2.3428827",NA,"4","4","restaurant food point_of_interest establishment"
"ChIJE0oGo15u5kcRaUd-4qXOvlA","L'Alibi","48.8920494","2.3428902","2","4.3","232","bar point_of_interest establishment"
"ChIJnbLqHVxu5kcRZacbBkiM6z4","Tibetan Center Of Wellness","48.8914019","2.3426325",NA,"4.9","20","health point_of_interest establishment"
"ChIJk35Trl5u5kcRzslFpydm3js","Syndicat National des Techniciens de la Cinématographie et de Télévision","48.8918217","2.3423803",NA,"5","2","point_of_interest establishment"
"ChIJf6jnm15u5kcR8PIAEq1fAY0","Lippmann Peter","48.8918803","2.3435608",NA,NA,NA,"point_of_interest establishment"
"ChIJVxwupF5u5kcRJVW-zhKNe8g","Horizons Productions","48.8918677","2.3426833",NA,NA,NA,"point_of_interest establishment"
"ChIJ06pMnF5u5kcRtVK7WMAlW_o","Tapissier décorateur M.HUE","48.8916522","2.3436314",NA,"4.5","2","furniture_store home_goods_store point_of_interest store establishment"
"ChIJh9gCH1xu5kcR-2d3q9vQbxc","Arc en Ciel Théatre Forum Ile de France","48.8913792","2.3425516",NA,"5","1","point_of_interest establishment"
"ChIJx7udH1xu5kcR0u6PVx48Vy0","Digital Sapiens","48.8913553","2.3430843",NA,NA,NA,"point_of_interest establishment"
"ChIJO6b-l15u5kcR7T9ygScQfxA","Fontani Arnaud / Studio A","48.892142","2.3432669",NA,NA,NA,"point_of_interest establishment"
"ChIJO6b-l15u5kcRJ7TrtuIJEjI","Karea","48.892142","2.3432669",NA,NA,NA,"point_of_interest establishment"
"ChIJAUtkHlxu5kcR0aC_rdVtnH8","Lætitia Pressing","48.8914167","2.3428503",NA,"2.5","16","laundry point_of_interest establishment"
"ChIJ3ZCaoV5u5kcRv1m2ZFxdjCc","Richard Darline","48.8917646","2.3430857",NA,NA,NA,"point_of_interest establishment"
"ChIJGzJQoF5u5kcR-GcymqSa4Sg","Vitse Florie","48.891634","2.3430312",NA,NA,NA,"point_of_interest establishment"
"ChIJN0KhEVlu5kcRrZgiw98VCBU","Graciani Pierre","48.891634","2.3430312",NA,"2.8","53","doctor health point_of_interest establishment"
"ChIJD7fiBh9u5kcRYJSMaMOCCwQ","Paris","48.856614","2.3522219",NA,NA,NA,"locality political"
"ChIJqfsXKZRv5kcRZTWvBPYX9ms","Hospital St Louis","48.8918901","2.3427944",NA,NA,NA,"hospital health point_of_interest establishment"
"ChIJ45ClPk1v5kcRTCIwI60vn74","Magnétiseur Care Energy Paris Coaching Intuitif_pierre-Henri Du Mottay","48.8918999","2.343147",NA,NA,NA,"health point_of_interest establishment"
"ChIJV_lEoYpv5kcRBIVwaVC5djM","Magnétiseur, Naturopathe holistique, Harmonisation chakras, Coach bien-être, Pierre-Henri du Mottay","48.8918999","2.343147",NA,NA,NA,"health point_of_interest establishment"
"ChIJQamdoF5u5kcRXzjMfJjuMUM","Kobeba Cinema","48.8915177","2.3429246",NA,NA,NA,"point_of_interest establishment"
"ChIJObYqHlxu5kcRUdrWjdrUpOQ","Traverse Jean-Jacque","48.8915177","2.3429246",NA,NA,NA,"point_of_interest establishment"
"ChIJo45gpl5u5kcRH3nr6VJXVGc","Hk","48.8917549","2.3426359",NA,NA,NA,"point_of_interest establishment"
"ChIJVVVxol5u5kcRX-DYm8P5bEo","Les Petites Merveilles Duc","48.8919177","2.3431675",NA,"5","1","point_of_interest establishment"
"ChIJVxwupF5u5kcRRK18mt_ekaU","Borderline Productions","48.8918677","2.3426833",NA,NA,NA,"point_of_interest establishment"
"ChIJVxwupF5u5kcRGOv97fytMpU","Dominique Cohen Hadria","48.8918677","2.3426833",NA,NA,NA,"point_of_interest establishment"
"ChIJVxwupF5u5kcRVXhTNURNGuM","Aurora Films","48.8918677","2.3426833",NA,NA,NA,"point_of_interest establishment"
"ChIJiQBDp15u5kcRBmgjJcLrBjg","Retouches Montmartre","48.891544","2.342705",NA,"5","1","point_of_interest establishment"
"ChIJE6PUn15u5kcRseqP2HtSm-0","Hiving Room","48.8915188","2.3433279",NA,"5","2","store point_of_interest establishment"
"ChIJEUqj_glv5kcRbuH1ZAyxtVE","Doular Rigaudpuais","48.8914943","2.3425905",NA,NA,NA,"point_of_interest establishment"
"ChIJHTBTBIht5kcRDHj02bH-E_w","Yathreb Voyages - MC Travel","48.8913553","2.3430843",NA,"3.7","25","travel_agency point_of_interest establishment"
"ChIJbYjOpF5u5kcRa7aw9ogQ7NI","Dr Sylvie MANOUX","48.8920312","2.3426246",NA,"3","4","dentist health point_of_interest establishment"
"ChIJk35Trl5u5kcRcZzj3TUrv4A","Groussolles Marie-Hélène","48.8919328","2.3424215",NA,NA,NA,"health point_of_interest establishment"
"ChIJHfb2l15u5kcRJziB3yYgvmQ","Agence Fair","48.892142","2.3432669",NA,NA,NA,"point_of_interest establishment"
"ChIJk35Trl5u5kcRSnr83ALmnzo","Hamma Omar","48.8918217","2.3423803",NA,NA,NA,"accounting finance point_of_interest establishment"
"ChIJfegmpV5u5kcRkzbEmpQfkko","Julem","48.8920908","2.3426624",NA,NA,NA,"point_of_interest establishment"
"ChIJi10UBE5v5kcR7V1nlBKgp0w","Studio - Trétaigne - Youssef& Anita","48.8916757","2.3423183",NA,NA,NA,"lodging point_of_interest establishment"
"ChIJdTsT0KRv5kcRPvpBWnOwoYQ","Les délices de Marais","48.8916757","2.3423183",NA,NA,NA,"restaurant food point_of_interest establishment"
"ChIJuT1WqF5u5kcRECkKjS-Z5WQ","Home Batiment Vachette L’expert","48.8916757","2.3423183",NA,"4.7","67","locksmith point_of_interest store establishment"
"ChIJuT1WqF5u5kcR7nk9BMltsN8","Lelait Fabienne","48.8916757","2.3423183",NA,NA,NA,"point_of_interest establishment"
"ChIJo11CqV5u5kcRI3a3HbFZx1A","Dubost Béatrice","48.8916757","2.3423183",NA,NA,NA,"health point_of_interest establishment"
"ChIJo11CqV5u5kcRTnt-SdrebYU","Pulliat Carole","48.8916757","2.3423183",NA,NA,NA,"health point_of_interest establishment"
"ChIJo11CqV5u5kcRgcZwpea6Aso","Kerjean Sandrine","48.8916757","2.3423183",NA,NA,NA,"health point_of_interest establishment"
"ChIJ06pMnF5u5kcRPB0-PzUbYkI","Lucky Beauty Centre (Sarl)","48.8916522","2.3436314",NA,"4.1","51","beauty_salon point_of_interest establishment"
"ChIJyaXVkF1u5kcR_SeoCRSxoik","Nicolas Guyon","48.8912876","2.3431139",NA,NA,NA,"point_of_interest establishment"
"ChIJD0LZIVxu5kcRGyrUt8l2ElM","Venise sur Seine","48.891293","2.343156",NA,"4.7","3","point_of_interest store establishment"
"ChIJsxd4-XJv5kcRqSKgbiZY7fM","Marinette","48.8913462","2.3425924",NA,"4.2","127","restaurant food point_of_interest establishment"
"ChIJHfb2l15u5kcRpFGE7NQFK8U","Violaine Belle-Croix","48.892142","2.3432669",NA,NA,NA,"point_of_interest establishment"
"ChIJHfb2l15u5kcR4EXJkLJhhiE","Chez Nancy","48.892142","2.3432669",NA,NA,NA,"lodging point_of_interest establishment"
"ChIJHfb2l15u5kcRk-RVl7Z3gsk","Abi Warde Marie Therese","48.892142","2.3432669",NA,NA,NA,"point_of_interest establishment"
"ChIJA_b2l15u5kcRNN57vtcYTMQ","Sylvie de France Designers Agency","48.892142","2.343267",NA,NA,NA,"point_of_interest establishment"
