"Id","Name","Lat","Lng","Rating","Nb_Rating","Type"
"ChIJQe0eRfdu5kcRdQ8iNxLoMGM","Boulevard Périphérique","48.9009134","2.3375597",NA,NA,"route"
"ChIJ_Tpw3flu5kcRfnJWxq8vXps","Qualys-Hotel Paris Montmartre","48.9004865","2.3362236","4.2","325","lodging point_of_interest establishment"
"ChIJcdTr_Fxv5kcRScj0rdMK0TI","HOTEL HAS PARIS PORTE DE MONTMARTRE","48.9004125","2.336288",NA,NA,"lodging point_of_interest establishment"
"ChIJm9KP7Dxv5kcRuBYPUnpY0lI","The Originals, Human Hotels & Resorts","48.9004548","2.3360871","4.4","12","lodging point_of_interest establishment"
"ChIJ9QAMIH9v5kcRLDeDAJNHah4","Hotel Maison Paris","48.9002832","2.336361",NA,NA,"lodging point_of_interest establishment"
"ChIJD7fiBh9u5kcRYJSMaMOCCwQ","Paris","48.856614","2.3522219",NA,NA,"locality political"
