"Id","Name","Lat","Lng","Price_level","Rating","Nb_Rating","Type"
"ChIJf32kRTdu5kcRrmrs2r2LxXc","13-5 Rue de la Chaussée d'Antin","48.8723213","2.3335966",NA,NA,NA,"route"
"ChIJiVMcgTRu5kcRbXfOviG7AqI","W Paris Opéra","48.8722237","2.3333825",NA,"4.2","494","lodging point_of_interest establishment"
"ChIJAQAAAEdu5kcRU86vM-Rd0EQ","Apple Opéra","48.872315","2.33332","3","3.6","4056","electronics_store point_of_interest store establishment"
"ChIJoy-y2Thu5kcRq00-AAT87PQ","Itiviti","48.8726387","2.33409",NA,"5","13","point_of_interest establishment"
"ChIJyey9TTdu5kcRMp9YkdtKD6U","Coquette - Hôtel W Paris-Opéra","48.8719025","2.3336426","3","3.2","60","restaurant food point_of_interest establishment"
"ChIJzzqNZzdu5kcR0W-EPJGHHlE","SEPHORA PARIS HAUSSMANN","48.8725927","2.3336633","3","3.8","740","point_of_interest clothing_store store establishment"
"ChIJUdA0XTdu5kcRt-DlQ29ZWB4","My-Barbecue.com - IMPEXFIRE lda","48.8725927","2.3336633",NA,"4.1","11","furniture_store home_goods_store point_of_interest store establishment"
"ChIJfX91Rjdu5kcRayBykEIDn04","Zipcar Opéra","48.8722714","2.3334842",NA,NA,NA,"point_of_interest establishment"
"ChIJlwDARjdu5kcRZIMpPoSBo9E","Beautybar One","48.8724214","2.3334093",NA,"3.8","71","beauty_salon point_of_interest establishment"
"ChIJcwekQzdu5kcR2c24zhZg0KY","Amy Gattas","48.8725927","2.3336633",NA,NA,NA,"point_of_interest establishment"
"ChIJ45RrXjdu5kcRlHNfTm08DB0","Webups","48.8725927","2.3336633",NA,"5","1","point_of_interest establishment"
"ChIJO_mZWTdu5kcRWUh_i6tMMWQ","Assur@via","48.8725927","2.3336634",NA,NA,NA,"insurance_agency point_of_interest establishment"
"ChIJNwOkQzdu5kcRSK1R7w36JIM","Keryann Transactions","48.8725947","2.3336644",NA,NA,NA,"point_of_interest establishment"
"ChIJNwOkQzdu5kcRb_paSeaOLtA","Choriandre","48.8725947","2.3336644",NA,NA,NA,"point_of_interest establishment"
"ChIJH2-lQzdu5kcRkI-80A-JBiw","Galhis Avocats","48.872604","2.3336626",NA,NA,NA,"lawyer point_of_interest establishment"
"ChIJO_mZWTdu5kcRfEDj4MH8_Hw","Goova","48.8726124","2.3336449",NA,"3.1","10","point_of_interest establishment"
"ChIJR_mZWTdu5kcRro_RYhjo5xc","Co-pilotes Management","48.8726124","2.3336449",NA,NA,NA,"point_of_interest establishment"
"ChIJCzzMTzdu5kcRpHCa2pdPVP0","Ben Ezra Jean Claude","48.8720947","2.3338576",NA,NA,NA,"point_of_interest establishment"
"ChIJq46UZzdu5kcRmD6-L57v34U","PEGASE ENERGY","48.8726347","2.3338898",NA,NA,NA,"point_of_interest establishment"
"ChIJD7fiBh9u5kcRYJSMaMOCCwQ","Paris","48.856614","2.3522219",NA,NA,NA,"locality political"
"ChIJ0_fhZzdu5kcR7GIcwSr9j8Y","Platinum Finances & Associes","48.872555","2.334049",NA,"5","2","finance insurance_agency point_of_interest establishment"
"ChIJzzqNZzdu5kcR_afdTSRHTNQ","Audessa","48.8726347","2.3338898",NA,NA,NA,"point_of_interest establishment"
"ChIJraNbQjdu5kcR0AO5BApTGQQ","RQA Group","48.8725644","2.3339975",NA,NA,NA,"health point_of_interest establishment"
"ChIJraNbQjdu5kcRh-tjm5BwVgw","E. Remy Martin & Co","48.8726347","2.3338898",NA,"4.5","2","point_of_interest establishment"
"ChIJraNbQjdu5kcRIQyHy5GjAiQ","Afk-cs","48.8726347","2.3338898",NA,NA,NA,"point_of_interest establishment"
"ChIJzzqNZzdu5kcRvqh7-QU-_p8","senioréflex","48.8726347","2.3338898",NA,NA,NA,"point_of_interest establishment"
"ChIJpYTWXDdu5kcRu_Px7jnrRZU","Savills Siège Social France","48.8726347","2.3338898",NA,"4.5","4","real_estate_agency point_of_interest establishment"
"ChIJieLd5X5y5kcR-jNykujQ9K0","Lynda Petit","48.872635","2.33389",NA,NA,NA,"point_of_interest establishment"
"ChIJe9HOTzdu5kcRyoC_HYhPW9s","Laurent Kapelski - Paris -","48.8720947","2.3338576",NA,"5","48","point_of_interest clothing_store store establishment"
"ChIJvQvUTzdu5kcRmmi9fl9XO48","Le Quotidien Juridique","48.8720171","2.3338352",NA,"5","2","point_of_interest establishment"
"ChIJraNbQjdu5kcRy_OAul5-K30","We Are the Words","48.8727048","2.3336654",NA,NA,NA,"point_of_interest establishment"
"ChIJk0HVUTdu5kcRo8ZyNZAMHq4","Kameleoon","48.8720171","2.3338352",NA,"5","13","point_of_interest establishment"
"ChIJ-akrUTdu5kcRtGVjs-yTk3s","OCO Global","48.8720171","2.3338352",NA,NA,NA,"point_of_interest establishment"
"ChIJL-jlZzdu5kcRA6JaGk31yDk","Eye On Model Paris","48.8726267","2.3340692",NA,NA,NA,"point_of_interest establishment"
"ChIJzzqNZzdu5kcR7WYuQptM790","OpLean Consultants","48.8726267","2.3340692",NA,NA,NA,"point_of_interest establishment"
"ChIJ4xLPpzXA5kcR7HA3Wk0wjWM","Janus Consulting","48.8726267","2.3340692",NA,"4","1","point_of_interest establishment"
"ChIJB6nntTdu5kcRvThDAePqLAU","Fédération Nationale des Compagnies de Théâtre Amateur et d'Animation","48.8719822","2.3337981",NA,"4","1","point_of_interest establishment"
"ChIJy4CFZzdu5kcRLPwCYyRj624","Africa-it","48.8726267","2.3340692",NA,NA,NA,"point_of_interest establishment"
"ChIJraNbQjdu5kcR1udanSAzh2I","Alfa","48.8726267","2.3340692",NA,NA,NA,"point_of_interest establishment"
"ChIJKQrDcFdl5kcRmszB-p63AJw","L-Expert-Consultant.com","48.8726267","2.3340692",NA,NA,NA,"health point_of_interest establishment"
"ChIJXcJTXDdu5kcRp_L3lkpFSrY","Hostess World Paris","48.8726267","2.3340692",NA,NA,NA,"point_of_interest establishment"
"ChIJXcJTXDdu5kcR7z11GELR49o","Conseil Supérieur de la Magistrature","48.8726267","2.3340692",NA,"1.6","7","point_of_interest establishment"
"ChIJD4vf6Thw5kcRPHLk-G3wf-o","SmartSteps","48.872627","2.334069",NA,"5","8","point_of_interest establishment"
"ChIJXcJTXDdu5kcReA4Yb_uC7Lg","Galeries Lafayette - Shopping Welcome Center","48.8725984","2.3341251",NA,"4.4","834","clothing_store point_of_interest store establishment"
"ChIJ23qb5Olv5kcRIenOyt0SMCw","Security univers prestige","48.8726387","2.33409",NA,NA,NA,"point_of_interest establishment"
"ChIJ-42tUTdu5kcRydxZ9GZ0Yvg","Julbo","48.8720025","2.3339487",NA,"5","1","health point_of_interest store establishment"
"ChIJ-42tUTdu5kcRAEfEtYu7fYo","lequilibreadugout","48.8720025","2.3339487",NA,NA,NA,"point_of_interest establishment"
"ChIJvQvUTzdu5kcR5sexGTcaqnw","Printing.Com","48.8719789","2.3339064",NA,NA,NA,"point_of_interest establishment"
"ChIJpYTWXDdu5kcRu1MH7iXywuU","ARMEL","48.8725873","2.3341726",NA,NA,NA,"general_contractor point_of_interest establishment"
"ChIJ5XJdAFVl5kcR0y-sn4F88oc","BRAINCITIES","48.8725873","2.3341726",NA,NA,NA,"point_of_interest establishment"
"ChIJyfrXwORx5kcRVEl6iz3bz-M","PARIS LUXURY COFFEE - ROASTER","48.8725873","2.3341726",NA,"5","1","food point_of_interest store establishment"
"ChIJ_cFaUDZu5kcR3xK3mUMVzNo","Experience Hotel","48.8725873","2.3341726",NA,"5","4","point_of_interest establishment"
"ChIJ-42tUTdu5kcRPoh53yXisno","Compagnie la Grue Blanche","48.8719769","2.333944",NA,NA,NA,"point_of_interest establishment"
"ChIJTYLNUTdu5kcRN6JXSqzGoAg","Adelie Institute Consulting","48.8719769","2.333944",NA,"4.8","4","point_of_interest establishment"
"ChIJe02lUTdu5kcRWRfos9v32DU","Cercle Europeen des Professionnels du Stylo","48.8719743","2.3339443",NA,NA,NA,"point_of_interest establishment"
"ChIJQ55-Tzdu5kcRgQeuzun89K0","Epsim","48.8721661","2.3336306",NA,NA,NA,"real_estate_agency point_of_interest establishment"
"ChIJb9EfQzdu5kcRt9xBZ8Etjwg","CLC​s","48.8725927","2.3336633",NA,NA,NA,"point_of_interest establishment"
"ChIJb9EfQzdu5kcRMTGWFTr6vKo","PL Microprocess Consulting","48.8725927","2.3336633",NA,NA,NA,"point_of_interest establishment"
"ChIJzUHVUTdu5kcRLegkb59_FQ4","Philippe Aïm","48.8719705","2.3339493",NA,"4.5","2","doctor health point_of_interest establishment"
"ChIJb9EfQzdu5kcRCluLdzYRfys","Pastea","48.8726476","2.3337701",NA,NA,NA,"grocery_or_supermarket food point_of_interest store establishment"
