"Id","Name","Lat","Lng","Rating","Nb_Rating","Type"
"ChIJhThtKrFt5kcRnv6PZueIYQE","Rue de la Marseillaise","48.8879052","2.3980043",NA,NA,"route"
"ChIJn5dqKrFt5kcRu-4eXTtG_oY","Association l'Homme Transparent","48.887934","2.398075",NA,NA,"point_of_interest establishment"
"ChIJ50dKKrFt5kcRReNYwANDqUI","clic images","48.8880039","2.3980087","5","1","point_of_interest establishment"
"ChIJrQ9OK7dt5kcREt3iyZXlPz4","Square de la Marseillaise","48.887595","2.397694","3.9","64","park point_of_interest establishment"
"ChIJoX3oMrdt5kcRyuC6BXQ9hLw","Square de La Marseillaise","48.8872565","2.3977402",NA,NA,"park premise point_of_interest establishment"
"ChIJD7fiBh9u5kcRYJSMaMOCCwQ","Paris","48.856614","2.3522219",NA,NA,"locality political"
