"Id","Name","Lat","Lng","Price_level","Rating","Nb_Rating","Type"
"ChIJ8_2Q-Wxu5kcRa_VOtKOGdNc","Boulevard de Magenta","48.8784247","2.3542245",NA,NA,NA,"route"
"ChIJzS8dqm1u5kcRQJrzjx5idjM","The Seven Wonders","48.8786987","2.3550338",NA,"4.5","90","point_of_interest clothing_store store establishment"
"ChIJAeDj_mxu5kcRSeIXB1bwjys","Opticien Alain Afflelou","48.8785411","2.3544926",NA,"2.4","21","health point_of_interest store establishment"
"ChIJlVGsrcNt5kcRwwIKBcV-9BM","Garrigues Frederic","48.8784241","2.3545776",NA,NA,NA,"point_of_interest establishment"
"ChIJH09BpnRu5kcRtfQviHgE2ww","MAO / MOBILE ARCHITECTURAL OFFICE","48.8783951","2.3545107",NA,"5","1","point_of_interest establishment"
"ChIJe3Ph_2xu5kcR88gjw8P_Qyk","DTC","48.8785873","2.3547154",NA,NA,NA,"point_of_interest establishment"
"ChIJsX7g_2xu5kcRCQGNDVhgbkM","FIRST AND BEST EXCHANGE","48.878599","2.3547362",NA,"4.7","25","finance point_of_interest establishment"
"ChIJe3Ph_2xu5kcR9dE3G4PUuFo","IDI","48.878599","2.3547362",NA,NA,NA,"point_of_interest establishment"
"ChIJe3Ph_2xu5kcRRREy0FWuOB4","Cabinet Selectis","48.878599","2.3547362",NA,"4.6","15","point_of_interest establishment"
"ChIJ00B5AG1u5kcRpfJU00kRO9E","Cohérences","48.8785603","2.3549237",NA,"5","1","point_of_interest establishment"
"ChIJ48IAAm1u5kcRnPdzUNyI4JY","Dentego Paris 10 - Keter","48.8783909","2.3547616",NA,"3.6","52","dentist health point_of_interest establishment"
"ChIJ4UNVVGxu5kcRGOtBMw-mqTs","Max et Cie","48.8787777","2.3546069",NA,NA,NA,"point_of_interest establishment"
"ChIJhYQOVWxu5kcRCSCzTBjL3gE","Agence d'intérim, CDD, CDI - Paris Lafayette - BTP - Partnaire","48.8787789","2.3546158",NA,NA,NA,"point_of_interest establishment"
"ChIJeVUhVGxu5kcRU_o0opxAkts","Cafe la chaufferie","48.8787963","2.3544512","2","4","819","restaurant food point_of_interest establishment"
"ChIJdzFnAm1u5kcRCLG0OSSrqIo","New Delhi Palace","48.878224","2.354795","2","4.1","194","restaurant food point_of_interest establishment"
"ChIJg1WI_Gxu5kcRDbVq0pykI54","R2T Bâtiment","48.8780818","2.3547006",NA,"2.4","5","general_contractor point_of_interest establishment"
"ChIJlaIwAW1u5kcR5roF85bfjSU","E.m.b.","48.8784586","2.3550443",NA,NA,NA,"point_of_interest establishment"
"ChIJHfWYVWxu5kcRlc8uOtoy4sQ","Century 21 Magenta/La Fayette","48.8787315","2.3543949",NA,"3.8","27","real_estate_agency point_of_interest establishment"
"ChIJOWuUAm1u5kcRXf6cNaozidk","R2T Second Œuvre","48.8781406","2.3547795",NA,NA,NA,"point_of_interest establishment"
"ChIJD7fiBh9u5kcRYJSMaMOCCwQ","Paris","48.856614","2.3522219",NA,NA,NA,"locality political"
"ChIJxYXf-mxu5kcRmE6hIgmfo4o","Leader Price","48.8782455","2.3540008",NA,"3.4","549","supermarket grocery_or_supermarket food point_of_interest store establishment"
"ChIJYQJ1VGxu5kcRYrpekYRLzHg","ALAIN BREUILLIN CONSEIL","48.8789366","2.3545322",NA,NA,NA,"point_of_interest establishment"
"ChIJM6X8AW1u5kcR3C-ZWxXG9XE","Centre Orthodontie Gare du Nord","48.8783981","2.3547485",NA,NA,NA,"dentist health point_of_interest establishment"
"ChIJlaIwAW1u5kcRQF4tzuBQVww","SalesRound","48.8784586","2.3550443",NA,NA,NA,"point_of_interest establishment"
"ChIJ80Jaq21u5kcREQIU_KXNlwo","CENTRE CONDUITE GARE DU NORD","48.8788584","2.3549124",NA,NA,NA,"point_of_interest establishment"
"ChIJYQJ1VGxu5kcR_q5ZY83DgY4","La Cave A Cigar","48.878951","2.354556",NA,"3.7","31","point_of_interest store establishment"
"ChIJBd4dAG1u5kcRLgLD6RRu7kA","D.C.A.I Dispatching Controle Assistance Internationale","48.878599","2.3547362",NA,NA,NA,"point_of_interest establishment"
"ChIJ00B5AG1u5kcR8m9DDz9BZV0","STATION ESSENCE WINS PARIS 10E Gare Du Nord","48.8786491","2.3548965",NA,"3.5","76","gas_station car_repair point_of_interest store establishment"
"ChIJAeDj_mxu5kcRXbj5cok88FM","Audioprothésiste Paris Alain Afflelou","48.8785094","2.3544968",NA,NA,NA,"health point_of_interest store establishment"
"ChIJAeDj_mxu5kcR8LgRKcwV3jk","New feature created at 2019-11-27 17.14.27 UTC+5:30","48.8785094","2.3544968",NA,NA,NA,"health point_of_interest store establishment"
"ChIJNRT53N9v5kcRBsfuMHpz7Y0","MATTO Studio","48.8785094","2.3544968",NA,NA,NA,"point_of_interest establishment"
"ChIJ-V2iiD1v5kcRoXbV-Aik0mQ","ACHAT OR Diamond House","48.8785094","2.3544968",NA,"3.3","7","jewelry_store point_of_interest store establishment"
"ChIJ6bXh_mxu5kcR-HpHyR3DHPA","Visualio Audio & Optic","48.8785192","2.3544878",NA,NA,NA,"point_of_interest establishment"
"ChIJ5dvd_mxu5kcRomS6xcp3XJA","Visualio Audio & Optic","48.8785038","2.3544672",NA,NA,NA,"point_of_interest establishment"
"ChIJAQBk_mxu5kcRieGqvDTYH2c","APB architecture","48.8784241","2.3545776",NA,NA,NA,"point_of_interest establishment"
"ChIJAQBk_mxu5kcRw-6hYSFbvdU","Wintouch Telecom","48.8784241","2.3545776",NA,"3.7","7","point_of_interest establishment"
"ChIJ4feBpFhv5kcR4yvoePCIheI","Maison Bayat","48.8784048","2.3544708",NA,"4.6","154","bakery food point_of_interest store establishment"
"ChIJBxmY_mxu5kcRpSCK6-q8UPU","Lg Bakery","48.8784048","2.3544708",NA,"5","1","bakery food point_of_interest store establishment"
"ChIJxdTV-Wxu5kcRfBTmN63bVvA","La Fayette - Magenta - Gare du Nord","48.8785145","2.3540465",NA,NA,NA,"transit_station point_of_interest establishment"
"ChIJsX7g_2xu5kcRfuLXrl7sxpE","Ugt","48.878599","2.3547362",NA,NA,NA,"point_of_interest establishment"
"ChIJsX7g_2xu5kcR3F3mHbXQ6N0","Ace Union","48.878599","2.3547362",NA,NA,NA,"point_of_interest establishment"
"ChIJsX7g_2xu5kcRxGC-Q3Q1aNg","MoneyGram","48.878599","2.3547362",NA,"5","1","finance point_of_interest establishment"
"ChIJsUGIVmxu5kcRyB_KxxahK4s","Rdn 10","48.8787326","2.354392",NA,"3.5","2","bar point_of_interest establishment"
"ChIJwWI1-Gxu5kcRrq-b7cwvBZE","Velvet Sound","48.8785388","2.3541252",NA,NA,NA,"electronics_store home_goods_store point_of_interest store establishment"
"ChIJXz7PqW1u5kcRKrQceXu_N7Y","La Fayette - Magenta","48.8786732","2.3548324",NA,"4.7","10","transit_station point_of_interest establishment"
"ChIJkSE9VWxu5kcReHrrCJy6nwo","La Prestation Industrielle","48.8787777","2.3546069",NA,NA,NA,"point_of_interest establishment"
"ChIJYcD3AG1u5kcR2Krv0oY-TZQ","Serenite Voyages","48.8785603","2.3549237",NA,NA,NA,"point_of_interest establishment"
"ChIJK5xJ1NVv5kcROsCAF6PecjY","Audioprothésiste Paris 10 - Sonance Audition","48.8785603","2.3549237",NA,"5","3","health point_of_interest store establishment"
"ChIJYcD3AG1u5kcRvU4iZAqtR18","Monster Rent","48.8785603","2.3549237",NA,"1","1","car_rental point_of_interest establishment"
"ChIJmRqn_Wxu5kcR-h5yneWXqvE","Restaurant Turquose Istanbul","48.8782148","2.3545963",NA,"4.2","44","restaurant food point_of_interest establishment"
"ChIJJXzTPkFv5kcRZ68mOptgkIU","green factory","48.8785161","2.3540347",NA,NA,NA,"store point_of_interest establishment"
"ChIJ_9M-_Wxu5kcR7UBp6bm62lI","La Fayette - Magenta - Gare du Nord","48.8781985","2.3544901",NA,"3","2","bus_station transit_station point_of_interest establishment"
"ChIJuVbUA21u5kcRtv7uCByRRdU","Gold Star","48.8783469","2.3549129",NA,"5","1","point_of_interest establishment"
"ChIJdXY75Z9v5kcRfPoRnj86Kk4","sandwich, kebab, chicken","48.8788162","2.3545778",NA,NA,NA,"restaurant food point_of_interest establishment"
"ChIJt3UrAm1u5kcRaqRyW6frkFY","Irisha Telecom","48.8783627","2.3549314",NA,NA,NA,"point_of_interest establishment"
"ChIJWdR0_Wxu5kcRna0q2zEFNPk","Vêtements Toutes Marques Shop 10 Fin De Série","48.8781961","2.3546253",NA,NA,NA,"point_of_interest establishment"
"ChIJP2tjVT9u5kcRQ_cIlXnlGNw","AXA Assurance PIERRE JOSSET","48.8783974","2.3549975",NA,"4.7","14","point_of_interest establishment"
"ChIJ0y93qW1u5kcR-iZh4SNkQ5o","Ab'z Interim","48.8788175","2.3547605",NA,"4","9","point_of_interest establishment"
"ChIJsS2dA21u5kcRMxBlh8eAZRM","Micmac Projet","48.8782066","2.3550201",NA,NA,NA,"point_of_interest establishment"
"ChIJ9xGRd3Zv5kcRefbbbSykO8o","Andrea","48.8781384","2.3543608",NA,NA,NA,"bar restaurant food point_of_interest establishment"
