"Id","Name","Lat","Lng","Price_level","Rating","Nb_Rating","Type"
"ChIJ62zZc9Ft5kcRhKiGLwmVkZM","177-169 Rue de Crimée","48.8898413","2.3777339",NA,NA,NA,"route"
"ChIJ88jkDNFt5kcR3F4a3-sHm68","Parking mensuel Yespark Gresset - Crimée","48.8899257","2.3773995",NA,"3.4","5","parking point_of_interest establishment"
"ChIJQ2hXbtFt5kcR5pG9IpCWA3o","Aux Délices de Maxime","48.8899829","2.3773447",NA,"3.9","117","bakery food point_of_interest store establishment"
"ChIJD6SQdNFt5kcRSQiNieyMA-A","Municipal Collective Nursery - Crimée","48.8896392","2.3778226",NA,NA,NA,"point_of_interest establishment"
"ChIJbQr6ZdFt5kcRXHXTIWVySe8","Coiffure Visagiste","48.8902032","2.377215",NA,"4.6","9","hair_care point_of_interest establishment"
"ChIJna0YcNFt5kcRXtOVm_ZW3aY","Pecheux Veronique","48.8902486","2.3776483",NA,NA,NA,"point_of_interest establishment"
"ChIJEcXHRNFt5kcRyU1qRUAW3zg","KFrance","48.8899666","2.3768874",NA,"2","1","point_of_interest establishment"
"ChIJrdsGXtFt5kcRhg9_Jud9jA4","Cie Européenne de la Chau","48.8899666","2.3768874",NA,NA,NA,"point_of_interest establishment"
"ChIJ37sUdNFt5kcRp-jsqNxBBEk","Paul Heintz","48.889775","2.3779092",NA,NA,NA,"point_of_interest establishment"
"ChIJMY33b9Ft5kcROibuxFn0M2Q","Verticalight","48.8901692","2.377474",NA,NA,NA,"point_of_interest establishment"
"ChIJCWUicNFt5kcRW20xqA4rAYU","La Mascotte","48.8901692","2.377474","1","4.4","136","restaurant bar liquor_store food point_of_interest store establishment"
"ChIJfafAadFt5kcRIVYgZTxJp50","efso","48.889967","2.376887",NA,NA,NA,"health point_of_interest establishment"
"ChIJuQGMfWxu5kcR9WJzHqxW1l4","Avlis Tips Training Placement","48.8899666","2.3768874",NA,"4.2","479","point_of_interest establishment"
"ChIJKZ7MCtFt5kcRgogWNE77h90","Toda L'Akel","48.8898181","2.3775745",NA,"4.4","84","meal_takeaway restaurant food point_of_interest establishment"
"ChIJ88legMxt5kcRgH7ZToZC4zM","Gaudefroy 011","48.8899257","2.3773995",NA,NA,NA,"point_of_interest establishment"
"ChIJRa7ZVlJt5kcRZ19kO3QauJ4","Gaudefroy 007","48.8899257","2.3773995",NA,NA,NA,"point_of_interest establishment"
"ChIJC1k8GwFt5kcRQNXAGqlE68o","Gaudefroy 012","48.8899257","2.3773995",NA,NA,NA,"point_of_interest establishment"
"ChIJlbmHIelt5kcRDB8KQytsNYg","Gaudefroy 002","48.8899257","2.3773995",NA,NA,NA,"point_of_interest establishment"
"ChIJWVL121dt5kcR7T-nS0RbMf8","Gaudefroy 005","48.8899257","2.3773995",NA,NA,NA,"point_of_interest establishment"
"ChIJD7fiBh9u5kcRYJSMaMOCCwQ","Paris","48.856614","2.3522219",NA,NA,NA,"locality political"
"ChIJyfz7Gwdt5kcRu-gJ8CLlsZU","Gaudefroy 010","48.8899257","2.3773995",NA,NA,NA,"point_of_interest establishment"
"ChIJ4XVavpZt5kcR_WUA44GUdWY","Gaudefroy 003","48.8899257","2.3773995",NA,NA,NA,"point_of_interest establishment"
"ChIJM8-klFVt5kcRhUUIXJSJbZs","Gaudefoy001","48.8899257","2.3773995",NA,NA,NA,"point_of_interest establishment"
"ChIJkwcMcdFt5kcRpP2OWzzN0Mo","Tendance","48.889951","2.3777001",NA,NA,NA,"point_of_interest establishment"
"ChIJVVVJcdFt5kcRsWlveNOvxDI","Mini Sou","48.8899111","2.3778285",NA,NA,NA,"point_of_interest establishment"
"ChIJ37sUdNFt5kcRXCxPEuJplMg","Epicerie MIAM","48.889775","2.3779092",NA,"4.7","50","food point_of_interest store establishment"
"ChIJna0YcNFt5kcRcjWcFkQ6W2E","Sarl Boucherie Crimee Ming Et Yuhon","48.8901351","2.3775355",NA,"4","4","food point_of_interest store establishment"
"ChIJScQ5BAJt5kcRmf7jixRAOOA","Houche","48.8901254","2.3773247",NA,NA,NA,"grocery_or_supermarket food point_of_interest store establishment"
"ChIJNTouOGtt5kcRe1AAJXo1M8E","Houche","48.8901331","2.3773193",NA,NA,NA,"grocery_or_supermarket food point_of_interest store establishment"
"ChIJETGt8b5t5kcRi2x83imFLaA","Marc Ets","48.8901692","2.377474",NA,NA,NA,"point_of_interest establishment"
"ChIJYc4RZhFt5kcRQM53laDz6XM","Atelier Lorent 05","48.8901202","2.3772302",NA,NA,NA,"point_of_interest establishment"
"ChIJh8L6ZdFt5kcRlsPnn_jkVx0","Krouna Soufiane","48.8901202","2.3772302",NA,NA,NA,"food point_of_interest store establishment"
"ChIJzcmMZdFt5kcR5bTSCPlMdRg","Hua Marcelline","48.8901202","2.3772302",NA,"4","10","hair_care point_of_interest establishment"
"ChIJzcmMZdFt5kcRrFVNf7ymuTo","Lebailly Annie","48.8901202","2.3772302",NA,NA,NA,"travel_agency point_of_interest establishment"
"ChIJrdsGXtFt5kcRP5wg3As4S7c","Caisse d'Epargne Paris Flandre","48.8899666","2.3768874",NA,"1.7","24","bank atm finance insurance_agency health point_of_interest establishment"
"ChIJQa_l5rJt5kcRLzS11mkPHFs","Maxime A. 05","48.8902442","2.3773661",NA,NA,NA,"point_of_interest establishment"
"ChIJna0YcNFt5kcR4qmSBRK6LQo","Biais Pauline","48.8902486","2.3776483",NA,NA,NA,"point_of_interest establishment"
"ChIJna0YcNFt5kcR-bhfqjL-xiU","Michau Thierry","48.8902486","2.3776483",NA,NA,NA,"point_of_interest establishment"
"ChIJEcXHRNFt5kcRsiFydPy4E4E","C.E Halle aux chaussures","48.8899666","2.3768874",NA,NA,NA,"point_of_interest establishment"
"ChIJfafAadFt5kcRvWUg67MrBks","Comité André-Andisco","48.8899666","2.3768874",NA,NA,NA,"point_of_interest establishment"
"ChIJM_xsQ9Ft5kcRkDzLOfpIzmg","ISM Interprétariat","48.8899667","2.3768874",NA,"4.6","27","point_of_interest establishment"
"ChIJp30MZdFt5kcRJU5U5QkfFUY","Kim-Phuc","48.8902626","2.3773613",NA,"4","110","restaurant food point_of_interest establishment"
"ChIJ4bqgZdFt5kcRkeqatuYo_R0","Club Immobilier","48.8902721","2.3773497",NA,NA,NA,"real_estate_agency point_of_interest establishment"
"ChIJxZTAnWtt5kcRYAMcEfmE0kU","gugue","48.889775","2.3779092",NA,NA,NA,"point_of_interest establishment"
