"Id","Name","Lat","Lng","Price_level","Rating","Nb_Rating","Type"
"ChIJsZF-YxFu5kcR9qFfqhxQH9U","22-30 Rue du Faubourg Saint-Denis","48.8708546","2.3532463",NA,NA,NA,"route"
"ChIJg8kIZRFu5kcRULZqe9xS-a0","Brasserie Julien","48.870562","2.353254","2","4.1","2046","restaurant food point_of_interest establishment"
"ChIJg8kIZRFu5kcRZXveIFnMU78","Derya","48.8705819","2.3532677","2","4.2","411","night_club bar restaurant food point_of_interest establishment"
"ChIJWw27YRFu5kcR8BvxKt1qF0w","Sesto Senso","48.8711274","2.3529184",NA,"4.5","62","restaurant food point_of_interest establishment"
"ChIJgRMmZBFu5kcRsHUoorJfr8E","Les Opticiens du Jura","48.8707034","2.352907",NA,"4","12","health point_of_interest store establishment"
"ChIJz7kFYRFu5kcRwNaAfVuE7Zs","Sarl Pamuk","48.8710022","2.3529251",NA,"4","2","grocery_or_supermarket food point_of_interest store establishment"
"ChIJpVRNLV5u5kcR-cAylyAlNa4","Bachalard Régis","48.8711274","2.3529184",NA,NA,NA,"health point_of_interest establishment"
"ChIJ4Uu3YBFu5kcR7stu1fB0DXU","Maison HUANG","48.8710095","2.3528093",NA,"4.4","165","grocery_or_supermarket food point_of_interest store establishment"
"ChIJxwBfYBFu5kcRUVQ_5aQcqLo","Bidoux Stephan","48.8710131","2.3528096",NA,"1","1","point_of_interest establishment"
"ChIJ4UrEYRFu5kcRkTRRhh9uzzs","Home Et Images Productions Sarl","48.8711075","2.3529436",NA,NA,NA,"point_of_interest establishment"
"ChIJIykSZBFu5kcRJP16x4T2qz4","Franprix","48.87075","2.35304",NA,"2.8","36","supermarket grocery_or_supermarket restaurant food point_of_interest store establishment"
"ChIJk7YceBFu5kcRQJUuHUikr-8","Accueil","48.8706821","2.3532556",NA,NA,NA,"point_of_interest establishment"
"ChIJ3dICZRFu5kcR9ND6Ji67KfY","Degrif Des Stocks","48.8706444","2.3533121",NA,"3.8","5","store point_of_interest establishment"
"ChIJSbgR2BNu5kcRKqujOOicoVI","Hubert Matignon","48.8712974","2.3530201",NA,NA,NA,"point_of_interest establishment"
"ChIJW4k2bxFu5kcRSoLF6xKo41o","Studio Lenoir photographe Paris","48.8705787","2.3532099",NA,"4","204","point_of_interest establishment"
"ChIJNffuZRFu5kcR3q8Ln61yV5w","Piano Teachers Connect","48.8705819","2.3532677",NA,"5","1","electronics_store home_goods_store school point_of_interest store establishment"
"ChIJ6Zy8XBFu5kcRX9IRmS3HSiE","FABRiQUE NUMÉRiQUE","48.8705689","2.3527715",NA,NA,NA,"point_of_interest establishment"
"ChIJ75y8XBFu5kcRXodb1ByO_xg","Sagnier Diane","48.8705651","2.3527674",NA,NA,NA,"point_of_interest establishment"
"ChIJOWmfaBFu5kcR41lNtDWzQwo","Le Saint Denis","48.870516","2.352929","1","4.2","49","bar cafe food point_of_interest store establishment"
"ChIJD7fiBh9u5kcRYJSMaMOCCwQ","Paris","48.856614","2.3522219",NA,NA,NA,"locality political"
"ChIJfRR52BNu5kcRRVeoOyb-MFA","Cabinet ORUM","48.8711662","2.353279",NA,NA,NA,"lawyer point_of_interest establishment"
"ChIJi_Zq0gty5kcRU-pObPcUCMs","E.f.f.e.a","48.8711647","2.3536236",NA,NA,NA,"point_of_interest establishment"
"ChIJAQBsZRFu5kcRdS1qTUMJ84o","Bollywood Productions","48.8705819","2.3532677",NA,NA,NA,"point_of_interest establishment"
"ChIJAQBsZRFu5kcRMXP1I5n_zfY","MCCI Conseil","48.8705819","2.3532677",NA,NA,NA,"point_of_interest establishment"
"ChIJAQBsZRFu5kcREInrWC0lYMk","Les podcasts de Kari","48.8705819","2.3532677",NA,NA,NA,"point_of_interest establishment"
"ChIJmd3p1xNu5kcRY0vrI3W18to","Antep Sofrasi","48.8711757","2.3535578",NA,"3.3","36","restaurant food point_of_interest establishment"
"ChIJ9XgZbxFu5kcRyELcpbfuSzs","Boucherie La Tulipe","48.8704841","2.3531719",NA,"4.5","13","food point_of_interest store establishment"
"ChIJA60CYxFu5kcRlE9Kt-GEhks","Levent Voyages","48.8711168","2.3529894",NA,"4.8","5","travel_agency point_of_interest establishment"
"ChIJldAIZRFu5kcRdmf88cn7ghw","Bollywood Productions","48.870582","2.353268",NA,"3.7","6","point_of_interest establishment"
"ChIJsVsQ2RNu5kcRfEpy5r9mKg4","Vincent Lobelle","48.8713568","2.353213",NA,NA,NA,"point_of_interest establishment"
"ChIJ4wRo2BNu5kcRzoKbUbdZMMA","Nicolas Saint Denis Fbg","48.8712568","2.353247","2","4.2","18","liquor_store food point_of_interest store establishment"
"ChIJgUbpYxFu5kcR7PBCHsC8PHo","Saint Denis Primeurs","48.8709028","2.3531144",NA,"4.4","48","food point_of_interest store establishment"
"ChIJS-_j-DNv5kcR_1zgm1f-A8o","La Beau Shiatsu","48.8709853","2.3527739",NA,"5","4","spa health point_of_interest establishment"
"ChIJKezNXxFu5kcRtbSpyMbt5G8","Abela Frederic","48.8709853","2.3527739",NA,NA,NA,"point_of_interest establishment"
"ChIJJ-zNXxFu5kcRixK10R-DzwM","Reyhani Ghadim Gity","48.8709853","2.3527739",NA,NA,NA,"point_of_interest establishment"
"ChIJi4lZzg5y5kcRGodgKUnfZsw","TurquieVision","48.8711075","2.3529436",NA,"2.4","7","travel_agency point_of_interest establishment"
"ChIJ0YB-YhFu5kcRlmD6u6E-x6w","V PLUS E","48.8711344","2.3532361",NA,NA,NA,"point_of_interest establishment"
"ChIJ0YB-YhFu5kcRLvcqYLT0c4k","Hammamet Fleurs","48.8711344","2.3532361",NA,NA,NA,"point_of_interest establishment"
"ChIJKYFCEYxv5kcRs1dPJPv5fU0","Bouillon","48.8707533","2.3527818",NA,NA,NA,"restaurant food point_of_interest establishment"
"ChIJ9aLX9hBv5kcR_5fznQ7lqhw","Epicerie Du Faubourg","48.8708185","2.3534014",NA,"4.2","15","grocery_or_supermarket food point_of_interest store establishment"
"ChIJe60O3xNu5kcR3ZM6tpEv3lA","CACAN-SAYAH ASSOCIE","48.8711662","2.353279",NA,NA,NA,"lawyer point_of_interest establishment"
"ChIJE_ogdr3V_EcR57VRoboJMvc","La Table Afro","48.8707144","2.3532778",NA,NA,NA,"grocery_or_supermarket food point_of_interest store establishment"
"ChIJiVZpfGFv5kcRRaAT_BhPNac","Le Studio A","48.8707142","2.3532778",NA,"5","3","real_estate_agency point_of_interest establishment"
"ChIJwRtcZhFu5kcRV2V0R0K_BVU","L’Education Artisanale","48.8706659","2.352927",NA,NA,NA,"point_of_interest establishment"
"ChIJLbKPXRFu5kcR98J1ajB-ICs","Argoud Stephane","48.8706659","2.3529269",NA,NA,NA,"point_of_interest establishment"
"ChIJia1nNGVu5kcRkRoJDEa7cAg","Js Nutrition Corner","48.8710576","2.3526305",NA,NA,NA,"point_of_interest establishment"
"ChIJIdV12BNu5kcRO5E43E8KmlA","Cafe Le Mayol Tabac","48.8711793","2.3532944",NA,"5","1","cafe food point_of_interest establishment"
"ChIJk83WZBFu5kcRs9v5V38dsiY","Burozen","48.870718","2.3533449",NA,NA,NA,"health point_of_interest establishment"
"ChIJHRNSxONv5kcRzaXGBbYK7i4","Monkey-Locky","48.8711583","2.3526911",NA,NA,NA,"point_of_interest establishment"
"ChIJM-aSXxFu5kcRRergHhTyz60","Schneider Florian","48.8711583","2.3526911",NA,NA,NA,"point_of_interest establishment"
"ChIJJ-rlZBFu5kcRSAjx0WNZAOo","Boucherie Rayyan","48.8706882","2.3533313",NA,"5","2","food point_of_interest store establishment"
"ChIJge7zXxFu5kcR3YIIdPywFBQ","Top-Retouches","48.8711497","2.3526635",NA,NA,NA,"point_of_interest establishment"
"ChIJ_64qZBFu5kcR9Ax_OM3oRoo","Le Projet Musical","48.8706283","2.3529201",NA,"3.7","3","point_of_interest establishment"
"ChIJ4X6HZBFu5kcRWN3vVyCRQaE","Bostan","48.8706972","2.3533571",NA,"5","2","food point_of_interest store establishment"
"ChIJUe4NZhFu5kcRsW1GoxZghko","Le Verger Saint Denis","48.8705908","2.3529862",NA,"4.1","7","food point_of_interest establishment"
"ChIJf0VvlT1v5kcRTyS9BFeUsNo","Station Vélib' Rue De Metz","48.8708373","2.3535563",NA,"3.5","2","point_of_interest establishment"
"ChIJm6p6fBFu5kcR3Ha7yRhdd2g","Petit Philippe","48.8708301","2.3536119",NA,NA,NA,"point_of_interest establishment"
"ChIJnbE52BNu5kcRe325XQJHphM","Restaurant Sancak","48.8712653","2.3533413",NA,"3.3","33","restaurant food point_of_interest establishment"
"ChIJAQBsZRFu5kcRinei2FeGNwY","HeadRoomProd","48.8705819","2.3532677",NA,"5","4","electronics_store home_goods_store point_of_interest store establishment"
"ChIJAQBsZRFu5kcRW1F1he20HRc","Dizzy Productions","48.8705819","2.3532677",NA,NA,NA,"point_of_interest establishment"
