"Id","Name","Lat","Lng","Price_level","Rating","Nb_Rating","Type"
"ChIJH8_ycQBy5kcROphIgzevlak","10-24 Boulevard Beaumarchais","48.8551621","2.3686586",NA,NA,NA,"route"
"ChIJX-TTbgBy5kcRjR3c7YdFQno","Hôtel Original Marais","48.8548022","2.3691215",NA,"4.4","225","lodging point_of_interest establishment"
"ChIJ4-rUcwBy5kcRfd2sHCC3CqE","Le Beaumarchais","48.8549127","2.3684058","2","4.1","277","bar restaurant food point_of_interest establishment"
"ChIJn08obwBy5kcRSPgqspuKC1Q","MAAF Assurances PARIS BASTILLE 11E","48.854903","2.368965",NA,"3.2","9","insurance_agency point_of_interest establishment"
"ChIJUVtgcQBy5kcRZN2--TX2_js","L'Onglerie® Paris Bastille","48.8552578","2.3689244",NA,"4.6","64","beauty_salon point_of_interest establishment"
"ChIJc4iMYQBy5kcRYYBcaDM5isk","Valérie Bernard Design","48.8546966","2.3691671",NA,NA,NA,"point_of_interest establishment"
"ChIJ74ntiB3b5UcRLvEJzfnRNFo","Isabelle Vigier Avocat - Droit de la santé","48.8546902","2.3690896",NA,NA,NA,"lawyer point_of_interest establishment"
"ChIJ83bkWAdu5kcRmvH41goM2bQ","Images Photo Paris","48.854712","2.3691467",NA,"4","126","electronics_store home_goods_store point_of_interest store establishment"
"ChIJQyl3YQBy5kcRnOXIwJi96TI","HELPI","48.8546966","2.3691671",NA,NA,NA,"point_of_interest establishment"
"ChIJBwDAZgBy5kcRUKplec8UVmU","MBG Hotels Paris","48.8546966","2.3691671",NA,NA,NA,"lodging point_of_interest establishment"
"ChIJ1dHabgBy5kcRJCh5B7ra-bA","BMW Daniel Motos","48.8548732","2.3684672",NA,"4.5","86","point_of_interest store establishment"
"ChIJb1E9cABy5kcR6zx68AbRZNo","Vaysse Gregory","48.8551526","2.3690827",NA,NA,NA,"lawyer finance point_of_interest establishment"
"ChIJ3Rm6egBy5kcRWvwAbTkEa8U","PASSION RUNNING - Bastille","48.855139","2.3690263",NA,"4.8","61","point_of_interest store establishment"
"ChIJxXM-ZgBy5kcROAe3cGdriZw","East-West Imports","48.8546989","2.3691899",NA,NA,NA,"point_of_interest establishment"
"ChIJu3nEegBy5kcRiZZnjIqYZgY","Back ièn","48.8551445","2.3690404",NA,NA,NA,"point_of_interest establishment"
"ChIJdcZOaQBy5kcRzkeLKDwPB9A","Association MIJE Voyages","48.85476","2.3684647",NA,"4.4","5","travel_agency lodging point_of_interest establishment"
"ChIJJUBHbgBy5kcRE2Vs6FGHlE8","Planet Hair Beauty","48.8550787","2.369103",NA,"4","72","hair_care point_of_interest establishment"
"ChIJzeO2ZwBy5kcRsNEa7rLCBUI","Le Génie","48.8545694","2.3691443","1","4.1","162","restaurant cafe food point_of_interest establishment"
"ChIJwYwEZwBy5kcRaxM7ers-_5I","MK2 Bastille - Beaumarchais","48.8546474","2.3693542",NA,"3.7","664","movie_theater point_of_interest establishment"
"ChIJD7fiBh9u5kcRYJSMaMOCCwQ","Paris","48.856614","2.3522219",NA,NA,NA,"locality political"
"ChIJE0lOagBy5kcR-6752jEzgeA","Pedra Alta","48.8546077","2.3684418","2","4.1","1780","restaurant food point_of_interest establishment"
"ChIJyUDucABy5kcRTS-l9eNLiRg","Les Fournils De France","48.8553083","2.3688751",NA,NA,NA,"point_of_interest establishment"
"ChIJtWKMYQBy5kcRgH_bBjXHwPo","Cordonnerie A La Ville A La Montagne","48.8547725","2.3694114",NA,"4.1","95","shoe_store point_of_interest store establishment"
"ChIJA0qhGwBy5kcRBAY9UpBGXT0","Santa Carne","48.854747","2.3694099","2","4.4","648","bar restaurant food point_of_interest establishment"
"ChIJ7yRtqwBu5kcRypLfGeWNuBY","Napoleon Agency","48.8545001","2.3692683",NA,"4.3","4","point_of_interest establishment"
"ChIJI5T7bgBy5kcRIZoA1vYUfpg","MooviZ","48.854988","2.3690124",NA,NA,NA,"movie_rental point_of_interest store establishment"
"ChIJ7YluZQBy5kcRjLfkL7ebUdk","Salon de Thé","48.854988","2.3690124",NA,"4.9","17","cafe food point_of_interest establishment"
"ChIJ7YluZQBy5kcRsA6McYP0WvE","Jeannin Abdelhak","48.854988","2.3690124",NA,NA,NA,"point_of_interest establishment"
"ChIJA30oDgtz5kcRIGVhc4hOVa4","400 degrés pizzeria","48.8551163","2.3689383",NA,"3","2","restaurant food point_of_interest establishment"
"ChIJqzcsZQBy5kcR9J2L4ULj0-0","Kitchingman-Roy Danielle","48.8550787","2.3691029",NA,NA,NA,"point_of_interest establishment"
"ChIJJUBHbgBy5kcRdpkuogpmfNM","Glb Developpement Et Diffusion","48.8550787","2.3691029",NA,NA,NA,"electronics_store point_of_interest store establishment"
"ChIJ6a-RYQBy5kcRm8n-FkCMDzI","Newdy","48.8546966","2.3691671",NA,NA,NA,"point_of_interest establishment"
"ChIJtWKMYQBy5kcRrOC6GyKrJCo","Cabinet Raymond Fa","48.8546966","2.3691671",NA,NA,NA,"lawyer finance point_of_interest establishment"
"ChIJPZi1XABy5kcRMQzmmLiK5MA","Maheu Emmanuel","48.8546966","2.3691671",NA,"4.7","3","doctor health point_of_interest establishment"
"ChIJPZi1XABy5kcRcExp0_ul4SI","Forestier Charles","48.8546966","2.3691671",NA,NA,NA,"lawyer point_of_interest establishment"
"ChIJtWKMYQBy5kcRea4WIBDtKFg","Fa-g Perenne","48.8546966","2.3691671",NA,NA,NA,"real_estate_agency point_of_interest establishment"
"ChIJtWKMYQBy5kcRcPUQjekC7FU","Sannerholt Dos Santos Santos Solvi","48.8546966","2.3691671",NA,NA,NA,"point_of_interest establishment"
"ChIJqwMRZgBy5kcR7q8lGojdhaw","Mertz Bertrand","48.8546966","2.3691671",NA,NA,NA,"lawyer finance point_of_interest establishment"
"ChIJPZi1XABy5kcR49NSRMri68o","Lemaitre Jean Claude","48.8546966","2.3691671",NA,NA,NA,"doctor health point_of_interest establishment"
"ChIJo9vUm7dz5kcRARzi0-NDq7U","SCP Franck BERARDI et Sandie MAURIN Notaires Associés","48.85476","2.3684647",NA,NA,NA,"finance point_of_interest establishment"
"ChIJvxL4bABy5kcRpp9ZkpqeTGU","Calci","48.8549161","2.3684142",NA,NA,NA,"point_of_interest establishment"
"ChIJJUBHbgBy5kcRja86p2zEulg","Jeux d'Encres Bastille","48.8551108","2.3692462",NA,NA,NA,"electronics_store home_goods_store point_of_interest store establishment"
"ChIJXe3KEgBy5kcRU5CL2PDuOlc","KTM Paris","48.8550401","2.3684054",NA,"4.7","90","car_repair point_of_interest clothing_store store establishment"
"ChIJD5ukYwBy5kcRMGZnhptDukM","Emmanuel Galéa Paris","48.854898","2.369406",NA,NA,NA,"point_of_interest establishment"
"ChIJwwy-M7Jt5kcR8FHfK4eQ3Vo","DAUDE Rodolphe","48.8548977","2.3694064",NA,NA,NA,"local_government_office point_of_interest establishment"
"ChIJWYDqBl5s5kcR5ujtqmeSIkY","GAGNON Roger","48.8548977","2.3694064",NA,NA,NA,"local_government_office point_of_interest establishment"
"ChIJUw18aABy5kcRCjnn4AgLLcs","Torrié","48.8545899","2.3685201",NA,"4","6","restaurant food point_of_interest establishment"
"ChIJz0nSbgBy5kcRx6Omzc3GyDQ","Bastille Market","48.8546069","2.3684744",NA,"4.6","26","convenience_store food point_of_interest store establishment"
"ChIJcd-jhv9t5kcRNCjc-H304zA","M Coiff","48.8551109","2.369345",NA,"4.1","29","hair_care point_of_interest establishment"
"ChIJiwIPg3lz5kcRkeKeLp66_TQ","Generali Relation Directe | COSEVAD","48.8547031","2.3694063",NA,NA,NA,"insurance_agency point_of_interest establishment"
"ChIJsfHObABy5kcRfYAmtGifLl4","Human Harmony","48.8549026","2.3682698",NA,NA,NA,"point_of_interest establishment"
"ChIJ4SilfABy5kcRO7DBANYQyB4","Art Liner","48.8551371","2.3693561",NA,"4.5","8","beauty_salon point_of_interest establishment"
"ChIJGcXrcgBy5kcRBHcHesOgTfM","AGT Bastille","48.855027","2.368251",NA,"3.7","28","real_estate_agency finance point_of_interest establishment"
"ChIJXe3KEgBy5kcR0fbQ3lfRuPU","HVR Paris - Husqvarna Motorcycles","48.8550422","2.3682842",NA,"4.8","56","car_repair point_of_interest clothing_store store establishment"
"ChIJ5WfPOTJz5kcR09WyziYQWBA","Panam carte grise","48.8552286","2.369256",NA,"5","12","car_repair point_of_interest establishment"
"ChIJ3US-zkZz5kcRLZyplG0rVNg","L'atelier 2 roues mécanique Bastille","48.8552286","2.369256",NA,"5","69","point_of_interest establishment"
"ChIJU6qQmABz5kcR12OYan9T5EA","Big Chef","48.8553102","2.3688854",NA,"4.9","66","restaurant food point_of_interest establishment"
"ChIJHdFoegBy5kcRPtOiYDOZa90","Editions Beaumarchais","48.8553001","2.3690444",NA,NA,NA,"point_of_interest establishment"
"ChIJHdFoegBy5kcR9jZqZ9ZokDQ","Mateis","48.8553001","2.3690444",NA,"5","10","hair_care point_of_interest establishment"
"ChIJQR_4cABy5kcRXlM4VKESGH8","Le Cossec Pascal","48.8553001","2.3690444",NA,NA,NA,"point_of_interest establishment"
