"Id","Name","Lat","Lng","Price_level","Rating","Nb_Rating","Type"
"ChIJlRTZCAxu5kcRvKFBmWbXP7A","42-50 Rue de Lancry","48.8717358","2.362345",NA,NA,NA,"route"
"ChIJ3zjOAAxu5kcR3Ur1tPFjDEs","Hotel Garden Saint Martin (Hôtel Quartier République, canal Saint-Martin Paris)","48.8712072","2.3623653",NA,"4","241","lodging point_of_interest establishment"
"ChIJsWET-wtu5kcRc6sEkXaRbnQ","Centre Commercial","48.8712685","2.3629886",NA,"4.2","209","clothing_store shoe_store shopping_mall point_of_interest store establishment"
"ChIJ3TQfBAxu5kcRFmYYdLOB0MM","El Guacamole","48.8713648","2.362184","1","4.3","1303","restaurant food point_of_interest establishment"
"ChIJs2SrHAxu5kcRvz3X2FDWJew","Laverie du Quartier","48.8711893","2.3620628",NA,"4.4","32","laundry point_of_interest establishment"
"ChIJu9vSc3Ny5kcR0h2ZUdzwU7M","Nozbone Skateboard Boutique - Skateshop","48.8715231","2.3630574",NA,"4.1","159","shoe_store point_of_interest clothing_store store establishment"
"ChIJL6mk_gtu5kcR_qbZtXPzA88","Mme Shawn","48.8711785","2.3629833","2","4","374","restaurant food point_of_interest establishment"
"ChIJQ519BQxu5kcRuWzHdqdESvM","Aussoleil Gérard","48.8716222","2.3620549",NA,"5","5","health point_of_interest establishment"
"ChIJtb9cGw9u5kcRfkfsarh5ZQ8","Monop'","48.871457","2.3628346",NA,"3.9","34","supermarket grocery_or_supermarket food point_of_interest store establishment"
"ChIJZQVzBQxu5kcRZ_KjvHvbou4","Association Jean Cotxet","48.8715206","2.3620589",NA,"3","2","point_of_interest establishment"
"ChIJ5VKeBwxu5kcR2AWM6ppjZRA","La Bringue","48.8714437","2.3625129",NA,"4.4","125","restaurant food point_of_interest establishment"
"ChIJj1JxBwxu5kcRpFfyqT3LaLo","CONNEXION IMMOBILIER REPUBLIQUE","48.8714155","2.3625236",NA,"3.7","9","real_estate_agency point_of_interest establishment"
"ChIJVVWoBgxu5kcRpN_laMeexww","Macon et Lesquoy","48.8713136","2.3622379",NA,"4.6","38","point_of_interest store establishment"
"ChIJqVxtCAxu5kcRSnirDsayTVE","Atelier NoMa","48.8716534","2.362453",NA,NA,NA,"point_of_interest establishment"
"ChIJXYKSAwxu5kcRr-LzNzaT8T0","Viande Chef","48.8712467","2.3621244",NA,"4.3","50","food point_of_interest store establishment"
"ChIJi7wfBAxu5kcRmYDWdD-q2-k","Studio Clemente","48.8712679","2.3620693",NA,"5","3","point_of_interest establishment"
"ChIJZQVzBQxu5kcRi30bNaX7G9c","Berard Harold","48.8715464","2.3619167",NA,NA,NA,"point_of_interest establishment"
"ChIJSX_X9wtu5kcRtQESRrI_wHY","YAMATO","48.8717718","2.3624862",NA,"4.1","73","restaurant food point_of_interest establishment"
"ChIJBTgW_Atu5kcRE1YZZIA4EzQ","Du Pain et des Idées","48.8712453","2.3628904","3","4.5","1893","bakery food point_of_interest store establishment"
"ChIJD7fiBh9u5kcRYJSMaMOCCwQ","Paris","48.856614","2.3522219",NA,NA,NA,"locality political"
"ChIJ49tt_gtu5kcRdDAQAUZj46A","La Galerie de Lunettes","48.8710789","2.362741",NA,"4.4","10","health point_of_interest store establishment"
"ChIJ43NmGwxu5kcRTUM7WEixdrM","Biocoop Lancry","48.8713269","2.3617682",NA,"4.5","62","grocery_or_supermarket food point_of_interest store establishment"
"ChIJz55uCQxu5kcR091AaX5Oak0","Pizzeria Chez Alberto","48.8718502","2.3623827",NA,"4.2","114","bar restaurant food point_of_interest establishment"
"ChIJXYKSAwxu5kcRnA3mp-wvzC4","Visualise-Architecture","48.8712467","2.3621244",NA,NA,NA,"point_of_interest establishment"
"ChIJf3y1Dgxu5kcRL6lxTwHAtAo","ores et déjà Editions","48.8718534","2.3622938",NA,NA,NA,"point_of_interest establishment"
"ChIJif0K-gtu5kcRrUuPWvbbuVc","Black Shop Paris","48.8715728","2.3630304",NA,"4.9","17","point_of_interest store establishment"
"ChIJlaf1-gtu5kcRwrhSbRd4AKs","Charlotte Guttmann","48.8715231","2.3630574",NA,NA,NA,"point_of_interest store establishment"
"ChIJ__8D9gtu5kcR9Kdsn0MGcuc","Le Mékong Cuisine Familiale.","48.8718543","2.3625639",NA,"4.5","98","restaurant food point_of_interest establishment"
"ChIJ8VfRBAxu5kcRENVrtMoyz5k","Carte Blanche Conseil","48.8713911","2.3618159",NA,"5","1","point_of_interest establishment"
"ChIJUTxI_wtu5kcR3mo6I_cz35E","Mems","48.8713846","2.362742","2","3.8","144","restaurant bar food point_of_interest establishment"
"ChIJAQAUBgxu5kcRxNEgz4qGzX0","La Citadelle de l'Amour Miséricordieux","48.8715383","2.3623116",NA,NA,NA,"point_of_interest establishment"
"ChIJHQNHBgxu5kcRZSJsY5m9iCs","Renoud Grappin Guillaume","48.8715383","2.3623116",NA,NA,NA,"point_of_interest establishment"
"ChIJHQNHBgxu5kcRQCK2p0es57A","Pugnetti Matthieu","48.8715383","2.3623116",NA,NA,NA,"point_of_interest establishment"
"ChIJJf4yQgxu5kcRmk_Ao6WWLA4","Soins Du Monde","48.8715383","2.3623116",NA,"4.4","59","beauty_salon point_of_interest establishment"
"ChIJe2OoBQxu5kcRIKVtvrdyj5I","Les Halles Lancry","48.8715199","2.3622075",NA,"4","2","grocery_or_supermarket food point_of_interest store establishment"
"ChIJt2yQtbVv5kcRWvAANwWdT_0","Charming Canal Saint Martin Apartment","48.8714176","2.3626658",NA,NA,NA,"lodging point_of_interest establishment"
"ChIJXR1K-Ftv5kcRgcRFFQShfLc","Au Poisson-chat","48.8716349","2.3625132",NA,"5","15","restaurant food point_of_interest establishment"
"ChIJBfvvCAxu5kcRk8RPAT0AQnQ","Arnaud Frederic","48.8716349","2.3625132",NA,NA,NA,"finance point_of_interest establishment"
"ChIJHeMw-gtu5kcRBlMhtpdwGo8","A.P.C.","48.8714706","2.3630112",NA,"4","18","point_of_interest clothing_store store establishment"
"ChIJZQVzBQxu5kcRnUoERsK0mXU","Tort Michel","48.8715901","2.362098",NA,NA,NA,"health point_of_interest establishment"
"ChIJI8adBQxu5kcR_reEoGyQm3I","L'Ariel","48.8715946","2.3620987",NA,"3.3","6","bar point_of_interest establishment"
"ChIJv4Zc_wtu5kcRlVuvoDS64ig","Orient Impex","48.871178","2.362567",NA,"5","1","point_of_interest establishment"
"ChIJVVWBDwxu5kcRkqBN2DN98zM","Conseil d'orientation","48.8716222","2.3620549",NA,NA,NA,"point_of_interest establishment"
"ChIJn513BQxu5kcRwFj-0kK63VM","Martine Le Coz","48.8716222","2.3620549",NA,NA,NA,"health point_of_interest establishment"
"ChIJQ1qtDwxu5kcRDIJDFcKebiY","Sur Mer","48.87171","2.362222","2","4.3","224","restaurant food point_of_interest establishment"
"ChIJBfvvCAxu5kcRy0YRsjPmfZo","Verbano Traiteur","48.8717294","2.3624416",NA,"4.5","10","grocery_or_supermarket bar restaurant food point_of_interest store establishment"
"ChIJAQCkAwxu5kcRKTO9t2PhuXY","documents-mdph","48.8711893","2.3620628",NA,NA,NA,"point_of_interest establishment"
"ChIJs2SrHAxu5kcRYVCFpSeKD2Q","Perrot-lanaud Monique","48.8711893","2.3620628",NA,NA,NA,"point_of_interest establishment"
"ChIJtzFoBAxu5kcRNRYGwczzY8s","Commerce de Thé et Cafe","48.8714136","2.3618933",NA,NA,NA,"cafe food point_of_interest establishment"
"ChIJOXE2Dwxu5kcR0PWOhlexzbA","Les Vergers De Lancry","48.871704","2.362144",NA,"5","2","grocery_or_supermarket food point_of_interest store establishment"
"ChIJEedOBQxu5kcRyFFreyXwnvI","Visual Design Management","48.8715515","2.3619263",NA,NA,NA,"point_of_interest establishment"
"ChIJVVUJAwxu5kcRQkqYzcvaAjs","Aquilex","48.8711902","2.3620189",NA,NA,NA,"point_of_interest establishment"
"ChIJVVUJAwxu5kcR4lGM5Gm3Amg","A.t.p","48.8711902","2.3620189",NA,NA,NA,"point_of_interest establishment"
"ChIJVVUJAwxu5kcRnFhiM7V5tS0","Pressing Des Colonnes","48.8711902","2.3620189",NA,NA,NA,"point_of_interest establishment"
"ChIJ1ZXLHAxu5kcRn2ZGXV2KVF8","Miao Xiang Ge","48.8711902","2.3620189",NA,NA,NA,"point_of_interest establishment"
"ChIJq0NZAwxu5kcRFN5So8xIFNg","Laverie 7/7 Libre Service","48.8711599","2.3620673",NA,NA,NA,"laundry point_of_interest establishment"
"ChIJfUcHAwxu5kcRqyF-fISXPbo","Antonini Architecte & Associés","48.8711599","2.3620645",NA,"4.5","2","point_of_interest establishment"
"ChIJZQVzBQxu5kcRCklsV_pSOKs","Maier Taylor Catherine","48.8715464","2.3619167",NA,NA,NA,"point_of_interest establishment"
"ChIJZxisAwxu5kcRm0rKpC0vs1s","Franck Sanchez Musique","48.8711487","2.3620656",NA,"5","5","point_of_interest establishment"
"ChIJHb7MCQxu5kcRjsr0Lr7oD7o","Les Minis Pousses","48.8717546","2.3625536",NA,NA,NA,"point_of_interest establishment"
