"Id","Name","Lat","Lng","Price_level","Rating","Nb_Rating","Type"
"ChIJRQyv3Ilt5kcRn57i5ijNN0g","67-45 Rue Planchat","48.8557103","2.3966087",NA,NA,NA,"route"
"ChIJuan_6Ylt5kcRU0UGQlM2B3c","College Technical Biology Applied Estba","48.8561007","2.3964078",NA,"3.3","11","school point_of_interest establishment"
"ChIJzQpl6Ylt5kcRRDXEtGfcEoQ","Center Professional Training Pharmacy","48.8560685","2.3962206",NA,"3.6","18","point_of_interest establishment"
"ChIJuan_6Ylt5kcRKwJHgkT8LlY","Leem Apprentissage Djamel","48.8561138","2.3964023",NA,NA,NA,"health point_of_interest establishment"
"ChIJ6b3lIqjuC0ERq7S-4WTM_uI","Boulangerie Pâtisserie","48.8559787","2.3965807","2","4.1","155","bakery food point_of_interest store establishment"
"ChIJn6SQ64lt5kcR2jM1XF61o1A","Telma Contract & Expense","48.8561636","2.3961073",NA,NA,NA,"point_of_interest establishment"
"ChIJ8WwXqIlt5kcRXnCvXHF-voY","Hittinger Design","48.8555865","2.3966134",NA,NA,NA,"point_of_interest establishment"
"ChIJVSpK6Ilt5kcRyIwuFWfmFP4","Magnier Bernard Jean-Marie","48.855853","2.3962019",NA,NA,NA,"point_of_interest establishment"
"ChIJhSmr3Ylt5kcRaOdvIabZMu0","Samieri Audrey","48.8556137","2.3963575",NA,NA,NA,"point_of_interest establishment"
"ChIJrY9y54lt5kcRQJ8FEAygoE4","Cocolis","48.8555974","2.3963429",NA,NA,NA,"point_of_interest establishment"
"ChIJ-V_KmQtt5kcRJe-7nxhUdOA","Nursery School","48.8559529","2.396496",NA,NA,NA,"school point_of_interest establishment"
"ChIJPwvyEzFt5kcRPjGgF9PrU9w","Elementary School","48.8560007","2.3964504",NA,NA,NA,"school point_of_interest establishment"
"ChIJcfW70Qxy5kcR6iyBi-lGdsA","Nicéfor - Coiffure à Domicile","48.8561636","2.3961073",NA,"5","7","hair_care point_of_interest establishment"
"ChIJKy093Ilt5kcRPbLgB5E-BmU","Association Champ Libre","48.855509","2.3966694",NA,NA,NA,"point_of_interest establishment"
"ChIJTY1N3Ilt5kcR8CCcAq2fwlY","Christopher Hittinger","48.855509","2.3966694",NA,NA,NA,"point_of_interest establishment"
"ChIJD7fiBh9u5kcRYJSMaMOCCwQ","Paris","48.856614","2.3522219",NA,NA,NA,"locality political"
