"Id","Name","Lat","Lng","Rating","Nb_Rating","Type"
"ChIJ-9kVp51t5kcRw09GMjiIDQU","12-22 Rue le Vau","48.8675586","2.4110446",NA,NA,"route"
"ChIJUdPFoJ1t5kcRZfiWTGYDJR4","Primary School Le Vau","48.8675399","2.411208","3.3","3","school point_of_interest establishment"
"ChIJ5aOspZ1t5kcR7Y_qgysYbio","Lina's","48.8678956","2.4110031",NA,NA,"point_of_interest establishment"
"ChIJ0YKQCJ1t5kcRbKed0ygBs3M","De Sousa Ramos Manuel","48.867354","2.4108086",NA,NA,"point_of_interest establishment"
"ChIJEVZxCJ1t5kcRaGYhxR7lLfc","My Delivery","48.86735","2.4108087",NA,NA,"point_of_interest establishment"
"ChIJo4AvazNt5kcRNoBNEZJDkQ0","Doular Bureaupuais","48.8672212","2.4110666",NA,NA,"point_of_interest establishment"
"ChIJD7fiBh9u5kcRYJSMaMOCCwQ","Paris","48.856614","2.3522219",NA,NA,"locality political"
