"Id","Name","Lat","Lng","Rating","Nb_Rating","Type"
"ChIJ1wJ12L9t5kcRqYwcf415Fwo","174-188 Rue de Belleville","48.8753722","2.3930696",NA,NA,"route"
"ChIJ0RRyYpVt5kcRrefsFAxMshw","Comu","48.8752874","2.3928406","4","1","point_of_interest establishment"
"ChIJ_U3sYJVt5kcRXvrswAEcDMI","Perrin Julie","48.8752179","2.3925072",NA,NA,"point_of_interest establishment"
"ChIJHXgIZpVt5kcRk3Vd9KkkrwA","Technic Hair","48.8748721","2.3928083","3.9","14","hair_care point_of_interest establishment"
"ChIJTx1SfZRt5kcRhpTWK878kgA","RESOBANQUE","48.8748005","2.392793","5","8","finance insurance_agency real_estate_agency health point_of_interest establishment"
"ChIJaRY1YZVt5kcRjvlhImK7Cb8","Stéphanie Barcelo","48.8750695","2.3926941",NA,NA,"point_of_interest establishment"
"ChIJ85D_WJVt5kcR-sQ6dgjMxsk","Picard Nathalie","48.8752444","2.391928",NA,NA,"physiotherapist health point_of_interest establishment"
"ChIJTfKcfZVt5kcRrV10CBKMRG0","ADA I Location voiture et utilitaire Paris 20 Belleville","48.8752542","2.3932591","3.2","30","car_rental point_of_interest establishment"
"ChIJL3phYJVt5kcRZME0ODH3JaY","Tabac Le Chiquito","48.8752363","2.3925197","3.6","14","bar point_of_interest store establishment"
"ChIJ9X5dYJVt5kcR_nlKCKNR5Yg","Le Chiquito","48.8752551","2.3925418",NA,NA,"point_of_interest establishment"
"ChIJW94rWA9t5kcRLkzss1_cXPI","Baganda Scoot","48.8752805","2.3926971","3.2","9","point_of_interest establishment"
"ChIJR4A0YJVt5kcR4_Q-RepBCNg","Artisan Patissier","48.875321","2.3926241","5","1","point_of_interest establishment"
"ChIJB2xh379t5kcRj4HP6EnCrzc","Boulanger Patissier","48.8753497","2.3926931","4.4","20","bakery food point_of_interest store establishment"
"ChIJG637YZVt5kcRcnLcrCyiyzM","Rue des Fêtes","48.875346","2.392763",NA,NA,"transit_station point_of_interest establishment"
"ChIJe601Z5Vt5kcRsOo7OKCsk-A","Marchand Michel","48.8750302","2.3927029",NA,NA,"point_of_interest establishment"
"ChIJe601Z5Vt5kcRKVOMaBLAeTA","Basset Marc","48.8750302","2.3927029",NA,NA,"point_of_interest establishment"
"ChIJ62UaYpVt5kcRYdKp87CpvSw","Clip Pizza","48.8753243","2.3928509","5","1","point_of_interest establishment"
"ChIJNXhhYpVt5kcRICg-fy5pXaE","Hallal Boucherie Ju","48.8752106","2.3929296",NA,NA,"food point_of_interest store establishment"
"ChIJK6dsYpVt5kcRjUtawiknR88","Mondial Food","48.8753162","2.3929021",NA,NA,"point_of_interest establishment"
"ChIJD7fiBh9u5kcRYJSMaMOCCwQ","Paris","48.856614","2.3522219",NA,NA,"locality political"
"ChIJZ2V-t69t5kcR5C9CPN1xPfw","Chez Cécile","48.8752704","2.3922345",NA,NA,"lodging point_of_interest establishment"
"ChIJVVUFX5Vt5kcRWeGtMFtGqn8","O-Tech","48.8752704","2.3922345",NA,NA,"point_of_interest establishment"
"ChIJgecBw85t5kcR4XHtTjg-Rrk","Moneyglobe Transfert d'Argent - Paris","48.8752704","2.3922345",NA,NA,"finance point_of_interest establishment"
"ChIJE5VF379t5kcRoXxPMM1VIC0","Velib' Station 19121 - Belleville Pré Saint Gervais","48.875431","2.3927707",NA,NA,"point_of_interest establishment"
"ChIJB-GFYpVt5kcR1CHi5vd1iBg","Caidi Youssef","48.8752839","2.3929941","3","3","food point_of_interest store establishment"
"ChIJC0Kcl4Nt5kcRg__VWsFi7ew","MOBILE MARKET","48.8752905","2.3922142","4","4","point_of_interest establishment"
"ChIJm26mX5Vt5kcRMWp37WK7MJQ","Lahiany Samy","48.8752905","2.3922142","4.2","5","doctor health point_of_interest establishment"
"ChIJB2sd4r9t5kcRz0yIXZcqVQA","BNP Paribas - Paris Belleville","48.8753756","2.3920946","2.1","11","bank atm finance point_of_interest establishment"
"ChIJ_xB5qZVt5kcRyHyz1jDP1-k","Yachou Nadia","48.8748778","2.3927417","3.7","3","physiotherapist health point_of_interest establishment"
"ChIJ-7K0YpVt5kcRAao4i3sEwVE","Nam Haï-Yin","48.8752321","2.3931329","5","3","doctor health point_of_interest establishment"
"ChIJJwv9gTNt5kcR3a9htfckzx8","Infirmiere Liberale Paris 20 - Gaelle RAVOR","48.8748721","2.3928082","5","3","health point_of_interest establishment"
"ChIJyVrQZZVt5kcR56Wbm_G8cEA","Nicolas Balas","48.8748721","2.3928082",NA,NA,"point_of_interest establishment"
"ChIJAQCQfJVt5kcRKP_Af_vM7XI","Re-Source-S","48.8750915","2.3932749",NA,NA,"point_of_interest establishment"
"ChIJHXgIZpVt5kcRe4k8n53G3JA","Bugajski Sylvain","48.8748457","2.3927924",NA,NA,"health point_of_interest establishment"
"ChIJ1dcHZpVt5kcRvzAiCrroKvU","Devaux Marie-Sophie","48.8748457","2.3927924",NA,NA,"point_of_interest establishment"
"ChIJZW47fZVt5kcRjeDyZDK8rbE","Appel Debarras Service","48.8752569","2.393219",NA,NA,"general_contractor point_of_interest establishment"
"ChIJkf4WK1dt5kcR_M1Qu4_H1kc","Point D","48.8754625","2.3920975",NA,NA,"lodging point_of_interest establishment"
"ChIJ1UDI3r9t5kcRwUJt4phhRQI","Edf Bleu Ciel","48.8756074","2.3927975",NA,NA,"point_of_interest establishment"
"ChIJizX5XdBt5kcRqAVxD_VGK5Y","G20 Belleville","48.8756074","2.3927975","3.6","75","supermarket grocery_or_supermarket food point_of_interest store establishment"
"ChIJTfKcfZVt5kcRJxw_fjqDdFY","Azur Immo","48.8750915","2.3932749","4.1","15","real_estate_agency point_of_interest establishment"
"ChIJ85D_WJVt5kcRn4gDIv3njSo","Abidi Youssef","48.8752444","2.391928",NA,NA,"point_of_interest establishment"
