"Id","Name","Lat","Lng","Rating","Nb_Rating","Type"
"ChIJrd2pcDJs5kcREVHZ5H_A7Zk","Boulevard Macdonald","48.8988956","2.3821536",NA,NA,"route"
"ChIJcywmDy9t5kcRjTycl6RFl_s","Police","48.8987857","2.382392",NA,NA,"police point_of_interest establishment"
"ChIJmThFQQNt5kcRkXqzxKDUXPY","Quai One - Restaurant & Lounge","48.898627","2.3827991","4.9","23","night_club bar restaurant food point_of_interest establishment"
"ChIJMfWgZjJs5kcRf0Pia0rr5hw","Escape & Compagnie","48.8986343","2.3828119",NA,NA,"point_of_interest establishment"
"ChIJbRJCZDJs5kcRl_b06Yvpy74","Parking mensuel Yespark Porte de la Villette - Canal Saint-Denis","48.898464","2.3829221","2.5","2","parking point_of_interest establishment"
"ChIJD7fiBh9u5kcRYJSMaMOCCwQ","Paris","48.856614","2.3522219",NA,NA,"locality political"
