"Id","Name","Lat","Lng","Price_level","Rating","Nb_Rating","Type"
"ChIJoV0trN5t5kcRrKEVD5xjYjc","124-126 Avenue Simon Bolivar","48.8805665","2.374049",NA,NA,NA,"route"
"ChIJkUUYqd5t5kcRLv9TQhy7mDU","Relais Bergson","48.8804684","2.3743175",NA,"3.3","154","lodging point_of_interest establishment"
"ChIJ_erUqN5t5kcRkYzc1E-Yn28","Flandin Magali","48.8803463","2.3744155",NA,"5","1","health point_of_interest establishment"
"ChIJlfbtqt5t5kcRcXfQv3ZmIdA","Jacq Roch","48.880494","2.3745768",NA,NA,NA,"restaurant food point_of_interest establishment"
"ChIJpaInr95t5kcRpR_Mo5y0ZNA","Dumonteil Danielle","48.8803507","2.3744088",NA,"2.8","5","dentist health point_of_interest establishment"
"ChIJ44R0qt5t5kcRot8M58WQOJ0","K International Foods","48.880494","2.3745768",NA,NA,NA,"bakery food point_of_interest store establishment"
"ChIJ6Y1WBNxt5kcR3CHiDRCvCRA","Pizza tac 8","48.8802876","2.3750432",NA,NA,NA,"restaurant bar food point_of_interest establishment"
"ChIJdVqGBdxt5kcRp7J97MX5yRw","Télénet France","48.8802783","2.3748431",NA,"4.5","2","point_of_interest establishment"
"ChIJd_OJAdxt5kcRhnHcdZQf-sY","Aroma","48.8804759","2.3747088","2","4.2","136","restaurant food point_of_interest establishment"
"ChIJweT6BNxt5kcRhNifqEfcHNY","Milles Delices","48.8802745","2.3750733",NA,"4.3","7","restaurant food point_of_interest establishment"
"ChIJpWZkBtxt5kcRUbWadzacVEY","M&L","48.880631","2.3752068",NA,"4","2","store point_of_interest establishment"
"ChIJ__-PHdxt5kcRiOS-hlnuqmk","Star Beauty","48.8799623","2.3745982",NA,"4.8","11","beauty_salon health point_of_interest establishment"
"ChIJpaInr95t5kcRJnufGg-Oscc","Passion Chocolat","48.8803463","2.3744155",NA,"4.6","58","food point_of_interest store establishment"
"ChIJn-gB-d4ow0cRRv9MKH4Qhqk","COSMOCOVER","48.879957","2.3744923",NA,NA,NA,"point_of_interest establishment"
"ChIJmUUBHdxt5kcRXfZaNO0TRQA","Cer Simon Bolivar","48.879957","2.3744923",NA,"4.4","19","point_of_interest establishment"
"ChIJ6RyrVNlt5kcRlLqh9zIND8g","Peretz Isaac","48.8808091","2.3745592",NA,NA,NA,"finance point_of_interest establishment"
"ChIJ9a_5qN5t5kcRybhJENJyWDc","Christian Despont","48.8803404","2.374388",NA,"4.7","3","health point_of_interest establishment"
"ChIJRZ_kqN5t5kcRkDdSC4PqSSs","Nicolas Llamas - Ostéopathe","48.8803463","2.3744155",NA,NA,NA,"health point_of_interest establishment"
"ChIJv4PzqN5t5kcRh0xzVp2YQFY","Chauveau Helene pedicure podolgue","48.8803463","2.3744155",NA,"5","4","health point_of_interest establishment"
"ChIJD7fiBh9u5kcRYJSMaMOCCwQ","Paris","48.856614","2.3522219",NA,NA,NA,"locality political"
"ChIJBcnTAdxt5kcRHj-mC-D3Vzw","Lenoir Julia","48.880494","2.3745768",NA,NA,NA,"point_of_interest establishment"
"ChIJI8epqd5t5kcRwyDxXTEh_QM","Marc PÉRON","48.8803463","2.3744155",NA,NA,NA,"health point_of_interest establishment"
"ChIJpaInr95t5kcRYVZlHeiziFA","Wuilmet Muriel","48.8803463","2.3744155",NA,NA,NA,"health point_of_interest establishment"
"ChIJ96xzHq9t5kcRUu1_QlG3PTw","O'Vrac d'Amelie","48.8805496","2.3744188",NA,"5","12","grocery_or_supermarket food point_of_interest store establishment"
"ChIJq0FrAdxt5kcR1HT7UWoBwcY","Sebaouni Julien","48.8806069","2.3749506",NA,NA,NA,"real_estate_agency point_of_interest establishment"
"ChIJk7L7Ddxt5kcRtX2DUJN_c5c","Mars Arnaud","48.8802276","2.3749804",NA,NA,NA,"point_of_interest establishment"
"ChIJUdoeANxt5kcR_KJX4_QVvgo","La Tradition du 19eme","48.8807207","2.3746364",NA,"3.4","13","bakery food point_of_interest store establishment"
"ChIJVT8JrN5t5kcRzoHKbuNGBl0","ECOLOGIE 2000","48.880608","2.374251",NA,"4.2","15","point_of_interest store establishment"
"ChIJAQDsANxt5kcRW02lfPH8Sbw","Burger Queen","48.880685","2.3748566",NA,NA,NA,"point_of_interest establishment"
"ChIJAQDsANxt5kcRMqYiHnxuqBw","ELMA ET NAR","48.880685","2.3748566",NA,"4.8","60","restaurant food point_of_interest establishment"
"ChIJVRMzqIdt5kcRIz09athBwrc","Tomasina - Peinture en bâtiment","48.880685","2.3748566",NA,"5","2","painter point_of_interest establishment"
"ChIJwVNW-Flt5kcR_Vrwnq3gUi4","Timothée Gauvin Architecte","48.880685","2.3748566",NA,NA,NA,"point_of_interest establishment"
"ChIJAU60woJt5kcRrAtBZJWEfD8","Saba Ghorbanalinejad","48.880685","2.3748566",NA,NA,NA,"point_of_interest establishment"
"ChIJxYSh12dt5kcRIV80PaJwg_Q","Monsieur Panda","48.8807278","2.3746843",NA,"4.5","2","restaurant food point_of_interest establishment"
"ChIJCZAmq95t5kcRXoMhraZnZk4","Nouveau Asia Gourmet","48.8807278","2.3746843",NA,NA,NA,"restaurant food point_of_interest establishment"
"ChIJdaAXj7tt5kcR19iLQKs65e8","Pã coiffeur coloriste","48.8801053","2.3744312",NA,"4.9","37","hair_care point_of_interest establishment"
"ChIJ4-RAYxJt5kcRkPDGQMfXOds","Ryam - La Crêperie Bio","48.8805411","2.3750976",NA,"5","2","restaurant food health point_of_interest establishment"
"ChIJT7ujdMxt5kcRu2mWlN_cbCY","PM Thaî","48.880541","2.3750978",NA,"4.7","27","restaurant food point_of_interest establishment"
"ChIJueOP-Oxt5kcRY0NfLVIA7x0","LA TRADITION DE BOLIVAR","48.8807569","2.374601",NA,"3.3","3","bakery food point_of_interest store establishment"
"ChIJV2AQeZ5t5kcRNwsL9qQfepc","La Taverne des Buttes Chaumont","48.8807569","2.374601",NA,"4.9","47","restaurant food point_of_interest establishment"
"ChIJT7Ziq95t5kcRlu_s_hNCyGo","Caisse D'Epargne","48.8806791","2.3742675",NA,NA,NA,"bank finance point_of_interest establishment"
"ChIJdWJArN5t5kcRdAbVwunCNTk","Caisse d'Epargne Paris Buttes-Chaumont","48.8806867","2.3742492",NA,"1.8","12","bank atm finance insurance_agency health point_of_interest establishment"
"ChIJwQycrN5t5kcRAi9RwKfE_DQ","Fondation Ophtalmologique Adolphe De Rothschild","48.8806929","2.3742434",NA,"4","3","point_of_interest establishment"
"ChIJOdK1rd5t5kcRllbJtUbfbd0","Marche Secretan","48.8805725","2.374058",NA,NA,NA,"transit_station point_of_interest establishment"
"ChIJBchQoN5t5kcR-9EJmqDQ5pM","Cung Bich Loan","48.8799623","2.3745982",NA,NA,NA,"dentist health point_of_interest establishment"
"ChIJ8WbiuIRt5kcREgrjLK9p_U8","ANR","48.8804654","2.3752641",NA,NA,NA,"plumber painter electrician locksmith general_contractor point_of_interest store establishment"
"ChIJN70HBtxt5kcRcQR0Cg7K8CY","Hagence De Voyages","48.8804654","2.3752641",NA,"3","1","travel_agency point_of_interest establishment"
"ChIJ3d3ZKPBt5kcRXNNwIwGC6u8","Haya Mouchka","48.8802978","2.3752564",NA,"5","1","point_of_interest establishment"
"ChIJgchQoN5t5kcRaMVR37lhQsQ","Junghans Pascale","48.8799623","2.3745982",NA,NA,NA,"point_of_interest establishment"
"ChIJv2Xrrd5t5kcRzuMRFwzmGNY","Marche Secretan","48.880556","2.373951",NA,"2","2","bus_station transit_station point_of_interest establishment"
"ChIJ6_ER2Apt5kcR2mXr0bHyHsM","Sandwich & shushi cachere paris","48.879957","2.3744923",NA,"5","1","restaurant food point_of_interest establishment"
"ChIJhZrNII9t5kcRJTOvbLkW1mI","La fabri k sandwich cacher","48.879957","2.3744923",NA,"5","3","restaurant food point_of_interest establishment"
