"Id","Name","Lat","Lng","Rating","Nb_Rating","Type"
"ChIJRbfbTNdt5kcRWekBYc2XzJg","Promenade Florence Arthaud","48.8868378","2.3754786",NA,NA,"route"
"ChIJJSFIU9dt5kcRApx42nhmKWQ","Passerelle du bassin de la Villette","48.8862093","2.3750399","4.4","5","point_of_interest establishment"
"ChIJ46VSORBt5kcRmk5KaWJcbss","Passerelle Simone Signoret - Montand","48.886468","2.3745895",NA,NA,"point_of_interest establishment"
"ChIJU3b7CSlt5kcRY30f3Etp9sA","Fontaine Arceau","48.8862419","2.3740265",NA,NA,"point_of_interest establishment"
"ChIJD7fiBh9u5kcRYJSMaMOCCwQ","Paris","48.856614","2.3522219",NA,NA,"locality political"
