"Id","Name","Lat","Lng","Price_level","Rating","Nb_Rating","Type"
"ChIJARMAlzVu5kcR1ZM77PhzF8M","104-106 Rue Saint-Lazare","48.8756165","2.3272546",NA,NA,NA,"route"
"ChIJLW_xmDVu5kcRSKieA7n2tAY","Fnac","48.8754349","2.3270268",NA,"4","8266","department_store book_store electronics_store home_goods_store point_of_interest store establishment"
"ChIJ8z7NmDVu5kcRsKGbm2ZBIgI","Quick Saint-Lazare","48.8757467","2.3270483","1","3.4","2453","restaurant food point_of_interest establishment"
"ChIJr8o1nzVu5kcRyChIvX_dof0","Caisse d'Epargne Paris Saint-Lazare","48.8757708","2.3273564",NA,"2.4","13","bank atm finance insurance_agency health point_of_interest establishment"
"ChIJFWT7mDVu5kcROlUp3c2rxG0","Gap","48.8753821","2.3273081","2","3.7","194","clothing_store point_of_interest store establishment"
"ChIJ18u6WzVu5kcRnEEe3FxoxL8","Burger King","48.8757485","2.327047","1","3.3","3597","meal_takeaway bar restaurant food point_of_interest establishment"
"ChIJ4zu1kDVu5kcRvmTSyrTWix0","Batignolles","48.8757758","2.3271778",NA,"4.2","13","bakery food point_of_interest store establishment"
"ChIJJT3elzVu5kcRC3Kphwq-NZo","Geox","48.875481","2.3271497",NA,"3.7","71","shoe_store point_of_interest clothing_store store establishment"
"ChIJXRtuljVu5kcRNKqtYS1-OzY","Financo","48.8755305","2.3274204",NA,"1","6","finance point_of_interest establishment"
"ChIJLW_xmDVu5kcRlm2OXmPRPNw","Six","48.8754349","2.3270268",NA,"1.8","6","jewelry_store point_of_interest store establishment"
"ChIJ47APvzVu5kcRfOLuGwa7tYk","L'OCCITANE EN PROVENCE","48.8754349","2.3270268",NA,"4","42","point_of_interest store establishment"
"ChIJK1panzVu5kcRtWCl8MU74GQ","Société Nouvelle La Mail","48.8753919","2.326899",NA,NA,NA,"point_of_interest establishment"
"ChIJLW_xmDVu5kcRjbny15Gl7BM","Louis Pion","48.8754227","2.3270571",NA,"3.7","106","point_of_interest store establishment"
"ChIJiYltljVu5kcRVklxYDaIKeA","Maison Pradier","48.8755199","2.3274984","2","3.6","178","restaurant bakery cafe food point_of_interest store establishment"
"ChIJSQ5xmDVu5kcRpIg4R8XuWic","Parking Indigo Paris Passage Du Havre","48.8755229","2.3275367",NA,"1.8","22","parking point_of_interest establishment"
"ChIJM4q-vTVu5kcRf6KHqd9-8_0","babyGap","48.8753658","2.3273091","2","3","1","point_of_interest clothing_store store establishment"
"ChIJQa1QkzVu5kcRFj7Zmkj6_Kk","CIC","48.8757991","2.3276316",NA,"3.8","5","bank finance insurance_agency point_of_interest establishment"
"ChIJp9SGkzVu5kcRRd5T73lDPW8","Décoration Parisienne","48.8760092","2.327375",NA,"5","1","point_of_interest establishment"
"ChIJI0dYkjVu5kcRp3C6KcWJV0s","Centre de prothèse dentaire MELLOULI Monem","48.8759415","2.3275716",NA,NA,NA,"dentist health point_of_interest establishment"
"ChIJD7fiBh9u5kcRYJSMaMOCCwQ","Paris","48.856614","2.3522219",NA,NA,NA,"locality political"
"ChIJjRXAkTVu5kcRcTJIH8YAe8I","Living Next Door to Paris","48.8760092","2.327375",NA,NA,NA,"point_of_interest establishment"
"ChIJG1KkmjVu5kcRfsTg9K0fPJ0","ASICS Performance Store","48.8760386","2.327088",NA,"4.2","178","shoe_store point_of_interest clothing_store store establishment"
"ChIJvYQo1xhv5kcRBl__hi7fHvw","Eurocommercial Properties","48.8753056","2.3273632",NA,NA,NA,"point_of_interest establishment"
"ChIJMTAvlzVu5kcRwg9-Mq5WJo4","Café Saint Lazare","48.8757758","2.3271778","2","3.6","234","cafe bar restaurant food point_of_interest establishment"
"ChIJm2avojVu5kcREH9haP0A2Hc","Devialet","48.8753113","2.3274406",NA,"4","38","electronics_store point_of_interest store establishment"
"ChIJUXcZIlRAUAURZJaQawz245M","EXKi Saint Lazare","48.8757943","2.3277627",NA,"4","543","restaurant food point_of_interest establishment"
"ChIJw3XimjVu5kcRgx5FjGDQ7HQ","VFLI","48.8760288","2.3271395",NA,"5","4","point_of_interest establishment"
"ChIJX3rfmzVu5kcRkCgCT2cfDZw","La Ville d'Argentan","48.8759514","2.3269746","2","3.9","479","cafe bar restaurant food point_of_interest store establishment"
"ChIJ4VVRmDVu5kcR0cb7NvX5ats","Orcanta","48.8753056","2.3273632",NA,"4","78","point_of_interest clothing_store store establishment"
"ChIJL9-mlzVu5kcRNWwvtgW4eEY","Yves Rocher","48.8753637","2.3273511",NA,"3.6","195","beauty_salon point_of_interest establishment"
"ChIJ8z7NmDVu5kcRycILonWTrMM","Machto Daisy","48.8757356","2.3270496",NA,NA,NA,"point_of_interest establishment"
"ChIJCzNB3TVu5kcRMjLbxn4zpb0","zumo","48.8754131","2.3271492",NA,"3.3","98","food point_of_interest establishment"
"ChIJL3tFd0pu5kcR9txJGzid1h8","Juillet","48.8759415","2.3275716",NA,"3","1","real_estate_agency point_of_interest establishment"
"ChIJJYiHljVu5kcROuNPP8QMPTM","Nacarat Direction Paris - Ile de France","48.8753056","2.3273632",NA,"3","26","real_estate_agency point_of_interest establishment"
"ChIJswfemTVu5kcR8N7jyA1mfsg","Ghn","48.8756938","2.3270688",NA,NA,NA,"point_of_interest establishment"
"ChIJt1IOCyZv5kcR5T7SDsVr1iI","LPO SOGENA","48.8757356","2.3270496",NA,NA,NA,"point_of_interest establishment"
"ChIJ4zu1kDVu5kcRczVgyi_silY","Chez eliza","48.8757758","2.3271778",NA,"2.3","27","point_of_interest establishment"
"ChIJtQxEjz5v5kcRTDmjQ64UVNo","Blooming Beauté","48.8757382","2.3273252",NA,"5","2","beauty_salon point_of_interest establishment"
"ChIJ738lkTVu5kcRHTD2qWRBmUc","Joffo","48.8757382","2.3273252",NA,"3.4","132","hair_care point_of_interest establishment"
"ChIJEdE7lzVu5kcRbKb1kIMx-Xg","Gare Saint-Lazare - Budapest","48.8757206","2.3273808",NA,"5","1","transit_station point_of_interest establishment"
"ChIJLUYQf25v5kcRdv6icGCHIR4","Autobus 32","48.8757219","2.3274213",NA,NA,NA,"lodging point_of_interest establishment"
"ChIJzR3i3rRv5kcR0UQUnD4EXJI","Rituals","48.8754878","2.3271683",NA,"5","2","point_of_interest store establishment"
"ChIJARkLA79v5kcRNVAgtT97XVs","Levi's","48.8754929","2.327314",NA,"3.9","82","clothing_store point_of_interest store establishment"
"ChIJgwXWeEdu5kcRIj9QfkWb1F8","Paristanbul","48.8755748","2.3268672",NA,NA,NA,"point_of_interest establishment"
"ChIJDbuPzPZv5kcRnIvl-R11xE8","Maisons du Monde","48.8754349","2.3270268",NA,"5","1","furniture_store home_goods_store point_of_interest store establishment"
"ChIJT9Osg2tv5kcRGdB5mNStTIc","Normal","48.8754349","2.3270268",NA,"4.2","175","store point_of_interest establishment"
"ChIJxcAcTk9v5kcRuageKF3iCaE","FREE - Borne interactive (Fnac)","48.8754349","2.3270268",NA,"1","1","point_of_interest establishment"
"ChIJS8aT73pv5kcRKHGSGKHLT8o","BALABOOSTE PASSAGE HAVRE","48.8754349","2.3270268",NA,"3","2","jewelry_store point_of_interest clothing_store store establishment"
"ChIJT6Zsv05v5kcRuN-N_oODlDk","Benefit Cosmetics BrowBar Lounge","48.8754349","2.3270268",NA,NA,NA,"beauty_salon point_of_interest store establishment"
"ChIJW7CVhhRv5kcRsBpMTOpFLLw","Victoria Magdalena Passage Du Havre","48.8754349","2.3270268",NA,"3","2","jewelry_store point_of_interest store establishment"
"ChIJSQ5xmDVu5kcRVcF9h0LJ9D8","SEPHORA PARIS PASSAGE DU HAVRE","48.8754349","2.3270268","3","3.6","363","point_of_interest clothing_store store establishment"
"ChIJm2avojVu5kcRjiqFRADkyYg","Fnac Voyages","48.875366","2.3270055",NA,"4.3","22","travel_agency point_of_interest establishment"
"ChIJk4ijMRdv5kcRQm3L1Z5ex5U","Place du Havre, Paris","48.8755526","2.3266651",NA,NA,NA,"gas_station point_of_interest establishment"
"ChIJDQi7LjZu5kcRwxe7ZXr8LoY","O'Neill Sully","48.8760092","2.327375",NA,NA,NA,"doctor health point_of_interest establishment"
"ChIJw3XimjVu5kcRMCGOAK7yzC4","CFD Industrie","48.8760386","2.327088",NA,NA,NA,"moving_company point_of_interest establishment"
"ChIJ-e1gvzVu5kcR8Q7FtEcNGlw","AGATHA Passage du Havre","48.8753056","2.3273632",NA,"3.9","26","jewelry_store point_of_interest store establishment"
"ChIJ5WRnbDVu5kcRn7mNxwNoXo0","Saint Lazare","48.8759223","2.3267309",NA,"3.8","6","subway_station transit_station point_of_interest establishment"
"ChIJ21XYMdtv5kcRk-mFkw8TTrY","Chez HL","48.8759468","2.3275476",NA,NA,NA,"point_of_interest establishment"
"ChIJCxg2kjVu5kcRw5YcUNQSlp4","巷子口中餐馆","48.8759468","2.3275476",NA,"4.1","98","restaurant food point_of_interest establishment"
"ChIJTzetkzVu5kcReqwaqbOjPtQ","Euro Automatic Cash","48.8759189","2.3275984",NA,NA,NA,"point_of_interest establishment"
