"Id","Name","Lat","Lng","Price_level","Rating","Nb_Rating","Type"
"ChIJ_zAtq_Ft5kcRu-gGLA9V9wc","54-56 Rue Servan","48.8632105","2.381596",NA,NA,NA,"route"
"ChIJs3-d9_Bt5kcRoxTaR75G2To","Lea Lund & Erik K","48.8628782","2.3808055",NA,NA,NA,"point_of_interest establishment"
"ChIJdcKhqvFt5kcRA_df9ygJ3a8","Roche Gérard","48.8629841","2.3814905",NA,NA,NA,"restaurant bar food point_of_interest establishment"
"ChIJw4wrVfBt5kcR9-1FCH5o8vI","Mama Shelter Headquarters","48.8630896","2.3814166",NA,"3.7","12","point_of_interest establishment"
"ChIJAWNa9vBt5kcRmEIarjMs7pc","Cite English","48.86291","2.3806393",NA,NA,NA,"point_of_interest establishment"
"ChIJsSyoqvFt5kcRwCbUSxwBV3g","RESTAURANT LE DIAMANT DE PARIS","48.8629841","2.3814905","2","4.3","435","restaurant food point_of_interest establishment"
"ChIJ4ZAi9_Bt5kcRrCIAO-DVfYc","Barre Gilles","48.8627361","2.3807924",NA,NA,NA,"point_of_interest establishment"
"ChIJrxHH-PBt5kcRxQmztsnnDn4","3m Batiment","48.8629425","2.3811586",NA,NA,NA,"point_of_interest establishment"
"ChIJu83O_vBt5kcRuXDNoeDHJb8","Giant Leap Technologies","48.8629288","2.3811937",NA,NA,NA,"point_of_interest establishment"
"ChIJ61e7AStt5kcRS2VcJlntf3s","L’Atelier au Cœur de Paris","48.8630426","2.3809428",NA,NA,NA,"lodging point_of_interest establishment"
"ChIJ87B_3Ftt5kcRwpDwdvnl4KY","onfootprint","48.8627863","2.3808282",NA,"5","5","store point_of_interest establishment"
"ChIJyeJvVfBt5kcR2JkvyuDSUfo","Mama Works","48.8630638","2.3814471",NA,NA,NA,"health point_of_interest establishment"
"ChIJk6pLMzZt5kcRT1G5pdfBU50","Circle Movement","48.8626687","2.3809247",NA,"5","29","health point_of_interest establishment"
"ChIJAWNa9vBt5kcR0qV7bUSPXSI","EcoRegard","48.862905","2.3806441",NA,NA,NA,"point_of_interest establishment"
"ChIJAWNa9vBt5kcRNtEXcfoosFU","Op Consult Sarl","48.862905","2.3806441",NA,NA,NA,"point_of_interest establishment"
"ChIJAWNa9vBt5kcRA5-srrROJIE","Wedding & Event Music in France","48.86291","2.3806393",NA,"5","1","point_of_interest establishment"
"ChIJsaiGKNlt5kcRZ368dHRXf1M","L'atelier De Nadja","48.8632258","2.3813114",NA,"5","5","point_of_interest establishment"
"ChIJS1Pfc_Vt5kcRFCnY4SY6asc","La Bonne Pioche - la loge","48.8632258","2.3813114",NA,NA,NA,"point_of_interest establishment"
"ChIJh0KWVPBt5kcR8AUCkrrbyJc","Topin Jean-Claude","48.8632258","2.3813114",NA,NA,NA,"point_of_interest establishment"
"ChIJD7fiBh9u5kcRYJSMaMOCCwQ","Paris","48.856614","2.3522219",NA,NA,NA,"locality political"
"ChIJh0KWVPBt5kcR9AHoT2K6KTA","Reynes Thierry Henri","48.8632258","2.3813114",NA,NA,NA,"point_of_interest establishment"
"ChIJbWIpVfBt5kcRPIH2zSZJuwk","ALTOUR","48.8631597","2.38155",NA,"5","1","travel_agency point_of_interest establishment"
"ChIJfSZVrj9w5kcRL0Hi0pT8Avg","Tout Le Monde Aime Les Pingouins (TLMALP)","48.8628268","2.3805008",NA,"5","4","point_of_interest establishment"
"ChIJtUCvhZpx5kcRNi4vQU5TGFk","Matthieu Joffres","48.86284","2.3804796",NA,NA,NA,"point_of_interest establishment"
"ChIJ4z0H9PBt5kcRhfk3QPXwIVI","Atelier Ink'arts","48.8627335","2.3804688",NA,NA,NA,"point_of_interest establishment"
