"Id","Name","Lat","Lng","Rating","Nb_Rating","Type"
"ChIJOV_Yso1t5kcRP9XH2c-j6MM","Avenue Transversale n°1","48.8628107","2.3936333",NA,NA,"route"
"ChIJFfyll2Ft5kcRZPXtwjHnTtA","Le tombeau d'Eugène Delacroix","48.8625912","2.3932756","5","1","cemetery point_of_interest establishment"
"ChIJd03O0rdt5kcRvrAiz1ifzgk","Hubertime Auclert","48.8626512","2.3931708","5","1","point_of_interest establishment"
"ChIJV-OSVIxt5kcRiZCYJWy61no","Tombe d'Honoré de Balzac","48.8626652","2.3930911","4.5","68","cemetery tourist_attraction point_of_interest establishment"
"ChIJj-L9qOJt5kcRm-qI9NnhJ6s","Pierre Lachambeaudie Tomb","48.862748","2.3929881","5","1","point_of_interest establishment"
"ChIJKQkW5t1t5kcR7_KlovQWcAE","Tombe d'Eugène Delacroix","48.8628107","2.3936333",NA,NA,"cemetery point_of_interest establishment"
"ChIJD7fiBh9u5kcRYJSMaMOCCwQ","Paris","48.856614","2.3522219",NA,NA,"locality political"
