"Id","Name","Lat","Lng","Price_level","Rating","Nb_Rating","Type"
"ChIJ6cfd1rdt5kcRe6rcEHvw_H8","2-30 Rue Eugène Jumin","48.8875254","2.3923714",NA,NA,NA,"route"
"ChIJrYvh1rdt5kcRMgOqr1uEc98","SARL Sofama","48.8875139","2.3922042","1","4.3","189","restaurant food point_of_interest establishment"
"ChIJQ3lP0Ldt5kcRx8Pw9nnAGL0","Alphonse SAS","48.8874431","2.3925352",NA,NA,NA,"point_of_interest establishment"
"ChIJQ3lP0Ldt5kcRYNvXi8-fBaE","Mlanao Nawal","48.8874431","2.3925352",NA,NA,NA,"point_of_interest establishment"
"ChIJ21AM0Ldt5kcRpv3SwbMxFxQ","Chez Arnaud","48.8873259","2.3925899","2","4.4","615","restaurant food point_of_interest establishment"
"ChIJZdYj2rdt5kcRDETXFIJiHkI","Laurent PIERQUIN","48.8872512","2.392299",NA,NA,NA,"health point_of_interest establishment"
"ChIJr09b2Ldt5kcRr1hwljXl1-c","LAVERIE MIELE","48.8872833","2.3923389",NA,"4.7","17","laundry point_of_interest establishment"
"ChIJF-dp1rdt5kcRXt3cF6GpFIM","Les Caves de la Villette","48.8875893","2.3922005",NA,"4.6","48","liquor_store food point_of_interest store establishment"
"ChIJZ7FZ-3Bu5kcRhfA_NlYA3iY","Chœur de Chambre Arthémys","48.8874587","2.3920746",NA,NA,NA,"point_of_interest establishment"
"ChIJETsFv7dt5kcRKlNfuEkeNtA","Créche Crescendo","48.8875345","2.3932294",NA,"5","3","point_of_interest establishment"
"ChIJb8Bmubdt5kcRfC8uHY5emT4","Docteur Madeleine Lhote","48.8875345","2.3932294",NA,"4.8","16","doctor health point_of_interest establishment"
"ChIJb8Bmubdt5kcRKscOinj8mCk","Scm Jean Jaures","48.8875345","2.3932294",NA,NA,NA,"point_of_interest establishment"
"ChIJO0hh17dt5kcROGNA2rT77qY","VisioramaDesign","48.8873669","2.392314",NA,NA,NA,"point_of_interest establishment"
"ChIJ7XisKrZt5kcRoJ8w442ySe0","EW6 Mathias DEBIEN","48.8877875","2.3920582",NA,NA,NA,"point_of_interest establishment"
"ChIJo6ZF17dt5kcRPv3ovZcRwGQ","Cabinet de podologie Jumin","48.8873459","2.3923231",NA,"3.9","11","doctor health point_of_interest establishment"
"ChIJo6ZF17dt5kcRFAEBM8mOn3Q","Bolvin Sven Franz Ragnar","48.8873709","2.3922211",NA,NA,NA,"health point_of_interest establishment"
"ChIJ5xYx0bdt5kcRWv5TUxsoI5Y","MON SOLEIL","48.8875226","2.3924979",NA,"1","1","electrician plumber general_contractor point_of_interest establishment"
"ChIJ-6MQ27dt5kcRQ_hRpqY4aMc","Fleurs de Mai","48.8871855","2.3925857",NA,"4.2","18","florist point_of_interest store establishment"
"ChIJ81Uhd3xt5kcR0u9mpzI6rc0","STOCK CO2","48.8874431","2.3925352",NA,NA,NA,"point_of_interest establishment"
"ChIJD7fiBh9u5kcRYJSMaMOCCwQ","Paris","48.856614","2.3522219",NA,NA,NA,"locality political"
"ChIJ5xYx0bdt5kcR5Q_OMxIsHJM","Hurtado Guehl Adriana Del Pilar","48.8875226","2.3924979",NA,NA,NA,"point_of_interest establishment"
"ChIJ5xYx0bdt5kcRlMscjvQGj2Y","Karaceper Gazi","48.8875226","2.3924979",NA,NA,NA,"finance point_of_interest establishment"
"ChIJZwrV0Ldt5kcR2tiGoSIYesI","Driving School Jumin","48.8874984","2.3924405",NA,"4.5","8","point_of_interest establishment"
"ChIJEdnS1rdt5kcRXXtAhtBw6GY","Le Palais Des Affaires","48.8875346","2.3924292",NA,NA,NA,"point_of_interest establishment"
"ChIJ21AM0Ldt5kcROkW0THlZ07s","Kone Moumouni","48.8873758","2.3926928",NA,NA,NA,"car_repair point_of_interest establishment"
"ChIJ21AM0Ldt5kcR4nokUBNkHdk","Guerrida Mohamed","48.8873758","2.3926928",NA,NA,NA,"grocery_or_supermarket food point_of_interest store establishment"
"ChIJCSc6m5Jt5kcRHvnTg_dSGtQ","4 SAISONS","48.8873494","2.3925154",NA,NA,NA,"food point_of_interest store establishment"
"ChIJcRRg1nRt5kcRT3HhkXzZEjI","unpose","48.8873669","2.392314",NA,NA,NA,"point_of_interest establishment"
"ChIJVbFF17dt5kcRaYdfVWyNIdc","Light Sushi","48.8873669","2.392314",NA,"4.3","40","restaurant food point_of_interest establishment"
"ChIJM7um1rdt5kcRWBOWPcOPMFw","Jumin Coiffure","48.8876456","2.3923798",NA,"4.2","15","hair_care point_of_interest establishment"
"ChIJIZ_22rdt5kcRczNK1A17xuc","Wong Chack Sam","48.8872751","2.3927336",NA,NA,NA,"point_of_interest establishment"
"ChIJV1UF1Ldt5kcRlON-p87wcgY","LoAn-Computing","48.8877016","2.3924031",NA,NA,NA,"point_of_interest establishment"
"ChIJW8de6Ldt5kcR1Kqc0gmXuy0","S.t.i.m.o.b","48.8876971","2.3923491",NA,"3.5","2","real_estate_agency point_of_interest establishment"
"ChIJAQC82bdt5kcRo66aY48yw00","Beauty By Sarah C","48.8872512","2.392299",NA,NA,NA,"point_of_interest establishment"
"ChIJZdYj2rdt5kcR53jL0ZmSP68","Pfister Anne","48.8872512","2.392299",NA,"5","5","doctor health point_of_interest establishment"
"ChIJExbFKcht5kcRvcXTuY4uxlY","Senay Estelle","48.8875691","2.3921498",NA,NA,NA,"point_of_interest establishment"
"ChIJo7901rdt5kcRxOQvRcjFOow","Crok'in","48.8876517","2.3921837",NA,NA,NA,"point_of_interest establishment"
"ChIJ7xNvtRJt5kcRsOkWd6_4yIQ","AFRIK ASIAN","48.8876517","2.3921837",NA,"4.7","181","restaurant liquor_store food point_of_interest store establishment"
"ChIJB57Y17dt5kcRN_LL-EoOMBU","Sky Telecom","48.8874587","2.3920746",NA,"2.5","6","point_of_interest establishment"
"ChIJkXhF1Ldt5kcRgD4UVS7TIvs","Senthil Sarl","48.8877723","2.3923228",NA,NA,NA,"point_of_interest establishment"
"ChIJf2Kmoldt5kcR6Yv6h5ncDRc","Les petits trésors de Nina","48.8878003","2.3923893",NA,"5","2","clothing_store point_of_interest store establishment"
"ChIJowh307dt5kcRi7FxIB22RkY","Le Grand Manipule","48.8878003","2.3923893",NA,NA,NA,"point_of_interest establishment"
"ChIJ94513Ldt5kcRhuMsc9eVE1I","Le Djembé","48.8871324","2.392333","2","3.9","155","restaurant food point_of_interest establishment"
"ChIJHQMFZjxt5kcROqdSjE399Vg","Josiane Paris Optique","48.8871324","2.392333",NA,NA,NA,"health point_of_interest store establishment"
"ChIJ61Xz27dt5kcRps2DhEwOZCw","Le Goff Eric","48.8871324","2.392333",NA,NA,NA,"health point_of_interest establishment"
"ChIJQzfy27dt5kcRfwhOhIuMCNM","Marie Levi","48.8870617","2.3924565",NA,NA,NA,"point_of_interest establishment"
"ChIJn8gXybdt5kcRZhAbRDFYhI8","Docteur André Meige","48.8875345","2.3932294",NA,NA,NA,"doctor health point_of_interest establishment"
"ChIJb8Bmubdt5kcR2j8bqZyU7k0","Toutah Said","48.8875345","2.3932294",NA,"4.3","6","doctor health point_of_interest establishment"
"ChIJn0vc1Ldt5kcRwdeNH5bIbZ4","Ye Yuan","48.887887","2.392327",NA,NA,NA,"food point_of_interest establishment"
"ChIJhZUd1bdt5kcRMGRIR_rzA-8","Traiteur Asiatique","48.8878756","2.3922802",NA,"3.9","19","food point_of_interest establishment"
"ChIJBzlMKsht5kcRdLAraFDo7Jg","Morice Florence","48.8877875","2.3920582",NA,NA,NA,"point_of_interest establishment"
"ChIJE0Je1Ldt5kcRdpjQQVjAi3g","Radjou Gouronath","48.8877875","2.3920582",NA,NA,NA,"point_of_interest store establishment"
"ChIJE0Je1Ldt5kcRSDgGTkmPaBU","Satellilte Communication","48.8877875","2.3920582",NA,NA,NA,"point_of_interest store establishment"
"ChIJEwRY07dt5kcRStHlFy1Vja4","Frenche Boissons Sarl Sarl","48.8879191","2.3923553",NA,NA,NA,"point_of_interest establishment"
"ChIJEwRY07dt5kcRW_YhxwCwpRg","Intere Gros","48.8879191","2.3923553",NA,NA,NA,"point_of_interest establishment"
"ChIJq6rG1Ldt5kcRahVhdHTueAM","GUIDE PECHE PARIS","48.887919","2.392355",NA,"3.9","8","point_of_interest store establishment"
"ChIJZcFm2bdt5kcR5iQKzK4nfvs","Aux Saveurs du Liban","48.8870241","2.3924601",NA,"4.1","168","restaurant food point_of_interest establishment"
