"Id","Name","Lat","Lng","Price_level","Rating","Nb_Rating","Type"
"ChIJ3xnG_OVt5kcR5vUmII9ne6k","Boulevard de Belleville","48.8704696","2.3788823",NA,NA,NA,"route"
"ChIJz214AyJw5kcRCuNMvCiWmaQ","Maelle galerie","48.87097","2.378897",NA,NA,NA,"art_gallery point_of_interest establishment"
"ChIJF3xM2gZu5kcRRc4obX0XhHU","Multiarchi Paris","48.8710697","2.3784551",NA,NA,NA,"point_of_interest establishment"
"ChIJKXrmBeZt5kcRbNt8z08pJqc","Le Barbouquin","48.8709972","2.3787976",NA,"4.4","106","restaurant library cafe food point_of_interest establishment"
"ChIJOcqRBeZt5kcRvEGePmj0sls","Nous Travaillons Ensemble","48.870967","2.3786591",NA,NA,NA,"point_of_interest establishment"
"ChIJr2c9COZt5kcRHsi8fwg9cgo","Beah","48.8707397","2.378931",NA,"4","2","restaurant bar food point_of_interest establishment"
"ChIJgYZzCeZt5kcRgG5esQgnBAY","La cantine de Belleville","48.870793","2.378718","1","3.7","1438","restaurant food point_of_interest establishment"
"ChIJDwaiAuZt5kcRGwlWKPHWC9s","AMP Consultants","48.871169","2.379421",NA,"5","1","point_of_interest establishment"
"ChIJyU8DqOht5kcR_0g-IRutZ6w","Attlane Ilan","48.871208","2.3794676",NA,NA,NA,"point_of_interest establishment"
"ChIJsbCJC-Zt5kcRKBQ-C-Rj9_Y","King Délices","48.8711151","2.3785443",NA,"3.3","4","restaurant food point_of_interest establishment"
"ChIJsbCJC-Zt5kcRHmzU8V3Ebow","Lazgheb Bechir","48.8711151","2.3785443",NA,"3","6","bakery restaurant food point_of_interest store establishment"
"ChIJy-C-ugBu5kcRRkDZXt-Nn1Q","Sultana","48.8709315","2.3791785",NA,"4.3","6","art_gallery point_of_interest establishment"
"ChIJgcZPBOZt5kcR79oGtW0l5t8","Restaurant Chinos","48.8710557","2.3789447",NA,"1","1","point_of_interest establishment"
"ChIJlWszBOZt5kcR9UerDQvrE3I","Restaurant Pomme Rouge","48.8710547","2.3789701",NA,"4.7","3","restaurant food point_of_interest establishment"
"ChIJUYRVD-Zt5kcRT9dqeIL0VBQ","Carré Plein","48.8709576","2.3787223",NA,NA,NA,"point_of_interest establishment"
"ChIJa9NzBOZt5kcRHh1YBPeQn1Q","Sayada Gaston","48.8711166","2.378956",NA,"4.7","10","travel_agency point_of_interest establishment"
"ChIJRdIMCeZt5kcRj0WUhVC4brw","Aluminium Tip","48.8711325","2.3788377",NA,NA,NA,"point_of_interest establishment"
"ChIJ8WYNBeZt5kcREzZWY_XlZ8Y","Restaurant B.K.O","48.8711325","2.3788377",NA,"5","1","restaurant food point_of_interest establishment"
"ChIJfy4BcVBt5kcR-keEJMGceOk","Caoua Coffee Stop","48.8707397","2.378931",NA,"3.7","9","cafe restaurant food point_of_interest store establishment"
"ChIJD7fiBh9u5kcRYJSMaMOCCwQ","Paris","48.856614","2.3522219",NA,NA,NA,"locality political"
"ChIJAZaKPQpt5kcRdQZ3N9FSL3A","LE PINCEAU, rue denoyez","48.8711241","2.3786722",NA,"4.7","39","restaurant food point_of_interest establishment"
"ChIJlT8QB-Zt5kcRDEhhBnEMAHw","Blv","48.8706995","2.3788458","2","4","112","restaurant cafe bar food point_of_interest establishment"
"ChIJncCMC-Zt5kcRvSArvQS8cj8","Kifolie","48.8710208","2.3784797",NA,"3.7","117","restaurant food point_of_interest establishment"
"ChIJ2y13i-1t5kcRfLkmBMU5-9M","SAUVAGE BELLEVILLE","48.8710697","2.3784551",NA,NA,NA,"bar restaurant food point_of_interest establishment"
"ChIJn9wBBLtt5kcRZw8qsOHwG-g","L'épicerie","48.8710697","2.3784551",NA,"4.7","3","grocery_or_supermarket food point_of_interest store establishment"
"ChIJfzXiA-Vt5kcRemxGjC8J6VA","CHU Le Colibri - CASP","48.8711688","2.3794208",NA,NA,NA,"point_of_interest establishment"
"ChIJW5Yt8AVy5kcRbPmMYCdakoc","Be-com Studio","48.8711688","2.3794208",NA,"4","1","point_of_interest establishment"
"ChIJRVEv_OVt5kcRuHC6iMg7oaU","LES TRIPLETTES","48.8705585","2.3789947","2","4","909","restaurant food point_of_interest establishment"
"ChIJpVJeqOht5kcROCdF9Km-RYU","Alsatians Companions of the building","48.8712393","2.379467",NA,"4.3","7","plumber point_of_interest establishment"
"ChIJBX63DeZt5kcRvJaZW5aYa5c","Bv Dis","48.8711515","2.3782886",NA,NA,NA,"point_of_interest establishment"
"ChIJ8X4Oitht5kcRkz5_KcGHKj8","Anita voyance","48.8713624","2.3785603",NA,NA,NA,"point_of_interest establishment"
"ChIJVWgom6lt5kcRvXGifTpFYLs","Le Petit Grain","48.8713624","2.3785603",NA,"4.2","28","bakery food point_of_interest store establishment"
