"Id","Name","Lat","Lng","Price_level","Rating","Nb_Rating","Type"
"ChIJpe5K1Adu5kcRwMXkmSIVKig","Boulevard du Temple","48.8655842","2.3652525",NA,NA,NA,"route"
"ChIJSa2Q0Adu5kcRmgyh_iKqh-Y","Hôtel MARAIS HÔme","48.8654703","2.3656664",NA,"4.4","304","lodging point_of_interest establishment"
"ChIJd-g9eAhu5kcRhx_vjttD9sA","Outre-Mer","48.8659427","2.3655592",NA,"4","63","point_of_interest clothing_store store establishment"
"ChIJZ8I7hwhu5kcRmsuLt_vCQAI","Chez Jenny","48.8659419","2.3646067","2","4","1544","bar restaurant food point_of_interest establishment"
"ChIJZxI_eAhu5kcRQYFM3IP2juA","Tevet & Friends","48.8659569","2.3655662",NA,"5","1","bar restaurant food point_of_interest establishment"
"ChIJ6RB61Qdu5kcRpJmd4rRsVQQ","Association Crescendo","48.8655825","2.3649587",NA,NA,NA,"point_of_interest establishment"
"ChIJnz1m1wdu5kcRRppYDaNFWyI","Marine Timsit","48.8656695","2.3656538",NA,NA,NA,"health point_of_interest establishment"
"ChIJZXLbI_dt5kcRX3VfYAoshwM","Vicente Jocelyne | ACCUEIL PSY","48.8656695","2.3656538",NA,NA,NA,"health point_of_interest establishment"
"ChIJEeIgGUtu5kcRtKTxTd26QhE","Rivière Sandrine","48.8656695","2.3656538",NA,"5","1","health point_of_interest establishment"
"ChIJL9hx1wdu5kcRPi6Sv3YqVnQ","Gil Morand Psychanalyste Paris 11","48.8656695","2.3656538",NA,"5","2","health point_of_interest establishment"
"ChIJnz1m1wdu5kcRQwvziaXm8Lw","Integralis","48.8656695","2.3656538",NA,"4.9","11","point_of_interest establishment"
"ChIJ9XKja_Rx5kcRpGjdCuPuGeI","Soredes","48.8656695","2.3656538",NA,NA,NA,"point_of_interest establishment"
"ChIJr5rQ2Qdu5kcRDNP6VGsvFJE","EXCESSIVE PHOTONS","48.8656695","2.3656539",NA,NA,NA,"point_of_interest establishment"
"ChIJHanM1Adu5kcRj81bTD-_J3k","L'Acacia","48.8656407","2.3648676",NA,"4.4","49","book_store point_of_interest store establishment"
"ChIJu62cKgZu5kcR9NHDVZHRVDc","Gina Gino Eleganzza Paris 3e","48.8658636","2.364806",NA,"4.6","20","hair_care point_of_interest establishment"
"ChIJJ5z10gdu5kcRwi2XGqpNlkk","CETEMARK","48.8657844","2.3647326",NA,"4.5","13","clothing_store point_of_interest store establishment"
"ChIJ49kQZv1t5kcRPS_yNnGaW5o","Systeme Bike","48.8655599","2.3657182",NA,"4.7","60","car_repair point_of_interest store establishment"
"ChIJIcPd1wdu5kcRyPSPT-YUEzw","Le Cube","48.865919","2.3658423",NA,"3.8","8","point_of_interest establishment"
"ChIJAfV2eAhu5kcREzSGEUdgGDs","El Mïda","48.865919","2.3658423",NA,"3.7","30","grocery_or_supermarket restaurant food point_of_interest store establishment"
"ChIJD7fiBh9u5kcRYJSMaMOCCwQ","Paris","48.856614","2.3522219",NA,NA,NA,"locality political"
"ChIJ8zPrfghu5kcRBDZ1Av6EG48","SoCoo'c","48.8660831","2.3652742",NA,"3.7","76","furniture_store home_goods_store point_of_interest store establishment"
"ChIJc-a11Adu5kcRL_ww_y-FpKc","Unique Consulting","48.8656387","2.3649378",NA,NA,NA,"point_of_interest establishment"
"ChIJmU3R0wdu5kcRaGb9_lwRWkA","Les Entretiens de la Psychologie","48.8654229","2.3652289",NA,NA,NA,"health point_of_interest establishment"
"ChIJ6RB61Qdu5kcRDIRPvdBHZAw","Au Royal Couscous","48.865769","2.364864",NA,"3.9","184","restaurant food point_of_interest establishment"
"ChIJ9zdOxbtv5kcR3wAu3AgkYXk","Voltaire","48.865931","2.3653189",NA,NA,NA,"cafe food point_of_interest establishment"
"ChIJC-n2anpv5kcRuR_GBGY-VYU","Trompe l'Oeil","48.8659483","2.3654001",NA,NA,NA,"point_of_interest establishment"
"ChIJS72oxcdv5kcRD6WN1pZmiHE","Charlotte Wils, Les Hypersensibles, coach, psychopraticienne spécialiste de l'hypersensibilité","48.865804","2.3655792",NA,NA,NA,"health point_of_interest establishment"
"ChIJiS3s1wdu5kcR8AElwcO3N_I","Les Hypersensibles","48.865804","2.3655792",NA,NA,NA,"health point_of_interest establishment"
"ChIJT6zEM_Nv5kcRs_17ur_LMdE","Le Flâneur","48.8659983","2.3653341",NA,"4.6","199","restaurant food point_of_interest establishment"
"ChIJgW29fwhu5kcRW0g5nQ6wzWo","Au Village Italien","48.8660105","2.3652939",NA,"4.7","27","restaurant food point_of_interest establishment"
"ChIJk_pn1wdu5kcR-HqoJeWT2-M","Aliments Express","48.865633","2.3655969",NA,"5","2","food point_of_interest store establishment"
"ChIJ71BHeAhu5kcRpX3Vy39RsUo","Co Ba Saigon","48.8659662","2.3655588","1","4.7","80","restaurant food point_of_interest establishment"
"ChIJnz1m1wdu5kcR3c6_ESvpP3U","LITOIU Daniela","48.86567","2.365654",NA,NA,NA,"health point_of_interest establishment"
"ChIJpZrQ2Qdu5kcRu681IYlFy7A","Olivier Lantelme","48.8656695","2.3656538",NA,NA,NA,"health point_of_interest establishment"
"ChIJx6xg_ytv5kcRIAqGIrsWM5Y","Emmanuelle Labonne","48.8656695","2.3656538",NA,NA,NA,"health point_of_interest establishment"
"ChIJNfXdbKRv5kcRF5g3W5oKXgc","Bordallo Pinheiro","48.8656695","2.3656538",NA,"5","3","home_goods_store point_of_interest store establishment"
"ChIJpZrQ2Qdu5kcRdyYpqaiTZ8s","La Boite à Castings","48.8656695","2.3656538",NA,NA,NA,"point_of_interest establishment"
"ChIJpZrQ2Qdu5kcRmrBeOmSAgdY","blog de corinne bacharach","48.8656695","2.3656538",NA,NA,NA,"movie_theater museum restaurant food point_of_interest clothing_store store establishment"
"ChIJwUIDxQdu5kcR6Uc7_T6HYSM","Koszczanski Vanessa","48.8656695","2.3656538",NA,"5","5","lawyer finance point_of_interest establishment"
"ChIJe4Ro1wdu5kcRlodgtEN88MU","Dufour Pierre","48.8656695","2.3656538",NA,NA,NA,"point_of_interest establishment"
"ChIJe4Ro1wdu5kcRxpd9bk84oqs","Gallard Martine","48.8656695","2.3656538",NA,NA,NA,"point_of_interest establishment"
"ChIJe4Ro1wdu5kcRy0xv0FBLYDg","Oudin Christele","48.8656695","2.3656538",NA,NA,NA,"point_of_interest establishment"
"ChIJ7bF5gYdv5kcR3w8pcOv-8ew","Lulu à Roma","48.8659652","2.3655955",NA,NA,NA,"restaurant food point_of_interest establishment"
"ChIJL9hx1wdu5kcRwSUwjI4-RqY","Société de Psychanalyse Active Intégrative","48.8656765","2.365686",NA,"4.8","29","health point_of_interest establishment"
"ChIJud3OPWxv5kcRv8V404oQJHA","Nouvelle bourse du travail Annexe","48.8654843","2.3650431",NA,"4","200","point_of_interest establishment"
"ChIJFWWDzwdu5kcR1etEaBZvfpc","Belib Charging Station","48.8655237","2.3655848",NA,NA,NA,"point_of_interest establishment"
"ChIJNVsmgAhu5kcRHaEFMT6xowg","Sadoki Grasser Yasmine","48.8657844","2.3647326",NA,NA,NA,"point_of_interest establishment"
"ChIJmU3R0wdu5kcRC-NGYH6RxYo","AG du SNICA-FO","48.8654229","2.3652289",NA,NA,NA,"point_of_interest establishment"
"ChIJdZ8m5Qdv5kcRheO5RZSr5uk","Système Bike","48.8655599","2.3657182",NA,NA,NA,"point_of_interest store establishment"
"ChIJY8AF2gdu5kcR692CBlNEOUo","Millot Françoise","48.8655599","2.3657182",NA,NA,NA,"lawyer point_of_interest establishment"
"ChIJl_d2eAhu5kcREqw9YF2IbPc","Donjon de Saint-Martin Thibault","48.865919","2.3658423",NA,NA,NA,"point_of_interest establishment"
"ChIJNw1e839x5kcRRNSUNZAjN6Y","Apaxxdesigns Training Center","48.865919","2.3658423",NA,"4","9","point_of_interest establishment"
"ChIJRxYH1Adu5kcRHXzfeNNabzk","Nursery Associative Enfance Et Découvertes","48.8656127","2.3646311",NA,"5","1","point_of_interest establishment"
