"Id","Name","Lat","Lng","Price_level","Rating","Nb_Rating","Type"
"ChIJQwDv7JNt5kcR4c2oYl8fY6c","256-272 Rue des Pyrénées","48.8694667","2.3949134",NA,NA,NA,"route"
"ChIJGbWKiZNt5kcRj-bRhKICr30","Market","48.8702778","2.3944444",NA,"3.7","593","supermarket bakery grocery_or_supermarket home_goods_store restaurant food point_of_interest store establishment"
"ChIJBWmVjZNt5kcReEyq5rfik-c","Kim Thy Nails","48.8699139","2.3951247",NA,"3.7","22","beauty_salon point_of_interest establishment"
"ChIJq6pm8pNt5kcRoQS061mNbKk","PIX LUX","48.8697247","2.394999",NA,NA,NA,"point_of_interest establishment"
"ChIJq6pm8pNt5kcRyjZiO5_LEW4","CHRISTOPH WOHLFAHRT","48.8697247","2.394999",NA,"5","1","point_of_interest establishment"
"ChIJMQsBj5Nt5kcRm1LPNj0-mQk","AGENCE ARTHURIMMO ODYSSEE","48.8698178","2.3943032",NA,"3","6","real_estate_agency point_of_interest establishment"
"ChIJO3r2QqRt5kcRM-ZVsjWdIXk","Le Zabar","48.8698178","2.3943032",NA,"3.9","15","bar point_of_interest establishment"
"ChIJbcOckpNt5kcR19f5e1Coybg","Le Menil","48.8696963","2.3944689","1","3.3","67","restaurant food point_of_interest establishment"
"ChIJxYgCjpNt5kcRKCz1b3L_3ns","Pharmacie Masliah well&well","48.8696963","2.3944689",NA,"2.8","11","pharmacy health point_of_interest store establishment"
"ChIJeZAo95Nt5kcRGqM1ODY6GrA","Autolib","48.8700096","2.3953672",NA,NA,NA,"point_of_interest establishment"
"ChIJd6YwkpNt5kcRuiONUHrsV6Q","Eureka My House - Fournel institutions - Drugstore","48.8695757","2.3945906",NA,"4.5","46","hardware_store point_of_interest store establishment"
"ChIJRRiRhJNt5kcRZZN86vXOuJo","Pavillon Carré de Baudouin","48.8700596","2.3941668",NA,"4.4","383","tourist_attraction museum point_of_interest establishment"
"ChIJ7dJRjJNt5kcRbhcLeLB2I2g","Pyrénées - Menilmontant","48.8698605","2.394595",NA,"1","1","transit_station point_of_interest establishment"
"ChIJed4t85Nt5kcR4tglD051fZ4","By Baddache","48.8698782","2.3947509",NA,"4.8","9","bakery food point_of_interest store establishment"
"ChIJed4t85Nt5kcRTeul0l2QGcA","Fred et Sarah","48.8698604","2.3948332",NA,"2","6","bakery food point_of_interest store establishment"
"ChIJzVnRjJNt5kcRxy_LunpdeXI","Cardinal Immobiliére","48.8698604","2.3948332",NA,NA,NA,"real_estate_agency point_of_interest establishment"
"ChIJQydX9JNt5kcREHeBrB0AUOU","Bistroz","48.8701075","2.3950275",NA,NA,NA,"point_of_interest establishment"
"ChIJAQAQipNt5kcRjhw-d5pNP1Y","Carrefour Spectacles","48.8701395","2.394487",NA,NA,NA,"point_of_interest store establishment"
"ChIJ1fIK9JNt5kcRFWIpDXZ6Cxo","Gourmet Royal","48.8699138","2.395071",NA,"4.4","9","meal_delivery food point_of_interest establishment"
"ChIJD7fiBh9u5kcRYJSMaMOCCwQ","Paris","48.856614","2.3522219",NA,NA,NA,"locality political"
"ChIJ5UhaiJNt5kcRnIF_UB2t_xk","Bouaziz Pascal","48.8700917","2.3943518",NA,NA,NA,"point_of_interest establishment"
"ChIJL3GeZdNt5kcR7XI3nnmIarY","AXA Assurance REYNER - LUZON","48.86973","2.395",NA,"3.6","27","insurance_agency health point_of_interest establishment"
"ChIJ6weX9pNt5kcRxgYzD9Pvl5Y","menilmontant:pixerecourt","48.8700643","2.3952341",NA,"4","1","point_of_interest establishment"
"ChIJq6pm8pNt5kcRRNMmSxH8Z9E","Agence Reyner Luzon","48.8697247","2.394999",NA,"3","2","point_of_interest establishment"
"ChIJW1FK7ZNt5kcR1FiXknBNxFQ","Lusamex International","48.8697247","2.394999",NA,NA,NA,"store point_of_interest establishment"
"ChIJW1FK7ZNt5kcRvYRwo8wbN9o","Eckart Johannes","48.8697247","2.394999",NA,NA,NA,"point_of_interest establishment"
"ChIJ__878ZNt5kcRpS7hYuP-jbE","Expert 2 Mobile","48.8699156","2.395279",NA,NA,NA,"point_of_interest establishment"
"ChIJ__878ZNt5kcRLoNP20C7Xmc","OrdiPhones Reparations - reparations iphone, samsung, imac, macbook pro sur paris","48.8699156","2.395279",NA,"5","23","point_of_interest establishment"
"ChIJfRf9jZNt5kcR8vANc52DT4o","Selloum","48.8697088","2.3944617",NA,NA,NA,"food point_of_interest store establishment"
"ChIJhc9xYZtt5kcRNKc0XC2lzcs","Elementary School","48.8696338","2.3945783",NA,NA,NA,"school point_of_interest establishment"
"ChIJ2aqZiZNt5kcRWk5Y2renMw0","Pyrénées - Menilmontant","48.8702506","2.3942416",NA,"1","1","bus_station transit_station point_of_interest establishment"
"ChIJ_2LnkpNt5kcRymoFmtZ6L5w","Pyrénées - Menilmontant","48.8695752","2.3947201",NA,NA,NA,"bus_station transit_station point_of_interest establishment"
"ChIJ--BM9pNt5kcRgjr8x3Jpo1o","Pressing Ménilmontant","48.8701802","2.3953612",NA,"4.5","6","laundry point_of_interest establishment"
"ChIJZWd4kpNt5kcReU0R9IdmZj8","De Cintas Magnac Valerie","48.8695757","2.3945906",NA,NA,NA,"jewelry_store point_of_interest store establishment"
"ChIJp2d4kpNt5kcR9sFh5EvSIoU","B.o.b","48.8695757","2.3945906",NA,NA,NA,"point_of_interest establishment"
"ChIJp2d4kpNt5kcRd74fAiR53pg","Guiot Nathalie","48.8695757","2.3945906",NA,NA,NA,"point_of_interest establishment"
"ChIJj8Ll95Nt5kcRK8-9ZhXDjO0","Pressing Ménilmontant","48.8702489","2.3953291",NA,"4.1","9","laundry point_of_interest establishment"
"ChIJbxXR9ZNt5kcRKtvC2yiz2LE","SAS Le Millénaire","48.8702489","2.3953291",NA,"4.3","4","bar point_of_interest establishment"
"ChIJK7I795Nt5kcRwLnisGj5LHk","Benaissa Amine","48.8699028","2.3954471",NA,NA,NA,"point_of_interest establishment"
"ChIJzfW-8JNt5kcRc9cvZjpi2AA","Auerbach Yann","48.8699028","2.3954471",NA,NA,NA,"electronics_store point_of_interest store establishment"
"ChIJq6o-hpNt5kcR4ZGd0CxBUlw","Valeurs De La Résistance","48.8700981","2.394063",NA,NA,NA,"point_of_interest establishment"
