"Id","Name","Lat","Lng","Price_level","Rating","Nb_Rating","Type"
"ChIJ98Ms6ept5kcRlovgMXW0mOY","336-342 Rue des Pyrénées","48.8737608","2.3891246",NA,NA,NA,"route"
"ChIJ8ywV6upt5kcR0UMxU4q1GQ4","Le Zephyr","48.8739513","2.3893626","2","3.9","381","restaurant food point_of_interest establishment"
"ChIJUYJv8ept5kcRWP_U0z9ZYp8","Centre auditif Philippe Metzger - AUDITION CONSEIL","48.8738811","2.3886347",NA,"4.3","42","health point_of_interest store establishment"
"ChIJ0z0P7upt5kcRbEM-Jt8rcoc","Audition Conseil","48.8738872","2.3889766",NA,"3.3","4","health point_of_interest store establishment"
"ChIJv1tu7upt5kcR0sNciSivnus","Dance Swing Connection","48.8739236","2.3888665",NA,NA,NA,"school point_of_interest establishment"
"ChIJmUqG6ept5kcRF-V2mB5XKYU","Humanity In Action - France","48.8739146","2.3893055",NA,NA,NA,"point_of_interest establishment"
"ChIJfysr8upt5kcRPcqbfobGgZI","PixoLocal","48.8738999","2.3886453",NA,NA,NA,"point_of_interest establishment"
"ChIJH3eT8Opt5kcRgJtcENaz2Jg","ParisTeacher75","48.8736456","2.3885607",NA,NA,NA,"point_of_interest establishment"
"ChIJRXOP5-pt5kcRLIGgTiqDSKk","Iman","48.8735603","2.3894927",NA,"4.8","4","point_of_interest store establishment"
"ChIJq6r67ept5kcRF-Z188bITu8","Autorisation d'URBANISME","48.8739236","2.3888665",NA,NA,NA,"point_of_interest establishment"
"ChIJ_R5V8ept5kcRLDtuRAhxOOg","Ascolteo","48.8739044","2.3883692",NA,NA,NA,"point_of_interest establishment"
"ChIJQZnR6upt5kcROHoGnNOXPSc","Samsara","48.8740717","2.3893188","2","4.3","318","meal_delivery restaurant food point_of_interest establishment"
"ChIJQZnR6upt5kcRPbJYcZeSdrI","Alioscopy","48.8740717","2.3893188",NA,"5","1","point_of_interest establishment"
"ChIJ74hR6ept5kcRXYjYmAqQvC8","Pharmacie Pyrénées Jourdain","48.8738429","2.3893084",NA,"4.3","22","pharmacy health point_of_interest store establishment"
"ChIJd-127upt5kcRqqxVLhuV5kE","Ding Fring","48.873898","2.388843",NA,"3.9","97","point_of_interest clothing_store store establishment"
"ChIJP9-4v8Bt5kcRWcrWXsszH6k","Club Azteca","48.8739236","2.3888665",NA,"4.9","17","school health point_of_interest establishment"
"ChIJ_R5V8ept5kcR7yjX0RA7YWQ","Auto Bilan Pyrénées","48.873876","2.388473",NA,"4.6","97","car_repair point_of_interest establishment"
"ChIJh5leANRt5kcR96NE4V4tDDE","Waelemine","48.8736928","2.3890007",NA,NA,NA,"store point_of_interest establishment"
"ChIJM-x27upt5kcRmmClM2F6rYQ","Coaching Pro Cadres Dirigeant Personnel Paris : Amescience Coaching Paris","48.8738699","2.3889346",NA,NA,NA,"point_of_interest establishment"
"ChIJD7fiBh9u5kcRYJSMaMOCCwQ","Paris","48.856614","2.3522219",NA,NA,NA,"locality political"
"ChIJBYKY7upt5kcROUQR6pRTfro","Amouroux Chantal","48.8738759","2.3890745",NA,"3","2","doctor health point_of_interest establishment"
"ChIJxe0V7-pt5kcRGmdu25QRcA8","Jourdain","48.8736921","2.3890992",NA,"4","1","bus_station transit_station point_of_interest establishment"
"ChIJLSXI8ept5kcR9nNPknOyCVU","Le Petit Vingtième","48.8736428","2.3890328","2","4.3","128","restaurant food point_of_interest establishment"
"ChIJP9Vb6ept5kcRY2fz-JPR62c","Seleurl Pharmacie Colvez","48.8738569","2.389224",NA,NA,NA,"point_of_interest establishment"
"ChIJ74hR6ept5kcRWQmXUI2eeA8","Belhaddad Souad","48.8738569","2.389224",NA,NA,NA,"point_of_interest establishment"
"ChIJP8ya5ept5kcRSWpjkzyiDfs","Carvins","48.8736551","2.3891641",NA,"4.5","4","food point_of_interest establishment"
"ChIJG9pbZEBt5kcR9cc09HcDWA4","During Argentine Tango Beginners Intermédiaires Avancés","48.8739236","2.3888665",NA,NA,NA,"point_of_interest establishment"
"ChIJL8DQ7upt5kcR-eL5KR8jkFk","Opticien Optic 2000 Paris - Lunettes, lunettes de soleil, lentilles","48.87362","2.3891849",NA,"4.9","10","health point_of_interest store establishment"
"ChIJaVfR6-pt5kcRDJbFmQzhHNY","Pharmacie Conseil","48.8738968","2.3893251",NA,NA,NA,"pharmacy health point_of_interest store establishment"
"ChIJyWwB8Opt5kcRC91U7hVI_Ig","La Tentation de Saint Antoine","48.8735862","2.3887794",NA,NA,NA,"point_of_interest establishment"
"ChIJ04688-pt5kcR8AQqqk5glqM","Nadine Daquin","48.8738999","2.3886454",NA,NA,NA,"health point_of_interest establishment"
"ChIJYwoKojtt5kcRdpIjnByrEPY","Philippe Metzger Opticien","48.873889","2.388624",NA,"5","2","health point_of_interest store establishment"
"ChIJFSRl6Opt5kcRsqZdd6PxCuE","Infusio Consulting","48.8736021","2.3893579",NA,NA,NA,"point_of_interest establishment"
"ChIJz6825upt5kcRDKM7yL_eR_E","Leonidas Paris Pyrénées","48.8736021","2.3893579",NA,"4.4","18","food point_of_interest store establishment"
"ChIJIe6A-wpt5kcRiKB8SgjvzRU","Boutique Simmons - Magasin de literie (Matelas, Sommiers, Ensemble literie, Têtes de lit, Accessoires) - Paris 75020","48.8739291","2.3886031",NA,"5","7","furniture_store home_goods_store point_of_interest store establishment"
"ChIJ04688-pt5kcRTPpLFwo1vAk","Paris Thomas","48.8739291","2.3886031",NA,NA,NA,"point_of_interest establishment"
"ChIJPfnU9upt5kcRdyvm2aSk3Bs","Cerballiance Laboratoire D'analses Medicales","48.873635","2.3885564",NA,"4.5","71","health point_of_interest establishment"
"ChIJ56I_6Opt5kcRSNEQexLgNr0","Versailles Pressing Sté","48.8734998","2.3892901",NA,"2.5","2","laundry point_of_interest establishment"
"ChIJQ2CU-upt5kcRxL4AjyTNfy8","Cervera Richard","48.8735417","2.388597",NA,NA,NA,"point_of_interest establishment"
"ChIJRXOP5-pt5kcRzv6m442d8N0","Ecole De Formation En Electromicanique","48.8735383","2.3894278",NA,NA,NA,"school point_of_interest establishment"
"ChIJ8cHn35xt5kcRSXkZxppwJ1k","Ebert","48.8739044","2.3883692",NA,NA,NA,"doctor health point_of_interest establishment"
"ChIJ_R5V8ept5kcRFcJ0xpM-KEg","Makholm Joseph","48.8739044","2.3883692",NA,NA,NA,"point_of_interest establishment"
"ChIJz9iV6upt5kcReI24tzAEjxI","Velib' Station 20112 - Jourdain","48.8741015","2.3894747",NA,"3","1","point_of_interest establishment"
"ChIJQYWH9upt5kcRWW0b-jYQSyg","Autosur","48.873889","2.3883542",NA,"5","1","car_repair point_of_interest establishment"
