"Id","Name","Lat","Lng","Price_level","Rating","Nb_Rating","Type"
"ChIJbeSEjvVu5kcRc5mFtBZIu2w","67-53 Rue Letort","48.8969827","2.3440008",NA,NA,NA,"route"
"ChIJ5YiVkPVu5kcRPfyFAc8IjrQ","Hôtel de la Terrasse","48.8973723","2.3439699",NA,"2.8","198","lodging point_of_interest establishment"
"ChIJ5_3_ivVu5kcRuXtx5KS9dks","Lambert de Paris - Congo Fret Multiservice","48.896715","2.34354",NA,"4.5","15","point_of_interest establishment"
"ChIJJa8zjPVu5kcRO3Eg5uXdyVE","Bartelmann Mupia","48.8969188","2.3438523",NA,NA,NA,"health point_of_interest establishment"
"ChIJX6jkkfVu5kcRQ-Tsw1wp310","O'maki Paris","48.8972007","2.344039","2","4.2","487","restaurant food point_of_interest establishment"
"ChIJs8AzjPVu5kcRObhJwjK3tNg","Deren Marie","48.896953","2.344265",NA,NA,NA,"point_of_interest establishment"
"ChIJ2eOFhfVu5kcRSNoX_G4kiNw","Intermarché EXPRESS Paris","48.8969553","2.344332",NA,"3.6","72","supermarket grocery_or_supermarket food point_of_interest store establishment"
"ChIJsfKBifVu5kcRCT3LAaGnBks","Chauffeur professionnel","48.896679","2.343954",NA,NA,NA,"point_of_interest establishment"
"ChIJ-ZNfifVu5kcRVGrnNabb0Us","Aux Couleurs du Moyen Age","48.8967064","2.3439599",NA,NA,NA,"point_of_interest establishment"
"ChIJSdf3jvVu5kcRCJNpwvQWuJw","Glassberg Edouard","48.8969918","2.344115",NA,NA,NA,"point_of_interest establishment"
"ChIJ-ZNfifVu5kcRQQmZWd9gmjk","Transfert Taxi à Paris - Dahmani Mohamed","48.896679","2.343954",NA,NA,NA,"point_of_interest establishment"
"ChIJSdf3jvVu5kcRB7ec5rHCxgA","Cm Guynemer","48.8969918","2.344115",NA,NA,NA,"convenience_store food point_of_interest store establishment"
"ChIJ-ZNfifVu5kcR-gd9ZjIJhKU","Dabout Pierre-Yves Jean Rene","48.8967145","2.3439547",NA,NA,NA,"point_of_interest establishment"
"ChIJ-eDri_Vu5kcRfHgcdlPrOx0","Deslances Vanessa Michele","48.8967151","2.3439543",NA,NA,NA,"point_of_interest establishment"
"ChIJDVtujPVu5kcRhB0_TlhRBXk","Lonofi","48.8968909","2.3438349",NA,NA,NA,"point_of_interest establishment"
"ChIJm0wirapv5kcR7jZNTBTQAJk","Rincón do Brasil","48.8968909","2.3438349",NA,"4.7","7","restaurant food point_of_interest establishment"
"ChIJk92ci_Vu5kcRj4dgVuoS3wQ","Le Rubis","48.8968006","2.3437815",NA,"5","3","cafe food point_of_interest establishment"
"ChIJk92ci_Vu5kcRBuxIBUQpBPo","Frelon","48.8968006","2.3437815",NA,NA,NA,"point_of_interest establishment"
"ChIJK07Bz4hv5kcRa1H2Gq7SvfM","UPS Access Point","48.8968","2.34378",NA,NA,NA,"point_of_interest establishment"
"ChIJD7fiBh9u5kcRYJSMaMOCCwQ","Paris","48.856614","2.3522219",NA,NA,NA,"locality political"
"ChIJsfJl8_Vu5kcRJrnAiUQr0_Q","Courts-On Formations","48.8968878","2.3434848",NA,NA,NA,"point_of_interest establishment"
"ChIJUXHajfVu5kcRTc0u4CEVWi8","Antoine Georges","48.8971232","2.3438777",NA,NA,NA,"point_of_interest establishment"
"ChIJmwu2rJ1v5kcR3QgF19dPe2I","Le Petit Gourmand","48.8968675","2.3440203",NA,"4.9","93","restaurant food point_of_interest establishment"
"ChIJHyQEi_Vu5kcRZ_WjMf4EDcU","New Congo","48.8967142","2.3437382",NA,"5","1","point_of_interest establishment"
"ChIJ50mtiPVu5kcRf47uPYyvBtk","MoneyGram","48.8969196","2.3440644",NA,NA,NA,"finance point_of_interest establishment"
"ChIJl17pjvVu5kcRzjsYnDkqmI8","VILLAGE CLIGNANCOURT","48.8969333","2.3440667",NA,NA,NA,"point_of_interest establishment"
"ChIJubJsvDxv5kcRBOu20tIgYPM","NEW CONGO FRET MULTI SERVICE","48.896715","2.34354",NA,NA,NA,"point_of_interest establishment"
"ChIJVQ7a9PVu5kcR2_xS58Mj5Lw","Azemz Lahcen","48.896715","2.3435397",NA,NA,NA,"grocery_or_supermarket food point_of_interest store establishment"
"ChIJSdf3jvVu5kcR2VO9GjJYrY0","Sadar Mohamed","48.8969918","2.344115",NA,NA,NA,"point_of_interest establishment"
"ChIJsfKBifVu5kcRIzUyruoJuWU","Elisa Madiot Sports Conseil","48.8967185","2.3439541",NA,NA,NA,"point_of_interest establishment"
"ChIJ4-nfi_Vu5kcR1BQenUYzELk","Barua Lavo","48.8967038","2.3439525",NA,NA,NA,"grocery_or_supermarket food point_of_interest store establishment"
"ChIJ3-wij_Vu5kcRHZQC9GuYrUQ","Phone De Marché","48.8969105","2.344166",NA,NA,NA,"point_of_interest establishment"
"ChIJXeWc1Tdv5kcRZ3-QXE97h5A","Maître BIBAWI","48.8966821","2.3439537",NA,NA,NA,"point_of_interest establishment"
"ChIJsfKBifVu5kcRJd5cazFPMXo","Bienvenue sur le site de notre Service de limousine","48.896679","2.343954",NA,NA,NA,"car_dealer point_of_interest store establishment"
"ChIJsfKBifVu5kcRU_H__CqNXcw","Stilbat","48.896679","2.343954",NA,NA,NA,"point_of_interest establishment"
"ChIJsfKBifVu5kcRgTrGA-mWMYk","Tout'ecrit","48.896679","2.343954",NA,NA,NA,"point_of_interest establishment"
"ChIJsfKBifVu5kcRtumCyTHkdV4","Lab-Ingenierie","48.896679","2.343954",NA,NA,NA,"point_of_interest establishment"
"ChIJsfKBifVu5kcR2_nnNMLc4nE","Nec+ Architectes","48.896679","2.343954",NA,NA,NA,"point_of_interest establishment"
"ChIJ4-nfi_Vu5kcRYpiPG4v5SWs","PC Infoservices","48.896679","2.343954",NA,NA,NA,"point_of_interest establishment"
"ChIJ-ZNfifVu5kcRQpxyYQ5xDqY","Thiesce Catherine","48.896679","2.343954",NA,NA,NA,"doctor health point_of_interest establishment"
"ChIJ5wAcseFv5kcRBTEorpS_y_s","Cabinet BIBAWI","48.8966997","2.3440047",NA,NA,NA,"lawyer point_of_interest establishment"
"ChIJvTnvkfVu5kcRuK9NEkJg1JE","Bardy Cayla","48.8972562","2.3438723",NA,NA,NA,"point_of_interest establishment"
"ChIJIUgV9fVu5kcRrZUSiBGUOhM","Hotel Le 18 Paris","48.896592","2.3436075",NA,"3.8","302","lodging point_of_interest establishment"
"ChIJjWXt7PVu5kcRGLeB_UGuT7A","Vayner Didier","48.8972275","2.3433424",NA,NA,NA,"accounting finance point_of_interest establishment"
"ChIJjWXt7PVu5kcRYAqaTObo-iw","Deyris Laurent","48.8972275","2.3433424",NA,"3.9","7","doctor health point_of_interest establishment"
"ChIJCWbt7PVu5kcRBxMuzkODKLw","Silem Dounia","48.8972275","2.3433424",NA,NA,NA,"point_of_interest establishment"
"ChIJTRWyjvVu5kcR0BZ1cQ4gNpA","Epicerie Orientale","48.8968543","2.3442788",NA,"4.5","2","store point_of_interest establishment"
"ChIJK_aTk_Vu5kcRThlGrMSTn8A","Merakeb Massinissa","48.8973505","2.343825",NA,NA,NA,"bar liquor_store food point_of_interest store establishment"
"ChIJiZ3wj_Vu5kcRTv7JTAdIeUU","Coiffure Sahra","48.8971098","2.3442926",NA,NA,NA,"point_of_interest establishment"
"ChIJiZ3wj_Vu5kcRdxv3G2vRvnU","Jallouli Racem","48.8971098","2.3442926",NA,NA,NA,"point_of_interest establishment"
"ChIJZyx-kfVu5kcRAGboy1ta6RU","Occo Bar","48.8973234","2.3439895",NA,NA,NA,"restaurant food point_of_interest establishment"
"ChIJgyDO8fVu5kcR40ysfkNWGwA","Yoga Challenge","48.8971336","2.3431211",NA,NA,NA,"school point_of_interest establishment"
"ChIJy3YGYF9u5kcRv0c1dU5SEkE","Press'net","48.8965149","2.3435473",NA,"1","1","laundry point_of_interest establishment"
"ChIJ257RYV9u5kcRuFS1qZVmuRA","Super Marche Vitrac Orientale","48.8964995","2.3437705",NA,NA,NA,"point_of_interest establishment"
"ChIJUXNu7vVu5kcRBaEEQcruogM","LaPlateform Studios","48.8972673","2.3432423",NA,NA,NA,"point_of_interest establishment"
"ChIJlTct9vVu5kcR7hu-xnZtIbg","Chiacchierini Laurent","48.8968562","2.3430454",NA,NA,NA,"point_of_interest establishment"
"ChIJy3YGYF9u5kcRVft34L5JPvg","Trabilord Jocelyne Bartan","48.8965176","2.343485",NA,NA,NA,"point_of_interest establishment"
"ChIJUXNu7vVu5kcRlo17VBOEk-4","Scorpio","48.8972705","2.3432304",NA,NA,NA,"point_of_interest establishment"
