"Id","Name","Lat","Lng","Price_level","Rating","Nb_Rating","Type"
"ChIJX5FzqNlt5kcRci2yEEzDRlg","18-38 Avenue Jean Jaurès","48.883438","2.3727157",NA,NA,NA,"route"
"ChIJ_-IfANlt5kcRa5-PqAGBncM","RV IMMOBILIER","48.8836424","2.3726415",NA,"4","9","real_estate_agency point_of_interest establishment"
"ChIJ9UP-ptlt5kcRQY9v6sz7EVI","Oonops","48.8836025","2.3726788",NA,"3.5","2","point_of_interest establishment"
"ChIJD_VBqtlt5kcR2Qer2oPwJyg","Clam Magazine","48.8835318","2.3723236",NA,NA,NA,"point_of_interest establishment"
"ChIJdwBsqdlt5kcRteWtSUppcxU","GSM architecte","48.8835674","2.3724598",NA,NA,NA,"point_of_interest establishment"
"ChIJI0tK9Nht5kcRErEjGkYICUY","Au Rendez-Vous de la Marine","48.8837754","2.3717822","2","4.4","369","restaurant food point_of_interest establishment"
"ChIJRXGirdlt5kcRTMVTl1juzpM","Enercoop","48.8839042","2.3722747",NA,"3.7","47","point_of_interest establishment"
"ChIJh_Ogz_8U5kcRvGBAqKS3uIw","LEOO","48.8839042","2.3722747",NA,"3.7","6","point_of_interest establishment"
"ChIJjaDVsdlt5kcR9A4Lb3ErBI8","Soft Lights","48.8839835","2.3725928",NA,"5","1","electronics_store home_goods_store point_of_interest store establishment"
"ChIJs0pZpNlt5kcRmthhFgRf0Nk","PUECH & SAVOY","48.883696","2.3728883",NA,NA,NA,"point_of_interest establishment"
"ChIJ86UrVdht5kcRHdYOGVlbaCU","Greg M","48.883497","2.3720577",NA,NA,NA,"point_of_interest establishment"
"ChIJs0pZpNlt5kcRnlHZ0nMf-ZI","Jikaélé","48.883797","2.3730062",NA,"1","1","point_of_interest establishment"
"ChIJ86UrVdht5kcRZUMzZF_OFrE","Trampofilms","48.8835049","2.3720237",NA,NA,NA,"point_of_interest establishment"
"ChIJ9QyuU9ht5kcRs4YEMED7gkI","Le Comptoir du Canal","48.8838145","2.3718472",NA,"4.4","75","bar food point_of_interest establishment"
"ChIJzZhLrdlt5kcRtuKCz4OT498","Énergie Solidaire","48.8839248","2.3720839",NA,NA,NA,"point_of_interest establishment"
"ChIJy3T4o9lt5kcRulpB_Bfs00M","Mbella Francis","48.8837775","2.3731426",NA,"5","2","point_of_interest establishment"
"ChIJ_-IfANlt5kcRt2jU_78kUYA","ADA | Location voiture et utilitaire Paris 19 Jean-Jaures","48.8835997","2.3727281",NA,"3.6","62","car_rental point_of_interest establishment"
"ChIJ54XNqdlt5kcRxN9Tmn1HP6o","Koh E Noor Restaurant Indien Paris 19","48.883479","2.372251",NA,"4.4","151","meal_delivery restaurant food point_of_interest establishment"
"ChIJS0Cjqtlt5kcRA5vaNW_Rw7Q","Rossinelli Cyrille Christian","48.8835049","2.3720237",NA,NA,NA,"health point_of_interest establishment"
"ChIJD7fiBh9u5kcRYJSMaMOCCwQ","Paris","48.856614","2.3522219",NA,NA,NA,"locality political"
"ChIJdztqI9pt5kcRWNvQpX1mFOk","Phot'Com SARL","48.8835674","2.3724597",NA,"4.1","50","point_of_interest establishment"
"ChIJYwP5q9lt5kcRnmgAmnNBc0A","Azoulay Sidney - Pédicure Podologue Paris 19","48.8836521","2.3725026",NA,"4.7","14","doctor health point_of_interest establishment"
"ChIJAQDMqNlt5kcRPuIOLQHqolE","Jmb Location","48.8836424","2.3726415",NA,NA,NA,"point_of_interest establishment"
"ChIJYwP5q9lt5kcRzBTXwf6K4VU","Mahuet Amelie","48.8835674","2.3724597",NA,NA,NA,"doctor health point_of_interest establishment"
"ChIJYwP5q9lt5kcRvfxTg5tI0FY","Chayet Camille","48.8835674","2.3724597",NA,NA,NA,"point_of_interest establishment"
"ChIJYwP5q9lt5kcRIJd1_YW3htc","Assou Elec Youssouf Assoumani","48.8835674","2.3724597",NA,NA,NA,"general_contractor point_of_interest establishment"
"ChIJc97SjNht5kcRHFbTmiDnXSM","Podiatry Center Jean Jaurès - Paris 19","48.8835674","2.3724597",NA,"4.5","23","doctor health point_of_interest establishment"
"ChIJc7q6vNxt5kcRlW5Jl-NQZ_g","Syndicat Copropriété","48.8835674","2.3724597",NA,NA,NA,"real_estate_agency point_of_interest establishment"
"ChIJc97SjNht5kcRH5Dt56fI4pM","Leclercq Alexandre","48.8836077","2.3726377",NA,NA,NA,"point_of_interest establishment"
"ChIJ62niqNlt5kcRKzmD9o_cLJk","Delices Primeurs","48.8835587","2.3725738",NA,NA,NA,"grocery_or_supermarket food point_of_interest store establishment"
"ChIJZdtjr9lt5kcRHpXs1hPhvOs","Carderot Catherine","48.8837328","2.3727634",NA,NA,NA,"lawyer point_of_interest establishment"
"ChIJcd_qqNlt5kcRJAlv7iQ1Bvo","Siva","48.8835735","2.3726531",NA,NA,NA,"point_of_interest establishment"
"ChIJQdR5qdlt5kcRunIXcTv4yxM","Kodak Express Digital Solutions","48.8835197","2.3724324",NA,NA,NA,"point_of_interest establishment"
"ChIJ-2fIq9lt5kcRgNNgsnGe4j0","Sarl Tandoori","48.8835389","2.3723133",NA,"4","1","restaurant food point_of_interest establishment"
"ChIJu8mhVNht5kcRUpJFKkqkWqU","Snack Jumbo","48.8835318","2.3723236",NA,NA,NA,"restaurant food point_of_interest establishment"
"ChIJu8mhVNht5kcRRmLvVoesQ5U","Walter Lea","48.8835518","2.3722601",NA,NA,NA,"point_of_interest establishment"
"ChIJVbRJqtlt5kcRmJsJgPdCDfw","Cordōnnerie Cles","48.883514","2.3722834",NA,"3","1","point_of_interest establishment"
"ChIJv3A-stlt5kcRSD0HnjAb064","Pga Immobilier D'entreprise","48.8839449","2.3723066",NA,NA,NA,"restaurant food point_of_interest establishment"
"ChIJjaDVsdlt5kcRbWhBOfPgqjk","societe lumiere","48.8839835","2.3725928",NA,"5","1","point_of_interest establishment"
"ChIJRwDQpdlt5kcRFFRPSzTHOL0","Sam's Pizza","48.883696","2.3728883",NA,NA,NA,"point_of_interest establishment"
"ChIJRwDQpdlt5kcRl2-mInL1tbo","Marc Martin Vitry sur Seine","48.883696","2.3728883",NA,NA,NA,"point_of_interest establishment"
"ChIJLdZ2ptlt5kcRA12H9S9fYgM","Bébe Enfant Homme","48.8836395","2.372872",NA,NA,NA,"store point_of_interest establishment"
"ChIJz5hLrdlt5kcRPvxIDBgPJtI","DR. watt","48.8839092","2.3721022",NA,NA,NA,"point_of_interest establishment"
"ChIJ3fR_9tht5kcRsnZC9DNkEcQ","Loire Jaurès","48.8839092","2.3721022",NA,NA,NA,"general_contractor point_of_interest establishment"
"ChIJrxOXSeZu5kcRCYk-I4SMlqU","Orient Ressources Solutions","48.8836669","2.3729866",NA,NA,NA,"point_of_interest establishment"
"ChIJ_6UEefxt5kcRUOfK6d-zC6Y","Magazin Romanesc","48.8834523","2.3721487",NA,NA,NA,"food point_of_interest establishment"
"ChIJ8YMYpNlt5kcRo9KkGiI__KE","Femme Lingerie Maroquinerie","48.8836824","2.3730199",NA,NA,NA,"store point_of_interest establishment"
"ChIJ84xmptlt5kcRMXcpunsATuc","Ostéopathe D.O Théo ROSSINELLI","48.8835049","2.3720237",NA,"5","12","health point_of_interest establishment"
"ChIJS0Cjqtlt5kcR59hhohM5Cqc","Marcant Mickael","48.8835049","2.3720237",NA,NA,NA,"point_of_interest establishment"
"ChIJ9QyuU9ht5kcRPXLdMI1-bpo","KOKO","48.883815","2.371847","2","4.3","524","restaurant food point_of_interest establishment"
"ChIJI0tK9Nht5kcRUq46j_0yzlk","Prométour","48.8837381","2.371814",NA,"3","2","travel_agency point_of_interest establishment"
"ChIJy3T4o9lt5kcR4zLOBdQwhyI","Desgruelles Chantal","48.8837775","2.3731426",NA,"4.5","33","doctor health point_of_interest establishment"
"ChIJKVhHodlt5kcRELWP-SGKJ5Q","2Z Resto Pizzas","48.8836831","2.3731342",NA,"5","1","restaurant food point_of_interest establishment"
"ChIJC0uMo9lt5kcRF4LJyRM17V8","Xian Duo","48.8837443","2.3731441",NA,"5","1","restaurant food point_of_interest establishment"
"ChIJpSVBTdht5kcRMt1wwNKGzj0","M Café","48.8840705","2.3720534",NA,"1","1","cafe food point_of_interest establishment"
"ChIJmbeFo9lt5kcRVQyRr0UVYlU","Special Food","48.8837775","2.3731426",NA,NA,NA,"point_of_interest establishment"
"ChIJMf0hIYNt5kcRzS1yjAwK3Qc","Stockage et garde meuble Paris 19 - Particuliers et professionnels - Jestocke.com","48.8837775","2.3731426",NA,"5","2","moving_company storage point_of_interest establishment"
"ChIJmbeFo9lt5kcRLJnRsel3FGE","MAC KING","48.8837775","2.3731426",NA,"4.2","113","restaurant food point_of_interest establishment"
"ChIJpcaJqtlt5kcRUCscaGnNyb4","Jaurès","48.8833338","2.3721132",NA,"4.7","3","bus_station transit_station point_of_interest establishment"
"ChIJB_l6p9lt5kcR4giIIraHpHg","Médecins Sans Frontières","48.8833725","2.3729386",NA,NA,NA,"point_of_interest establishment"
