"Id","Name","Lat","Lng","Price_level","Rating","Nb_Rating","Type"
"ChIJQRSxeU1u5kcRZPc92slC03Y","4-18 Rue Ganneron","48.8862663","2.3270526",NA,NA,NA,"route"
"ChIJi7hTh01u5kcRKtNe3fqvQGQ","The Blue House","48.8867477","2.3276236",NA,"4.4","10","lodging point_of_interest establishment"
"ChIJcXsDHq1v5kcR-wYUCVZYqlU","Educazen - Garde D'enfants À Domicile","48.8869542","2.3278132",NA,"3.6","11","point_of_interest establishment"
"ChIJdYjJgE1u5kcRqMC_yFbEZwo","L'Escale","48.8867348","2.32766","1","4.4","36","restaurant food point_of_interest establishment"
"ChIJfUGFQ0lu5kcRGZ2yEJg688U","Tasso Philippe","48.8865666","2.3277789",NA,NA,NA,"general_contractor point_of_interest establishment"
"ChIJQX85hk1u5kcR2hISCI8r63E","Ceralab dent","48.886482","2.3278214",NA,NA,NA,"dentist health point_of_interest establishment"
"ChIJKVgrhk1u5kcRDNg5c7DcIK8","FOLIE","48.8865954","2.3280504",NA,NA,NA,"point_of_interest establishment"
"ChIJq6qOg01u5kcRIH9ur93t6Nc","ARMIANE","48.8863685","2.3275924",NA,NA,NA,"point_of_interest establishment"
"ChIJmbHHg01u5kcRzZhevYk3csY","Do Brasil","48.8863985","2.3274927",NA,"4.4","237","grocery_or_supermarket restaurant food point_of_interest store establishment"
"ChIJwd8dgU1u5kcR6MW3sTIFnJU","Cahiers Jungiens de Psychanalyse","48.8866671","2.3274192",NA,NA,NA,"point_of_interest establishment"
"ChIJm4h6h01u5kcRF9HGDKcShJY","Cantine California Eurl","48.8868694","2.3277356",NA,NA,NA,"food point_of_interest establishment"
"ChIJm4h6h01u5kcRc6LdGWhaw94","BBS Concept","48.8868694","2.3277356",NA,NA,NA,"point_of_interest establishment"
"ChIJ__-zj01u5kcRQjZlHBn3wXc","Centre Technique du Code à Barres","48.88624","2.3281091",NA,NA,NA,"point_of_interest establishment"
"ChIJRbDBeFJu5kcRxRA3ohyrOCE","La Vendimia d'Espagne","48.886913","2.327734",NA,"4.6","29","food point_of_interest store establishment"
"ChIJ9WBHjE1u5kcRhBIrkU6uiZg","Le Pack","48.8863469","2.3284042",NA,NA,NA,"general_contractor point_of_interest establishment"
"ChIJlTxlgk1u5kcRN81ED73MSbM","ATELIER T","48.8863345","2.327326",NA,NA,NA,"point_of_interest establishment"
"ChIJVVWJiE1u5kcRmBj_p5_4DQY","mamanestcouturiste","48.8865954","2.3280504",NA,NA,NA,"point_of_interest establishment"
"ChIJQeL2gFJu5kcRWucpEKrAm-g","Louis Renaudin","48.886755","2.327802",NA,NA,NA,"point_of_interest establishment"
"ChIJXRLdeFJu5kcRz8gmw93EZg4","Connectors Studio","48.8869038","2.3277399",NA,NA,NA,"point_of_interest establishment"
"ChIJD7fiBh9u5kcRYJSMaMOCCwQ","Paris","48.856614","2.3522219",NA,NA,NA,"locality political"
"ChIJXRLdeFJu5kcRStBTqk9o0F8","Rocktech Paris","48.886904","2.32774",NA,NA,NA,"point_of_interest establishment"
"ChIJUWSPf1Ju5kcR17Qc5Qn7hYc","Le3","48.8868113","2.3274291",NA,NA,NA,"point_of_interest establishment"
"ChIJPS9ph01u5kcRv9CJdG0xHOg","Grosser Annie","48.8865666","2.3277789",NA,NA,NA,"health point_of_interest establishment"
"ChIJH5gkh01u5kcRrlhf9ihvS6w","Teillard D'eyry Noel Marie Camille","48.8865666","2.3277789",NA,NA,NA,"point_of_interest establishment"
"ChIJ76othk1u5kcRWyv21Llf8xw","Dotter Eric","48.8866143","2.3279646",NA,NA,NA,"point_of_interest establishment"
"ChIJ_2OEdSlv5kcRowz8B86vFyA","VEDES rénovation","48.886482","2.3278214",NA,NA,NA,"general_contractor point_of_interest establishment"
"ChIJG5Qrhk1u5kcRQX_AoDNmR4U","Ecole Saint-John Perse","48.8865954","2.3280504",NA,"4.5","10","secondary_school school point_of_interest establishment"
"ChIJ76othk1u5kcRTPkhBqr2k84","Alimentation Cavallotti","48.8867201","2.3278677",NA,"5","2","grocery_or_supermarket food point_of_interest store establishment"
"ChIJCwv8MlBv5kcRu_qjFr854hg","La Main Noire - Lab & Coffee Shop","48.8865087","2.3281552",NA,"5","26","cafe food point_of_interest establishment"
"ChIJGYS8hU1u5kcRO7xR3dsRh4c","Pepin Antoine","48.886352","2.3278564",NA,NA,NA,"point_of_interest establishment"
"ChIJ7WhGj01u5kcRhL67-HosjtE","Challine Marius","48.886352","2.3278564",NA,NA,NA,"point_of_interest establishment"
"ChIJPUWMjk1u5kcRke5z43r2tU0","AXA Assurance SEBASTIEN CHARDONNAL","48.8865141","2.3282002",NA,NA,NA,"insurance_agency health point_of_interest establishment"
"ChIJfw6Gj01u5kcRkH5y8ssmiiE","Kofila Jigi","48.886266","2.3279773",NA,NA,NA,"point_of_interest establishment"
"ChIJs4fqd1Ju5kcRJbATZWn3YR0","Bts Photographie","48.8868411","2.3280903",NA,NA,NA,"university point_of_interest establishment"
"ChIJAQBQgE1u5kcRiQW6x5_lJj4","SFPA","48.8866671","2.3274192",NA,"5","1","point_of_interest establishment"
"ChIJm-xxgGNv5kcRf9wKmOwRV4g","Shiatsu","48.8866671","2.3274192",NA,NA,NA,"point_of_interest establishment"
"ChIJwd8dgU1u5kcREl6i2bTnVqQ","Société Française de Psychologie Analytique-Institut C.G Jung","48.8866671","2.3274192",NA,"5","1","health point_of_interest establishment"
"ChIJ145wh01u5kcRqYtHEIjnKOM","Clermontel Rousseau Margaux","48.8868694","2.3277356",NA,NA,NA,"point_of_interest establishment"
"ChIJYeF8eFJu5kcRsnWhixUh1qY","Pierre-Anthony Allard / Studio Allard","48.886949","2.3278143",NA,NA,NA,"point_of_interest establishment"
"ChIJtWpPjk1u5kcRajOX7oYRm5A","Patbé","48.886244","2.3281699",NA,NA,NA,"point_of_interest establishment"
"ChIJW2SPf1Ju5kcRr_tVO_GZLf4","Michèle Hervet","48.8868113","2.3274292",NA,NA,NA,"general_contractor point_of_interest establishment"
"ChIJW2SPf1Ju5kcRAM0xinQohD8","Atelier Barbier","48.8868113","2.3274292",NA,NA,NA,"general_contractor point_of_interest establishment"
"ChIJ290DeVJu5kcRmVQmQxBto28","Les Improductibles","48.886949","2.3278143",NA,NA,NA,"point_of_interest establishment"
"ChIJ290DeVJu5kcRIrA2UHFVSYo","Allard & Bodak","48.886949","2.3278143",NA,NA,NA,"lawyer point_of_interest establishment"
"ChIJcTNa2axv5kcRGQXr6rseE70","Les Nounous de Paris Garde d'enfants et Baby-sittings à Paris","48.886949","2.327814",NA,"3.4","12","point_of_interest establishment"
"ChIJHS7fjU1u5kcRkrlB7gEBcqg","Not Dead Production","48.8863526","2.328382",NA,NA,NA,"point_of_interest establishment"
"ChIJjR_MjU1u5kcRuX9f2TllbL8","Colinet Jocelyne","48.8863469","2.3284042",NA,NA,NA,"health point_of_interest establishment"
"ChIJ82BHjE1u5kcRvxzhLOQmfhY","Aleafilms","48.8863469","2.3284043",NA,NA,NA,"point_of_interest establishment"
"ChIJOVXqXQhv5kcRBbWbLsf8NK8","Ferrariiais","48.8862074","2.328214",NA,NA,NA,"point_of_interest establishment"
"ChIJxS0-jk1u5kcR06FbZq7d7Vc","Crème De La Crème","48.8862074","2.328214",NA,NA,NA,"point_of_interest establishment"
"ChIJqbzLR9tv5kcRUgWNcsLeM3s","GallaisDerfalet","48.8862074","2.328214",NA,NA,NA,"point_of_interest establishment"
"ChIJ__9jgk1u5kcRYmPte8t-1vM","Sunspear Conseils","48.8863345","2.327326",NA,NA,NA,"point_of_interest establishment"
"ChIJc8GEeE1u5kcR5_16NgumqmE","Hrec Sarl","48.8863345","2.327326",NA,NA,NA,"accounting finance point_of_interest establishment"
"ChIJddJyi01u5kcRyezfE4Mqh4E","Serelec","48.8865256","2.3285417",NA,NA,NA,"point_of_interest establishment"
"ChIJQYjmflJu5kcRswa0Z2UQk5c","Diane de Kergal","48.8869766","2.3275684",NA,NA,NA,"general_contractor point_of_interest establishment"
"ChIJg1I1f1Ju5kcRzi7v4mb2i80","Synd Copr Babault Albert","48.8869766","2.3275684",NA,NA,NA,"real_estate_agency point_of_interest establishment"
"ChIJaxmyf1Ju5kcRoDfEwpjSiDE","Laverie MJ","48.8869242","2.3274359",NA,"3.2","5","laundry point_of_interest establishment"
