"Id","Name","Lat","Lng","Price_level","Rating","Nb_Rating","Type"
"ChIJG9cdrL5t5kcRdsP8jROJOUg","22-32 Rue des Lilas","48.8799958","2.3966254",NA,NA,NA,"route"
"ChIJFQUUr75t5kcRa2muC6SNhFQ","Comité Départ Apajh Pari","48.8798098","2.3967165",NA,NA,NA,"point_of_interest establishment"
"ChIJGxlTrr5t5kcRsURdfYAScns","Hassid Gérard","48.8798378","2.3964661",NA,"3.7","6","doctor health point_of_interest establishment"
"ChIJJbf8pb5t5kcR86fPBL-eX_g","Esat Les Cerisiers","48.879666","2.3966786",NA,"3.8","4","point_of_interest establishment"
"ChIJV8o4rr5t5kcRI8R7kUoiVc0","Flagadas Clowns Musiciens","48.8799239","2.396448",NA,"5","1","school point_of_interest establishment"
"ChIJV8o4rr5t5kcRRm6LQdJCV3o","Orchestre Mon Mariage en Jazz","48.8799239","2.396448",NA,NA,NA,"point_of_interest establishment"
"ChIJV8o4rr5t5kcRHnzH0-bKgDs","Orchestre de jazz LA PLANCHE A DIXIE","48.8799239","2.396448",NA,NA,NA,"point_of_interest establishment"
"ChIJp69Arr5t5kcRb9yLtk2f4O4","Orchestre de jazz New Orleans La Planche A Dixie","48.8798419","2.3963768",NA,NA,NA,"point_of_interest establishment"
"ChIJE41kVblt5kcRY7UGCQcQPi4","Gamot Laurent","48.8802647","2.3971207",NA,NA,NA,"point_of_interest establishment"
"ChIJw1rusb5t5kcRSDxjmPZf0uE","Franprix","48.8801654","2.3963801",NA,"3.4","45","supermarket grocery_or_supermarket restaurant food point_of_interest store establishment"
"ChIJv8fWvb5t5kcRdEblOU0ankw","Fournel Franck","48.8799723","2.396892",NA,NA,NA,"point_of_interest establishment"
"ChIJ1dsqr75t5kcRHJTB1OAPEy4","Lilas Marché","48.8798306","2.3967199",NA,"3.6","23","grocery_or_supermarket food point_of_interest store establishment"
"ChIJncZZq75t5kcR-38X_fEXmAE","Dequatre Michel","48.8800371","2.3967714",NA,NA,NA,"point_of_interest establishment"
"ChIJbX1Kr75t5kcRFUZ-FA42e98","Produits Exotiques","48.8797796","2.3966945",NA,"4","6","grocery_or_supermarket food point_of_interest store establishment"
"ChIJe8cJpb5t5kcRJzIynklwnqc","Dimet Yoann","48.8798378","2.3964661",NA,NA,NA,"point_of_interest establishment"
"ChIJI6qlpb5t5kcRJoo4EjPv0yg","La Chaumonnerie","48.879622","2.3967062","1","3.8","32","restaurant food point_of_interest establishment"
"ChIJI6qlpb5t5kcRvNztFxfkiow","Billard Valérie","48.879622","2.3967062",NA,NA,NA,"health point_of_interest establishment"
"ChIJeQurrb5t5kcRubfAhwgL644","Quatuor Caliente","48.8801639","2.3965526",NA,NA,NA,"point_of_interest establishment"
"ChIJV8o4rr5t5kcRvvxjZKjJz64","Fanfare Dés en Bulles","48.8799178","2.396389",NA,NA,NA,"point_of_interest establishment"
"ChIJD7fiBh9u5kcRYJSMaMOCCwQ","Paris","48.856614","2.3522219",NA,NA,NA,"locality political"
"ChIJA0sYVsVt5kcRwGAvDdSKUDc","Andre Ohayon","48.8801645","2.396547",NA,NA,NA,"point_of_interest establishment"
"ChIJq-_Wr75t5kcR-cPBHJk2bLU","Wedding Jazz","48.8798406","2.3963734",NA,"5","1","electronics_store home_goods_store point_of_interest store establishment"
"ChIJC5Der75t5kcRbpwAexldENs","JAZZY MARIAGE ORCHESTRA","48.8798009","2.3963749",NA,NA,NA,"point_of_interest establishment"
"ChIJcdo-t3Jt5kcRCzLJnDZo59o","Motrio - Le Garage","48.8802859","2.3970109",NA,"3.8","17","car_repair point_of_interest establishment"
"ChIJs7rorL5t5kcRljzHNp2rfp4","OxyGen Software","48.880244","2.3965682",NA,NA,NA,"point_of_interest establishment"
"ChIJ82EWrb5t5kcRdVaPajI3pko","Lessman-Alperin Rosine","48.880251","2.3965701",NA,"4.3","8","doctor health point_of_interest establishment"
