"Id","Name","Lat","Lng","Price_level","Rating","Nb_Rating","Type"
"ChIJeRbXZDNs5kcR7OJjo6Czp64","4 Terrasse du Parc","48.8973675","2.3872625",NA,NA,NA,"route"
"ChIJKxIrEjNs5kcR_IxMLXZN0Lo","Pena Festayre","48.8969674","2.3866941","1","3.9","342","bar restaurant food point_of_interest establishment"
"ChIJdXv7XeRt5kcRB4-HhOlp-Ss","TVK - Trévelo & Viger-Kohler Architects Planners","48.8972431","2.3871344",NA,"4.2","6","point_of_interest establishment"
"ChIJex_IMh1t5kcRFYC-Vc1968M","ILLUCITY La Villette","48.8966857","2.3869548",NA,"4.4","235","amusement_park point_of_interest establishment"
"ChIJw6zYdIxt5kcRTh5xzVZS5Cg","Solidarité Femmes - Violences femmes info 3919","48.8972431","2.3871344",NA,NA,NA,"point_of_interest establishment"
"ChIJiQ76fR1u5kcRZ6xE6yRkCnE","ISL Ingenierie","48.8973266","2.3869424",NA,"5","4","point_of_interest establishment"
"ChIJD7fiBh9u5kcRYJSMaMOCCwQ","Paris","48.856614","2.3522219",NA,NA,NA,"locality political"
