"Id","Name","Lat","Lng","Rating","Nb_Rating","Type"
"ChIJnTTDKy1s5kcRE2ZB5ipblPg","Rue Curial","48.8961075","2.3788832",NA,NA,"route"
"ChIJe8wXrtRt5kcRYjR_4mWs3Dk","Municipality of Paris","48.8961725","2.3787239",NA,NA,"point_of_interest establishment"
"ChIJUWviEKlt5kcRihsF1j-IxiY","2j Associes","48.8968741","2.3790342","5","1","accounting finance point_of_interest establishment"
"ChIJY-8Z0yxs5kcREV8n_u0y4PA","Une Chorba Pour Tous","48.8961985","2.3783647","4","39","point_of_interest establishment"
"ChIJgxN3BUFy5kcRaPMmmE3a7qY","STUDIO BERCY","48.8962662","2.3788453","5","9","point_of_interest establishment"
"ChIJv81KIi1s5kcRbUIXk2YIh0Q","Total Chemical Solutions","48.8962887","2.3788708",NA,NA,"point_of_interest establishment"
"ChIJszQCrtRt5kcRZ1bJxcN4zEY","Halte Garderie Municipale Mairie de Paris","48.8961725","2.3787239","4","1","point_of_interest establishment"
"ChIJD7fiBh9u5kcRYJSMaMOCCwQ","Paris","48.856614","2.3522219",NA,NA,"locality political"
