"Id","Name","Lat","Lng","Price_level","Rating","Nb_Rating","Type"
"ChIJd_N0g_Vt5kcRvG2FiC0gWOk","46-48 Rue Léon Frot","48.8558673","2.3863472",NA,NA,NA,"route"
"ChIJs04mf_Vt5kcR3qIxbnFscGo","bistrot Melac","48.8556114","2.386738","2","4.4","222","restaurant food point_of_interest establishment"
"ChIJSQm9nPVt5kcRypF8qmanad4","L'effronte","48.8560707","2.3863188",NA,"1","1","restaurant food point_of_interest establishment"
"ChIJ9zq2gvVt5kcRnXEJ2DkuuEY","Gobin","48.8559676","2.3865235",NA,NA,NA,"point_of_interest establishment"
"ChIJYYtUMuxt5kcRdFcVBgkFcxU","Le Petit Bureau","48.8560595","2.3865558",NA,NA,NA,"point_of_interest establishment"
"ChIJrZKDm_Vt5kcRyzPlT75N_bI","Laurent Guay","48.8561744","2.3862463",NA,"5","3","doctor health point_of_interest establishment"
"ChIJqaKIkPVt5kcRDof2qRb9uu4","Protechnique Dental","48.8561742","2.3859187",NA,NA,NA,"health point_of_interest establishment"
"ChIJh0Upf_Vt5kcRVlHanQBwYPE","MDD","48.8556523","2.3867381",NA,NA,NA,"bar point_of_interest establishment"
"ChIJyzmvhPVt5kcRk_98I5fiU7k","55 Plus Opportunities","48.8559665","2.3862313",NA,NA,NA,"restaurant food point_of_interest establishment"
"ChIJycYq86ng5UcRLlxkMCeOywk","AMERICA EXOTICA","48.856206","2.385793",NA,"3.7","3","grocery_or_supermarket food point_of_interest store establishment"
"ChIJEfUaefVt5kcRHbqZY76rzek","EDITIONS BLUSSON","48.8557823","2.3868062",NA,NA,NA,"point_of_interest establishment"
"ChIJUdW6hPVt5kcRYk12c6tQlwg","Medjeber Dalila","48.8558764","2.3860768",NA,"5","1","point_of_interest establishment"
"ChIJD3UEnvVt5kcR6mfnPF9ch8I","Rokovoko","48.8562478","2.3862364",NA,NA,NA,"point_of_interest establishment"
"ChIJPwYMjPVt5kcRbC8KFYahyTY","Barry Amadou Oury","48.8556599","2.3855713",NA,NA,NA,"point_of_interest establishment"
"ChIJF2Ecg_Vt5kcR4tsEdXQ_1DA","LAVERIE du QUARTIER AQUILEX","48.855968","2.386524",NA,NA,NA,"laundry point_of_interest establishment"
"ChIJl_KBg_Vt5kcRlrQ6is5k2Fw","Restaurant Creole","48.8558104","2.386258",NA,"4.5","50","restaurant food point_of_interest establishment"
"ChIJ_XCSg_Vt5kcRrGew2V-pqvY","Bodiford Daniel","48.8557286","2.3860187",NA,NA,NA,"point_of_interest establishment"
"ChIJ_XCSg_Vt5kcRchLmf_jyEKc","Etude Et Realisation","48.8557286","2.3860187",NA,NA,NA,"point_of_interest establishment"
"ChIJyzmvhPVt5kcRutRqUasFamo","Swing It Orchestra","48.8559665","2.3862313",NA,"5","2","point_of_interest establishment"
"ChIJD7fiBh9u5kcRYJSMaMOCCwQ","Paris","48.856614","2.3522219",NA,NA,NA,"locality political"
"ChIJx8PIg_Vt5kcRl0fUjTaZWoc","Atelier Intarsio","48.8557448","2.3863547",NA,NA,NA,"point_of_interest establishment"
"ChIJq6rmhfVt5kcRnAt-wPxD9cI","Epicerie Roots","48.8557111","2.3859492",NA,"4.5","55","grocery_or_supermarket food point_of_interest store establishment"
"ChIJq6rmhfVt5kcR6Bs35Ygmn9A","Gwada Café","48.8557111","2.3859492","2","4.6","80","restaurant food point_of_interest establishment"
"ChIJQROtzfVt5kcRdHQQPiyyJC0","AMANDINE DUCROT STUDIO S.A.S.","48.8560088","2.3861357",NA,NA,NA,"point_of_interest establishment"
"ChIJS456a5Ft5kcRWI-8MDkQGZ4","Spring","48.8559335","2.3864479",NA,"4.5","113","restaurant food point_of_interest establishment"
"ChIJ_cMpgvVt5kcR2fcP8oBQ3Pk","Victoria Wilmotte","48.855685","2.3864371",NA,NA,NA,"point_of_interest establishment"
"ChIJSQm9nPVt5kcRN9Tkq0e-LyY","ALF","48.8560707","2.3863188",NA,"4.4","92","restaurant food point_of_interest establishment"
"ChIJjcfNgvVt5kcR85WWPg8NF14","Consultation Voltaire","48.8559802","2.3864851",NA,"3","2","health point_of_interest establishment"
"ChIJjcfNgvVt5kcRwNUTCZlSJlg","Emmanuel Niddam","48.8559802","2.3864851",NA,NA,NA,"health point_of_interest establishment"
"ChIJjcfNgvVt5kcR4yO_v9B2PMg","Eric Halimi","48.8559802","2.3864851",NA,NA,NA,"health point_of_interest establishment"
"ChIJz8BAVK5t5kcRaIbVhkVIXio","Scent Skills - Raphaëlle Jeannerot","48.8557617","2.3857185",NA,"5","3","point_of_interest establishment"
"ChIJI-wgj_Vt5kcRyxwRT0u6GTc","Parking à louer Paris 11 - Charonne","48.8557617","2.3857185",NA,NA,NA,"parking point_of_interest establishment"
"ChIJUWoalZFt5kcRepujriLCnj8","Michel guillerme","48.8559676","2.3865235",NA,NA,NA,"lodging point_of_interest establishment"
"ChIJOU4KgvVt5kcRB36G27Vpee0","Stéphane Dupont","48.8557445","2.3865801",NA,NA,NA,"point_of_interest establishment"
"ChIJUamdgvVt5kcRZW6L--rUCmo","L'insomniac","48.8558858","2.3865916",NA,"3.7","88","restaurant bar food point_of_interest establishment"
"ChIJUamdgvVt5kcR4iAV_ZdepfM","Karaage-ya Charonne","48.8558858","2.3865916","1","4.6","157","restaurant food point_of_interest establishment"
"ChIJ84GKgvVt5kcRdqjnu3DzlJU","Perrot Geneviève","48.8558858","2.3865916",NA,NA,NA,"point_of_interest establishment"
"ChIJfwCxnPVt5kcRODxrkyApOuo","Adebrasil Samba - Cours De Danse Et Spectacles","48.8560773","2.3864059",NA,NA,NA,"point_of_interest establishment"
"ChIJVVXlkPVt5kcR-r58ZhpUCmc","Affichage dynamique selon I-VIDEO.","48.8562115","2.3857873",NA,NA,NA,"point_of_interest establishment"
"ChIJjUm8ePVt5kcRw2gFkfQAtD4","La Réserve des Initiés","48.8557445","2.3866386","2","4.8","198","bar restaurant food point_of_interest establishment"
"ChIJjUm8ePVt5kcRpEuHa0a8g1E","Thillot Pascal","48.8557445","2.3866493",NA,NA,NA,"point_of_interest establishment"
"ChIJX5A-eApy5kcRhtrNFrkd49g","Trafikant Abraham","48.855475","2.3860078",NA,NA,NA,"point_of_interest establishment"
"ChIJs04mf_Vt5kcRfn8fR4PFGNA","Vignerons de Paris (Les)","48.8556523","2.3867381",NA,NA,NA,"bar restaurant food point_of_interest establishment"
"ChIJQaUxjPVt5kcRLTJNsA0U7gc","jardin Frot-Phalsbourg","48.8558315","2.3854893",NA,"4.5","2","park point_of_interest establishment"
"ChIJqaKIkPVt5kcR1p1-iGWV30w","I-Vidéo","48.8562115","2.3857873",NA,NA,NA,"point_of_interest establishment"
"ChIJqaKIkPVt5kcRLDUh90udLGA","Marot Laurence","48.8562115","2.3857873",NA,NA,NA,"food point_of_interest establishment"
"ChIJT969kPVt5kcR9_JUqTN-5zw","Strohl Jean","48.8562115","2.3857873",NA,NA,NA,"point_of_interest establishment"
"ChIJWX59kPVt5kcRV7-Gkr417Ek","El Gnaoui Btisame","48.856206","2.385793",NA,NA,NA,"point_of_interest establishment"
