"Id","Name","Lat","Lng","Price_level","Rating","Nb_Rating","Type"
"ChIJp6Edr2Bu5kcR3mkiHJYDV_4","50-64 Rue Ordener","48.8918878","2.3478519",NA,NA,NA,"route"
"ChIJ7ynTzWBu5kcRy9dkdczY15k","Hôtel Victoria","48.8917505","2.3491779",NA,"3","27","lodging point_of_interest establishment"
"ChIJ_8J8y2Bu5kcR0TQp6FxMbo4","Limousine A Paris","48.8915215","2.3491137",NA,"4","1","car_rental point_of_interest establishment"
"ChIJm0YHyWBu5kcR0eVJ5Eo0tX0","APRIL MON ASSURANCE PARIS ORDENER","48.89179","2.348983",NA,"2.8","21","insurance_agency point_of_interest establishment"
"ChIJ__-jtGBu5kcR6I8ITIHuFOU","Shop Emmaus 105 Paris 18","48.8915181","2.3485859",NA,"3.9","13","point_of_interest establishment"
"ChIJQUdvtWBu5kcRE-Qqytxbw1Y","Bravo Karim","48.8914226","2.3488191",NA,"3","2","restaurant food point_of_interest establishment"
"ChIJd3lrtWBu5kcRqayZ19JsQlI","First Com","48.8914226","2.3488191",NA,NA,NA,"electronics_store point_of_interest store establishment"
"ChIJF1Ehz2Bu5kcR78Y08yAkOco","Masseur-Pro","48.8918569","2.3492161",NA,"5","135","spa point_of_interest establishment"
"ChIJqZmVsWBu5kcRBecKgM_Egu0","RIPA Az Transactions","48.8917297","2.3481457",NA,"3.4","5","real_estate_agency point_of_interest establishment"
"ChIJDYuUs2Bu5kcReU2TI2STnjo","BIOGROUP - Laboratoire Ordener","48.8916419","2.3482661",NA,"2.5","40","health point_of_interest establishment"
"ChIJASIWxmBu5kcRRbvpeUqwoIQ","La Rose de Tunis - Paris Ornano","48.8920035","2.3490519","2","4.1","333","bakery food point_of_interest store establishment"
"ChIJqZmVsWBu5kcRuLfaM3eWEzk","Etude Gordolon","48.8916879","2.348035",NA,"5","1","point_of_interest establishment"
"ChIJu35puGBu5kcRbTCe0CZFdak","Les Retrouvailles","48.8921741","2.3487181",NA,"3.8","86","restaurant food point_of_interest establishment"
"ChIJ4QSMrGdu5kcRP3LT-6PIPhU","Pharmacie 75","48.8915215","2.3491137",NA,"4.2","22","pharmacy health point_of_interest store establishment"
"ChIJZ_ZVtmBu5kcRuRhoUdMcnz0","Boulanger -Patissier","48.8918495","2.3486358",NA,"4.2","32","bakery food point_of_interest store establishment"
"ChIJzedv1dFv5kcRKzIiNXTVv54","Les Innocents","48.8915907","2.3488352",NA,"4.4","39","cafe food point_of_interest establishment"
"ChIJzcGst2Bu5kcRX9vot-KgP0E","Artisan Boulanger Patissier","48.8918699","2.3486651",NA,NA,NA,"point_of_interest establishment"
"ChIJ_7eYyWBu5kcRoWBf2gpOWgM","La Grappe d'Or","48.8917756","2.3489561",NA,"4","28","cafe food point_of_interest establishment"
"ChIJze3Vy2Bu5kcRYHm8PSG3F-s","Thomasmanonmarie4863","48.891698","2.348992",NA,NA,NA,"lawyer point_of_interest establishment"
"ChIJD7fiBh9u5kcRYJSMaMOCCwQ","Paris","48.856614","2.3522219",NA,NA,NA,"locality political"
"ChIJU_RPyWBu5kcRRNU0CCjZrRg","Rakha Brahim Brahim","48.891769","2.349024",NA,"5","2","grocery_or_supermarket food point_of_interest store establishment"
"ChIJ50SBX1Zv5kcRr73mtXrwCos","Kumquat","48.8915603","2.3489201",NA,NA,NA,"point_of_interest establishment"
"ChIJ7wRRMkix50cRDyD4JzItSBw","Boxraiser","48.8915603","2.3489201",NA,NA,NA,"point_of_interest establishment"
"ChIJaV5XymBu5kcRHNCoDTCvlh0","Les Leonards","48.8915603","2.3489201",NA,NA,NA,"point_of_interest establishment"
"ChIJc3ayy2Bu5kcRE0FTCQSuVCo","Le Goût de l'Orient","48.891572","2.348971",NA,"3.5","2","restaurant food point_of_interest establishment"
"ChIJNbclt2Bu5kcRrSFS7lOfOxA","Clior Délices","48.891894","2.3485156",NA,"5","4","bakery food point_of_interest store establishment"
"ChIJoWrXsGBu5kcRVrF84EnoPy0","Boogy's Paris","48.8918848","2.3484235",NA,"3.8","139","meal_delivery restaurant food point_of_interest store establishment"
"ChIJ-2X2zGBu5kcRJn2iU_IPGCU","Sarl Bourak","48.8915556","2.3490647",NA,"5","2","point_of_interest establishment"
"ChIJ5z7NzmBu5kcRFSgY0p5felM","Kevinalexandrecamille8723","48.89181","2.349164",NA,NA,NA,"lawyer point_of_interest establishment"
"ChIJhbGTt2Bu5kcRgpCXzZpP0N4","Moneyglobe Transfert d'Argent - Paris","48.8920132","2.3485633",NA,"2","1","finance point_of_interest establishment"
"ChIJk9kMfY1v5kcRUZXTYiuBAAI","Indivision","48.8916419","2.3482661",NA,NA,NA,"lodging point_of_interest establishment"
"ChIJpUo1smBu5kcRic4UsPZ-4kY","Fanny Hollman","48.8916419","2.3482661",NA,NA,NA,"point_of_interest establishment"
"ChIJGfAuuGBu5kcREiR4hDJVm30","Fahmida informatique","48.8920494","2.3486817",NA,NA,NA,"finance point_of_interest establishment"
"ChIJFxtl0mBu5kcRBS5VBlkHkWc","Patisserie Ordener","48.8915268","2.3491279",NA,"4.1","8","bakery food point_of_interest store establishment"
"ChIJ389qy2Bu5kcR1bCneA10DBk","O'toole Nicolas","48.8914712","2.3490459",NA,NA,NA,"point_of_interest establishment"
"ChIJUw1VtWBu5kcR2M6y4YQOybY","Restaurant La Belle Etoile","48.8913982","2.3487682",NA,NA,NA,"point_of_interest establishment"
"ChIJz3-8Y_Bv5kcRLf4pqdsTs7I","Lawrence","48.8916895","2.3482359",NA,"5","1","hair_care point_of_interest establishment"
"ChIJCY8wz2Bu5kcR5O-tZOLxXDM","Obala Exotique","48.8919047","2.3491628",NA,NA,NA,"point_of_interest establishment"
"ChIJ8Zonz2Bu5kcR9rtjzZ9LcUI","Marques Privees","48.8918569","2.3492161",NA,NA,NA,"point_of_interest establishment"
"ChIJF1Ehz2Bu5kcRZBapx8p1aPk","Association Earth Society","48.8918569","2.3492161",NA,"5","1","point_of_interest establishment"
"ChIJseY0z2Bu5kcRwrnJc7yIQu4","Coiffure Iman","48.8919223","2.3491755",NA,NA,NA,"point_of_interest establishment"
"ChIJlR5OddRv5kcRirtHXHQTT6U","Agence Drôles d'oiseaux","48.8919079","2.3482675",NA,NA,NA,"point_of_interest establishment"
"ChIJm-1AuGBu5kcReeWqCRd5XQo","Brasserie Bar Restaurant","48.8921056","2.3487304",NA,NA,NA,"restaurant food point_of_interest establishment"
"ChIJU0YTs2Bu5kcRYe4n50gCee8","Issa Sabrina","48.8914137","2.3483223",NA,NA,NA,"electronics_store home_goods_store point_of_interest store establishment"
"ChIJywg5NWdu5kcRxIwIZF8j22A","Team Technical Assistance For Management","48.8913383","2.3488708",NA,NA,NA,"point_of_interest establishment"
"ChIJ8fxdw19u5kcRFhbIixFncGQ","Gouraya Viandes","48.8921102","2.3489653",NA,"4.4","22","food point_of_interest store establishment"
"ChIJM3jasmBu5kcRORj2CLhsu54","Laboratoire De Prothéses Dentaires","48.8914137","2.3483223",NA,"5","1","health point_of_interest establishment"
"ChIJH0k0s2Bu5kcRH74h6UeLFx4","Mina retouches","48.8914137","2.3483223",NA,"4.9","14","point_of_interest store establishment"
"ChIJz2WLsmBu5kcRMKsMBFTW87g","Le Bandounga-Bôlanko-Exotic Chez Colette","48.8915498","2.3481499",NA,"5","1","point_of_interest establishment"
"ChIJyVqPSmdu5kcRTJABzPq9-4Q","Mercier Pierre","48.891315","2.3485673",NA,"5","1","furniture_store home_goods_store point_of_interest store establishment"
"ChIJKwIYm2lv5kcRuUr1rbZ0GW4","Bigo","48.8914572","2.34924",NA,NA,NA,"point_of_interest store establishment"
"ChIJuddEzWBu5kcR9oSmtL9J0Gc","Q.s.p","48.8914572","2.34924",NA,NA,NA,"point_of_interest establishment"
"ChIJI3zBzGBu5kcRfFF8rwPXgac","Largo","48.8914487","2.3492385",NA,NA,NA,"point_of_interest establishment"
"ChIJuddEzWBu5kcRve7M1NmGtxo","Bistrot Marcadet","48.8914786","2.349286",NA,"3.6","7","cafe bar restaurant food point_of_interest establishment"
"ChIJLYNAumBu5kcRZTm_USNrm6g","Giallella Christophe","48.8921191","2.3483929",NA,NA,NA,"finance point_of_interest establishment"
"ChIJ24Mwt2Bu5kcRjeErnes9gZw","Brigand Emilien Nicolas","48.8921191","2.3483929",NA,NA,NA,"point_of_interest establishment"
"ChIJm7nlrWBu5kcRnaJPIlCRKZM","Aux délices de Dhan","48.891688","2.348035",NA,"4.9","37","food point_of_interest establishment"
