"Id","Name","Lat","Lng","Price_level","Rating","Nb_Rating","Type"
"ChIJmxb1KsJt5kcR-Ull4G3Ib6w","26-28 Rue des Alouettes","48.8778783","2.3855615",NA,NA,NA,"route"
"ChIJpyeVKsJt5kcRHhKrYfUxArc","Notula","48.8779488","2.3855401",NA,NA,NA,"point_of_interest establishment"
"ChIJbVgxLMJt5kcRtKFIWnwz26E","Atelier","48.877795","2.3851246",NA,NA,NA,"point_of_interest establishment"
"ChIJkXF4KcJt5kcR6kRQBpmIKG8","Le Danube Sarl","48.8777147","2.3853375",NA,NA,NA,"restaurant food point_of_interest establishment"
"ChIJQwCw1sNt5kcRfXajJIxSVoI","Baker Sweets","48.878403","2.385373",NA,"4.3","6","restaurant food point_of_interest establishment"
"ChIJFQVTM8Jt5kcRqwBr4nkNiPM","Paris In Sub-Version - Feugueur Julien","48.878251","2.3848693",NA,NA,NA,"travel_agency point_of_interest establishment"
"ChIJ94izLMJt5kcRHoyWi_JoR2k","Mosaïques création Paris","48.8780925","2.3852341",NA,NA,NA,"point_of_interest establishment"
"ChIJBfIth8Ft5kcR37p6Iu3PxEM","Chill out chez David","48.8777099","2.3857575",NA,NA,NA,"point_of_interest establishment"
"ChIJTzKDLMJt5kcRXdqZuEvDzNs","Etan'El Tsipora","48.8778838","2.3852888","3","4","118","restaurant food point_of_interest establishment"
"ChIJd0N31sNt5kcRb6qWxKfFmqw","Les Comédiens","48.8782525","2.3854412",NA,"4.1","105","meal_delivery meal_takeaway bar restaurant food point_of_interest establishment"
"ChIJXYiJKsJt5kcRvzekccypnWA","Lili Fée des Siennes","48.877894","2.385573",NA,"5","2","point_of_interest establishment"
"ChIJe4D7KcJt5kcRF7ZKrQ3gmmw","Le Plateau","48.8776837","2.3857981",NA,"4.3","85","tourist_attraction point_of_interest establishment"
"ChIJncqSKsJt5kcRnGNWsjRvfIA","Le Bar Fleuri","48.8778562","2.3854427","1","4.3","103","bar restaurant food point_of_interest establishment"
"ChIJpyeVKsJt5kcRuHZ6md3WQL4","Makaremi Hassan","48.8779488","2.3855401",NA,NA,NA,"point_of_interest establishment"
"ChIJXYiJKsJt5kcRisJ15_XIgzU","Jean Lou Animateur","48.877894","2.385573",NA,NA,NA,"point_of_interest establishment"
"ChIJXYiJKsJt5kcRatsodYrJt3c","Barthélémy Michel","48.877894","2.385573",NA,NA,NA,"point_of_interest establishment"
"ChIJowNXKZpt5kcRAbCQzva3Ax0","Laurent LEMESLE SAFTI IMMOBILIER PARIS 19","48.877934","2.385177",NA,"5","1","real_estate_agency point_of_interest establishment"
"ChIJ_3KRq4Bt5kcRzoWe7jEuOSg","Laurent LEMESLE-conseiller-immobilier-SAFTI-Paris","48.877934","2.385177",NA,"5","1","real_estate_agency point_of_interest establishment"
"ChIJ3eLxLMJt5kcRG4dugDfCF34","Naï No Productions","48.877934","2.385177",NA,NA,NA,"point_of_interest establishment"
"ChIJD7fiBh9u5kcRYJSMaMOCCwQ","Paris","48.856614","2.3522219",NA,NA,NA,"locality political"
"ChIJlRyCf8Ft5kcRJn_CdbjpFEQ","Kipling Finance","48.8780598","2.3858252",NA,NA,NA,"point_of_interest establishment"
"ChIJ77k20CJt5kcRJRPwv-Y1l4g","David et de Revel architecture","48.8780598","2.3858252",NA,NA,NA,"point_of_interest establishment"
"ChIJlRyCf8Ft5kcRlMYBEfLiN8A","Cabinet de psychologie","48.8780598","2.3858252",NA,NA,NA,"health point_of_interest establishment"
"ChIJpwZ4f8Ft5kcRST8pvToLMrk","Lespiaux Franck","48.8780598","2.3858252",NA,NA,NA,"point_of_interest establishment"
"ChIJu4Z4KcJt5kcRjC5MCZdA6x0","Rendez-vous des Alouettes","48.8776942","2.3853947",NA,"4.6","21","restaurant food point_of_interest establishment"
"ChIJp0-OLcJt5kcRGKZh93Jt8aY","G.l.m.","48.8778482","2.3849673",NA,NA,NA,"point_of_interest establishment"
"ChIJyw26MsJt5kcRZiDWUxsblbQ","Paris Proposal","48.8780173","2.3848836",NA,NA,NA,"point_of_interest establishment"
"ChIJeU67MsJt5kcRn__Km21V0O0","Lucas Olivier","48.8779307","2.3848829",NA,NA,NA,"point_of_interest establishment"
"ChIJq6q61sNt5kcRsJl5QrI3hVA","Territoire Urbanisme Architecture & Patrimoine","48.8784026","2.3853734",NA,NA,NA,"point_of_interest establishment"
"ChIJwWPK1cNt5kcRmCfBd1zJQGM","Azuelos Gad","48.8784026","2.3853734",NA,NA,NA,"point_of_interest establishment"
"ChIJwWPK1cNt5kcR8e6OxE7_hsE","Laumont Franck","48.8784026","2.3853734",NA,NA,NA,"point_of_interest establishment"
"ChIJBfIth8Ft5kcRzI1EpTBHUJM","Anatec","48.8777099","2.3857575",NA,NA,NA,"point_of_interest establishment"
"ChIJmYJfMsJt5kcRyC7Y2C-nZ0Q","Mikvé Hevrat Pinto","48.8779","2.3848365",NA,NA,NA,"point_of_interest establishment"
"ChIJsyrVzMNt5kcR1tssHS-yW8Y","C’est pour Bientôt","48.8780627","2.3847625",NA,NA,NA,"point_of_interest establishment"
"ChIJ4ffLysNt5kcRmJamavt5_Io","Dehais Monique","48.8780611","2.3847621",NA,NA,NA,"point_of_interest establishment"
"ChIJe2lxYsFt5kcRG9X2CbBk0NA","Auchan Supermarché","48.8783795","2.3858088",NA,"3.6","397","grocery_or_supermarket food point_of_interest store establishment"
