"Id","Name","Lat","Lng","Rating","Nb_Rating","Type"
"ChIJ4TA0B3pu5kcR4aiboGIHgtI","33 Rue du Département","48.8861829","2.3633242",NA,NA,"route"
"ChIJW5gUCnpu5kcRa-dpt--H1qI","PIMMS Paris Nord Est","48.8861181","2.3625826","4.1","27","point_of_interest establishment"
"ChIJ4YB_CHpu5kcRGo63P0rV-Ww","Forma +","48.8862094","2.3631152",NA,NA,"point_of_interest establishment"
"ChIJ15SsC3pu5kcRCyI0xHCptVg","Contes à Modeler","48.8862341","2.3626176",NA,NA,"point_of_interest establishment"
"ChIJRbq2C3pu5kcRVBN8uzWcDac","Bar Restaurant Au Rendez-Vous Des Chauffeurs","48.8862506","2.3626608","4.2","6","restaurant food point_of_interest establishment"
"ChIJD7fiBh9u5kcRYJSMaMOCCwQ","Paris","48.856614","2.3522219",NA,NA,"locality political"
