"Id","Name","Lat","Lng","Price_level","Rating","Nb_Rating","Type"
"ChIJ-c1bsgly5kcRxh0idsxxD4M","80-88 Rue de Charonne","48.8537112","2.3809972",NA,NA,NA,"route"
"ChIJl--iTQhy5kcRqciKXYtL-_s","Hôtel Exquis","48.8537144","2.3805544",NA,"4.5","381","lodging point_of_interest establishment"
"ChIJE6kCUghy5kcRmWSg3RUHIwM","Septime","48.8535737","2.3806897","3","4.5","679","restaurant food point_of_interest establishment"
"ChIJ0992UAhy5kcRTdRf5Ufig5M","Crêperie bretonne, fleurie... de l'épouse du marin","48.8535647","2.3800526","1","4.3","318","restaurant food point_of_interest store establishment"
"ChIJVaq4Rwhy5kcRXQ2zdJWOlNM","DDS Architecte","48.8541374","2.3800704",NA,NA,NA,"point_of_interest establishment"
"ChIJrXq2SAhy5kcRc1yyaHUSVuQ","LAURENT BOURGOIS.CAROLINE SARKOZY.ARCHITECTURE.DECORATION","48.8539822","2.3801753",NA,NA,NA,"general_contractor point_of_interest establishment"
"ChIJSdqDx_dt5kcRWwooKGF3vMo","Earth drop △ Lunaticart","48.853839","2.380352",NA,"3.9","21","art_gallery jewelry_store point_of_interest store establishment"
"ChIJVaq4Rwhy5kcR3spLsSQbHCs","Messmer Delphine","48.8541374","2.3800704",NA,"5","1","point_of_interest establishment"
"ChIJOaO4Tghy5kcR-nDMM8TZG2M","Mirela Karayannis Psychologue Paris 11","48.8538636","2.3803696",NA,NA,NA,"health point_of_interest establishment"
"ChIJOaO4Tghy5kcRivx-F0Aesu4","Jeanne Clauteaux","48.8538208","2.3803415",NA,NA,NA,"point_of_interest establishment"
"ChIJtRq3SAhy5kcRIJhRQbSN-Jg","Stern Int Consultants And More","48.8539822","2.3801753",NA,NA,NA,"point_of_interest establishment"
"ChIJo1P1Tghy5kcRtxy9JAks2Hs","La baguette de paris","48.8537192","2.3804149","1","4.1","36","bakery food point_of_interest store establishment"
"ChIJ4WPERwhy5kcRM9L31EDcy7s","md-architectures","48.8541194","2.3801688",NA,NA,NA,"point_of_interest establishment"
"ChIJeVOXTwhy5kcRAqtr02NpcpA","Septime La Cave","48.8537466","2.3801829",NA,"4.6","179","point_of_interest establishment"
"ChIJl--iTQhy5kcRqNKroVE2MPs","L'Incognito","48.8536854","2.3805796",NA,"4.1","145","bar food point_of_interest establishment"
"ChIJjffwTwhy5kcRAy-QEnypmxE","Oplato","48.853656","2.380119","2","4.7","301","restaurant bar food point_of_interest establishment"
"ChIJqZHpWghy5kcRjjrKq4Rfq2o","Ar Baradoz","48.853671","2.3799774",NA,NA,NA,"restaurant food point_of_interest establishment"
"ChIJVyz3Tghy5kcRqysGrgf-uCY","Holy Holster bar","48.8538599","2.3802534","1","4.8","155","bar point_of_interest establishment"
"ChIJNXWjUghy5kcRU4ZwXR1Yn6I","L'Antiquaire de L'Optique","48.8535671","2.3807102",NA,"4","14","health point_of_interest store establishment"
"ChIJD7fiBh9u5kcRYJSMaMOCCwQ","Paris","48.856614","2.3522219",NA,NA,NA,"locality political"
"ChIJm_-GOAhy5kcRha68iDjSBKk","Ilomba Images","48.8542667","2.379983",NA,NA,NA,"point_of_interest establishment"
"ChIJcXILUQhy5kcRotZE9dpaGzc","Raviolis de juin","48.8535153","2.3803036","1","4.2","179","restaurant food point_of_interest establishment"
"ChIJl--iTQhy5kcRXTxMq6Dza30","cave, bar à vin, bar à bière, cave à manger, whiskys rhums et spiritueux","48.8536985","2.3805509",NA,"4.4","9","bar point_of_interest establishment"
"ChIJcXILUQhy5kcRDna-_beMoB4","Louie Louie","48.8534986","2.380368","2","4.4","770","meal_delivery meal_takeaway restaurant food point_of_interest establishment"
"ChIJ1ZPjRghy5kcR_HsUjZqnDl8","Studio Libellule","48.8540166","2.3798761",NA,NA,NA,"point_of_interest establishment"
"ChIJf4I1UAhy5kcRbGqDWljlPVo","Mercerie de Charonne","48.8536557","2.3801186",NA,"4.7","146","point_of_interest store establishment"
"ChIJf4I1UAhy5kcR-JQ1JgxDXJM","De Visu Opticien","48.8536557","2.3801186",NA,NA,NA,"health point_of_interest store establishment"
"ChIJV3hVIJ9z5kcRO6sEkBuRElY","MoneyGram","48.8538636","2.3803696",NA,NA,NA,"finance point_of_interest establishment"
"ChIJOaO4Tghy5kcRMoFTtTO9XMU","GOUTTE DE TERRE","48.8538636","2.3803696",NA,NA,NA,"point_of_interest clothing_store store establishment"
"ChIJheNWJWRy5kcRfkyX7hRT98U","Manon Jouitteau - Psychologue Psychanalyste Paris 11","48.8538636","2.3803696",NA,NA,NA,"health point_of_interest establishment"
"ChIJLRxaKxlz5kcRXGDxS6Pm3RE","Incent Plus","48.8539822","2.3801753",NA,NA,NA,"point_of_interest establishment"
"ChIJSafLc0Zz5kcRszinpdGgUNA","Infostrates","48.8539822","2.3801753",NA,NA,NA,"point_of_interest establishment"
"ChIJs_1FPZ9z5kcRPONPmtXekuk","Miroiterie APM","48.8539822","2.3801753",NA,NA,NA,"point_of_interest establishment"
"ChIJV1UxLPlt5kcRtI64TRFjkwk","Datanaos","48.8539822","2.3801753",NA,NA,NA,"point_of_interest establishment"
"ChIJtRq3SAhy5kcRN7N3Qx34aHM","Bersillon Naomi","48.8539822","2.3801753",NA,"5","3","health point_of_interest establishment"
"ChIJtRq3SAhy5kcRjgLdFI6T-Ls","Paoli Claude","48.8539822","2.3801753",NA,NA,NA,"point_of_interest establishment"
"ChIJ9QW0TQhy5kcREZd9zerEEUE","Hi Matic Paris","48.8537402","2.3805528",NA,NA,NA,"point_of_interest establishment"
"ChIJNSIVrwFu5kcRFO_DnaDv5XA","Ceccof","48.8541492","2.3801153",NA,"1","1","point_of_interest establishment"
"ChIJ9cHPRQhy5kcRkA_xydq7mf4","Sulpice Jean-Denis","48.8539178","2.379955",NA,NA,NA,"point_of_interest establishment"
"ChIJ89zUX2Vu5kcRJxmYseL2ij4","MagmaCultura","48.8541374","2.3800704",NA,NA,NA,"point_of_interest establishment"
"ChIJHU_z_Pdt5kcRSuIPtSOuoqs","MMD Paris","48.8541374","2.3800704",NA,NA,NA,"point_of_interest establishment"
"ChIJ5dfqRwhy5kcROtnUL7UTJ9w","CIThéA INTERM'AIDE - CONSULTATIONS - EXPERTISES","48.8541374","2.3800704",NA,"1.6","7","health point_of_interest establishment"
"ChIJVaq4Rwhy5kcRyhPTdFn_kvA","Meunier Pascal","48.8541374","2.3800704",NA,"5","1","furniture_store home_goods_store point_of_interest store establishment"
"ChIJV6gCUghy5kcRs3j1jU9o6ho","Pierres Chaudes","48.8535716","2.3807144",NA,NA,NA,"point_of_interest establishment"
"ChIJgbEqUAhy5kcR9ny5fbqFmAE","Maculin","48.8536032","2.3802559",NA,NA,NA,"point_of_interest establishment"
"ChIJ1ZPjRghy5kcRizIEvlKSBqs","AFGH Association Française de Gymnastique Holistique","48.8540166","2.3798761",NA,NA,NA,"point_of_interest establishment"
"ChIJgTrvRghy5kcRRj3qmAFlCqk","Mollie Denis Agnes Marguerite Mar","48.8540166","2.3798761",NA,NA,NA,"point_of_interest establishment"
"ChIJgTrvRghy5kcRIXZNWLwalIw","Alibran Florence","48.8540166","2.3798761",NA,NA,NA,"physiotherapist health point_of_interest establishment"
"ChIJ9xx1pdpz5kcRjMeIgqgb09Q","Segardmtouillet","48.853671","2.3799774",NA,NA,NA,"point_of_interest establishment"
"ChIJqZHpWghy5kcRFdWeXe2HSIM","Xavier Graal","48.853671","2.3799774",NA,NA,NA,"point_of_interest establishment"
"ChIJoaA1TQhy5kcRB3SK2nepGSg","Doucoure MK","48.853789","2.380932",NA,NA,NA,"point_of_interest establishment"
"ChIJV6gCUghy5kcR3jm2pe6rOwE","Victoria Antiquites","48.8535737","2.3806897",NA,"3","5","furniture_store home_goods_store point_of_interest store establishment"
"ChIJm_-GOAhy5kcR4xFmsviVpmA","Chatais Pascal","48.8542667","2.379983",NA,"4.6","11","doctor health point_of_interest establishment"
"ChIJAXIpBkFu5kcRa9Tu31We62U","1000 & 1 Signes","48.853494","2.3802283",NA,"4.8","215","restaurant food point_of_interest establishment"
"ChIJcT-RUQhy5kcR7UJlqFmQro8","Quasars","48.8535006","2.3803633",NA,"5","1","point_of_interest establishment"
