"Id","Name","Lat","Lng","Price_level","Rating","Nb_Rating","Type"
"ChIJqV-o-mdu5kcRdkA-vZFZyic","38-42 Rue de Clignancourt","48.8870162","2.3477028",NA,NA,NA,"route"
"ChIJ2freVV1u5kcRKtg13rJqFKo","Eureka Services","48.8867349","2.3469586",NA,"5","1","point_of_interest establishment"
"ChIJK7smjuJt5kcRu5JGenK3OTM","Cyclope","48.8868034","2.3467834",NA,"3.2","5","point_of_interest establishment"
"ChIJsYvu8Gdu5kcRN377lQNb5hY","L'Attrape-Coeurs bar","48.8871113","2.3472979","2","4.4","79","bar point_of_interest establishment"
"ChIJ28UJ-Gdu5kcRMhugzPeIXG8","Le White","48.8869668","2.3470042",NA,NA,NA,"point_of_interest establishment"
"ChIJX2b2-Gdu5kcRzC6WRdoHyQM","Splendens Factory","48.8868591","2.3470608",NA,"5","2","point_of_interest establishment"
"ChIJdU6l9mdu5kcR-kHqD8Dtw70","Exis","48.887289","2.3473315",NA,NA,NA,"point_of_interest establishment"
"ChIJg0jn-2du5kcR6JFZK4NMcIg","Toloache","48.8867364","2.3475069",NA,"4.6","112","restaurant food point_of_interest establishment"
"ChIJ62fl72du5kcRfqOxM1JjpPc","Le S.p.e.c.t.r.e","48.8870412","2.3478415",NA,NA,NA,"point_of_interest establishment"
"ChIJ62fl72du5kcR5Oo3ZDXgLK4","Union Locale CGT 18E Arr Paris","48.8870412","2.3478415",NA,"5","1","point_of_interest establishment"
"ChIJoWFAVl1u5kcR6QdVdciIgS4","Helico","48.8870404","2.3466868",NA,NA,NA,"point_of_interest establishment"
"ChIJZTgoAWhu5kcRx_Cxpb3wfo0","Atelier VongDC - Vong Design Collaborative","48.8866484","2.3475143",NA,NA,NA,"point_of_interest establishment"
"ChIJ9WD8WV1u5kcRdiO8OTYKkzc","The Boat","48.8868034","2.3467834",NA,"5","1","point_of_interest establishment"
"ChIJIUay5Gdu5kcRApMCI0fr518","l'Annexe du Troquet","48.8867472","2.347759",NA,"4.2","66","bar restaurant food point_of_interest establishment"
"ChIJn2By5Wdu5kcRjdGY3fhQL2I","La Chope du Château Rouge","48.8869548","2.3478061",NA,"4.2","212","lodging bar restaurant food point_of_interest establishment"
"ChIJhbBu-mdu5kcRABr60JHPeCc","Au Clair de Lune","48.8869805","2.3474286","1","4.1","232","bar cafe restaurant food point_of_interest establishment"
"ChIJ28UJ-Gdu5kcRNRvjOoQQPH8","Monument - Fashion and lifestyle communication agency - Paris","48.8869668","2.3470042",NA,NA,NA,"point_of_interest establishment"
"ChIJAb_k-Gdu5kcRtIBuRPXYKm4","Le Rosie","48.886752","2.347134",NA,"4","74","bar point_of_interest establishment"
"ChIJsVdS7mdu5kcRTBfKUN4t-C8","Goudenege Architectes","48.8871476","2.3479663",NA,"5","2","point_of_interest establishment"
"ChIJD7fiBh9u5kcRYJSMaMOCCwQ","Paris","48.856614","2.3522219",NA,NA,NA,"locality political"
"ChIJUV4e72du5kcR19dLhP-XB1Y","Hôtel Villa Montmartre","48.887148","2.347966",NA,"3.8","177","lodging point_of_interest establishment"
"ChIJhbBu-mdu5kcRcjDTt7koz9g","Yokoso","48.887049","2.347404",NA,"4.4","63","restaurant food point_of_interest establishment"
"ChIJGWju8Gdu5kcR42fw8tBiwrk","Boucherie Montmartroise - Aux Fins Gourmets","48.8871113","2.3472979",NA,"4.7","15","food point_of_interest store establishment"
"ChIJ62fl72du5kcRItB2WJ9K_cc","Collin Mokchanov Elise","48.8870412","2.3478415",NA,NA,NA,"point_of_interest establishment"
"ChIJn0GE-Wdu5kcRU80dGT7HMQE","Gamonal Grégory","48.8869085","2.3473025",NA,NA,NA,"point_of_interest establishment"
"ChIJhzrl9mdu5kcR1RrOQPdllZc","SO’PARABOX","48.887204","2.3472425",NA,NA,NA,"point_of_interest establishment"
"ChIJ_YJdbzVv5kcRpovqp9e30PI","Ch Batiment","48.887204","2.3472424",NA,NA,NA,"plumber finance point_of_interest establishment"
"ChIJ9W_gVT1u5kcRM5xeO_3uatg","Association Capoeira Canta Galo","48.887204","2.3472424",NA,NA,NA,"health point_of_interest establishment"
"ChIJ28UJ-Gdu5kcRTNMNqVKeQUE","Kujua","48.8869668","2.3470042",NA,NA,NA,"point_of_interest establishment"
"ChIJG-hM-mdu5kcRKhx9-dJ0NW8","Les Caves Parisiennes","48.8868252","2.3474479",NA,"4.2","20","liquor_store food point_of_interest store establishment"
"ChIJsa-Q8Wdu5kcR7RS25Rfpe94","La Traversée","48.8872645","2.3475986","2","4.5","338","bar restaurant food point_of_interest establishment"
"ChIJmWnL-mdu5kcRSxLeVAx9zoQ","Zribi Andre","48.8872645","2.3475986",NA,"5","1","pharmacy health point_of_interest store establishment"
"ChIJMSnLh9dv5kcRlmyVeUu8HCg","Borderline","48.886826","2.3476452",NA,NA,NA,"point_of_interest establishment"
"ChIJZTAQ9Gdu5kcR7VKlgJsQj5E","Immobilier Parisien","48.8873554","2.3472754",NA,"4.5","8","real_estate_agency point_of_interest establishment"
"ChIJi2hS_Gdu5kcR5qFKGD7pqCU","Muller","48.8867419","2.3475571",NA,NA,NA,"transit_station point_of_interest establishment"
"ChIJZTAQ9Gdu5kcRxZJ9vFN-Ekc","Galerie Wenge","48.8874052","2.34725",NA,"4.8","8","jewelry_store point_of_interest store establishment"
"ChIJ82D8WV1u5kcRCk1Tje1EQas","La Porteña","48.8867243","2.3470558","1","4.6","475","restaurant food point_of_interest establishment"
"ChIJoWFAVl1u5kcRjq3eRENKFhs","Palisser Danielle","48.8870404","2.3466868",NA,NA,NA,"point_of_interest establishment"
"ChIJAQCQ72du5kcRMEcDB2ecfqY","Grk Luxury Media","48.8870412","2.3478415",NA,NA,NA,"point_of_interest establishment"
"ChIJv_fQ7Wdu5kcRIj05-f6sJrw","Walsh Coffey Victoria Margaret","48.8870412","2.3478415",NA,NA,NA,"point_of_interest establishment"
"ChIJVxav_mdu5kcRRv4Iown--_c","Paristanbul","48.8866755","2.3474377","1","4.1","33","restaurant food point_of_interest establishment"
"ChIJmd_w_Gdu5kcRURKcNs4HQWs","Midi 2000","48.8866755","2.3474377",NA,NA,NA,"point_of_interest establishment"
"ChIJmd_w_Gdu5kcRJ1z-rllpxRU","Colbeau Gabriel","48.8866755","2.3474377",NA,NA,NA,"electronics_store point_of_interest store establishment"
"ChIJmd_w_Gdu5kcRnj6Oo_rUIzA","Rouiller Carole","48.8866755","2.3474377",NA,NA,NA,"point_of_interest establishment"
"ChIJ03-B_Gdu5kcRsKwrbbCtr6o","Míele Laverie Libre Service","48.8866834","2.3475212",NA,"2.5","2","laundry point_of_interest establishment"
"ChIJmd_w_Gdu5kcRVkrNFJCnebg","Le Libre Service Sofia","48.8866739","2.3475007",NA,"4","1","laundry point_of_interest establishment"
"ChIJ9WD8WV1u5kcR6b_W5KdxcLc","PIXEL CARRE","48.8870404","2.3466869",NA,NA,NA,"point_of_interest establishment"
"ChIJT7YIzMNv5kcR3ohWMrjqTx8","Acrobbat Films","48.8870404","2.3466868",NA,"5","1","point_of_interest establishment"
"ChIJ82D8WV1u5kcRxvvWUsQoKvg","Blanchet Eric","48.8870404","2.3466868",NA,NA,NA,"point_of_interest establishment"
"ChIJ82D8WV1u5kcRNsEHRYJKTIQ","Nicolas Thomas","48.8870404","2.3466868",NA,NA,NA,"point_of_interest establishment"
"ChIJoWFAVl1u5kcR8Yav4vFbzTs","Antoine Mélanie","48.8870404","2.3466868",NA,NA,NA,"point_of_interest establishment"
"ChIJIRS8I3Bv5kcRbPnWm3GQHVg","La Traversée à Côté","48.8874157","2.3475159",NA,"4","1","bar food point_of_interest establishment"
"ChIJX-q582du5kcRUYi80_Gs8fY","Boulangerie Mehdi","48.8874171","2.3475162",NA,"5","1","point_of_interest establishment"
"ChIJhXVY7Wdu5kcRHPCoRwR5FcY","Tima Cosmétique","48.8874081","2.3475677",NA,NA,NA,"point_of_interest establishment"
"ChIJRxQ9-zhv5kcRUPInHKaDejk","Pizzico","48.8867472","2.347759",NA,"4.8","8","restaurant food point_of_interest establishment"
"ChIJo7T5unpv5kcRzHv6BYNuv4k","La Cantine Montmartre","48.8867472","2.347759",NA,"4.2","23","restaurant food point_of_interest establishment"
"ChIJcVKa82du5kcRr2VTpJKcbPU","Aǵence De Voyages","48.8874517","2.3474495",NA,NA,NA,"travel_agency point_of_interest establishment"
"ChIJ3TyL_Gdu5kcROTO52qwhTyA","Restaurant Paris-Istanbul","48.8866042","2.3474737",NA,NA,NA,"point_of_interest establishment"
"ChIJUV4e72du5kcR2ZqOYCRoGUA","Hack Lawn Care","48.8871476","2.3479663",NA,NA,NA,"point_of_interest establishment"
"ChIJUV4e72du5kcRPjpQWRHMTZo","Oueghlani & Fils","48.8871476","2.3479663",NA,"5","1","point_of_interest establishment"
