"Id","Name","Lat","Lng","Price_level","Rating","Nb_Rating","Type"
"ChIJhdbiqHRy5kcRkmHkTDdrQtA","54-60 Rue de Montreuil","48.8504702","2.3896724",NA,NA,NA,"route"
"ChIJY-4cqXRy5kcRIVIjxVtGdP0","SLS","48.8507239","2.3895449",NA,NA,NA,"point_of_interest establishment"
"ChIJv1h5qXRy5kcR8ERKWuW9gS8","Le Négus","48.8504155","2.3893048","2","4.4","261","bar restaurant food point_of_interest establishment"
"ChIJAz7Lay5u5kcRiQwkRZGI6w4","Syngeco","48.850818","2.389704",NA,"1.8","5","real_estate_agency point_of_interest establishment"
"ChIJ02_JpnRy5kcR7MxTswqLulw","Guillaume Nicolas","48.8505223","2.3900249",NA,NA,NA,"point_of_interest establishment"
"ChIJWyVepXRy5kcRsNbZXYap0dE","Ertir","48.85053","2.3897702",NA,"1","3","real_estate_agency point_of_interest establishment"
"ChIJWyVepXRy5kcRM9b1yVUThnI","Denis Clement","48.85053","2.3897702",NA,NA,NA,"point_of_interest establishment"
"ChIJtWwGr3Ry5kcR4nRBAvC4mDk","ATAK3000","48.8507239","2.3895449",NA,"3","2","general_contractor point_of_interest establishment"
"ChIJY-4cqXRy5kcR6O8SCRUSG-M","Mfg","48.8507239","2.3895449",NA,NA,NA,"point_of_interest establishment"
"ChIJY-4cqXRy5kcRnIqQqnWJcZY","CD Conseil","48.8507239","2.3895449",NA,NA,NA,"point_of_interest establishment"
"ChIJm2DQ01Rz5kcR3POVvjpNqI0","Andreux Sylvie","48.8506642","2.3894136",NA,NA,NA,"health point_of_interest establishment"
"ChIJAQD0VXNy5kcRRhp3xT6EpEU","The Rooster Bar","48.850411","2.3896017","2","4.6","34","bar point_of_interest establishment"
"ChIJAe0-WHNy5kcRSnKhw1hAxDE","Pizza Venise.","48.8503621","2.3897306","1","4.2","71","meal_delivery meal_takeaway restaurant food point_of_interest establishment"
"ChIJPS-oqXRy5kcRsH5Wz3Xh3O8","Cabinet Chiropratique","48.8504261","2.3894462",NA,NA,NA,"health point_of_interest establishment"
"ChIJ-yl6qXRy5kcRewYPaiJGO-s","New York Nails New York Nails","48.8504029","2.3893903",NA,"4.4","24","beauty_salon point_of_interest establishment"
"ChIJk8l3p3Ry5kcRGZruHUiFi3A","Benoît Drouillat","48.8503103","2.3898325",NA,NA,NA,"point_of_interest establishment"
"ChIJv1h5qXRy5kcRtyVNeBwRZ7g","Fournet Alain","48.8503988","2.3893441",NA,NA,NA,"doctor health point_of_interest establishment"
"ChIJhfMMu3Ry5kcR02MEJNvpi0E","Cabinet Conseil Redelsper","48.8509884","2.3899023",NA,NA,NA,"point_of_interest establishment"
"ChIJ6VMtoXRy5kcR_-bGjZYGwtI","Base Protection","48.8503256","2.3900249",NA,"5","1","point_of_interest establishment"
"ChIJD7fiBh9u5kcRYJSMaMOCCwQ","Paris","48.856614","2.3522219",NA,NA,NA,"locality political"
"ChIJzb65oXRy5kcR8xDXfS5cAGg","onidesign.fr","48.8503913","2.3902475",NA,NA,NA,"point_of_interest establishment"
"ChIJgf9xoHRy5kcRsnHndKP_3ZE","Laforet Nation agences immobilières (vente, location, gestion)","48.8504634","2.3903254",NA,"5","99","real_estate_agency point_of_interest establishment"
"ChIJAQDArnRy5kcRe5a50oqglX0","Hanssen Machine Tools","48.8506642","2.3894136",NA,NA,NA,"point_of_interest establishment"
"ChIJAQDArnRy5kcROcyKe3xaDYM","Aqua Rénovation Bâtiment","48.8505592","2.3893829",NA,NA,NA,"general_contractor point_of_interest establishment"
"ChIJHTv2qHRy5kcRB7j-4zTHwjE","Solabaie Les Menuisiers Rosemar","48.8504044","2.3895406",NA,"3.8","9","point_of_interest establishment"
"ChIJY-4cqXRy5kcRtRllW_xZ-EU","Dr Hélène NOWAK","48.8507239","2.3895449",NA,"4.4","7","doctor health point_of_interest establishment"
"ChIJtXHJpnRy5kcRGE8m6JquPcc","Franprix","48.85047","2.39014",NA,"3.4","204","supermarket grocery_or_supermarket restaurant food point_of_interest store establishment"
"ChIJrYp0VhNy5kcR4gitc7VowqI","Printing Printstart - Bercy Copy","48.8505173","2.3892157",NA,"4.5","19","point_of_interest store establishment"
"ChIJtXHJpnRy5kcR_a1RS7GuONY","Itiktak","48.8505574","2.389822",NA,NA,NA,"point_of_interest establishment"
"ChIJY-4cqXRy5kcRERs_LSbMkjo","Sociéte Domiciliations Prestations Services","48.8507239","2.3895449",NA,NA,NA,"point_of_interest establishment"
"ChIJ24n9MoRz5kcRdJPjoE64PY8","ROBIN DES TOITS PARISIENS","48.8505296","2.389764",NA,"5","7","real_estate_agency point_of_interest establishment"
"ChIJl_8fewFz5kcRrmz8fFIAPB0","Mathilde Ducerf, psychologue","48.85053","2.3897702",NA,NA,NA,"health point_of_interest establishment"
"ChIJTQBtpnRy5kcR_EpTgxVxJWI","DATEO CONSULTING","48.85053","2.3897702",NA,NA,NA,"point_of_interest establishment"
"ChIJswFtpnRy5kcRMkqdDGoWz8o","Castor Profil","48.85053","2.3897702",NA,"5","1","general_contractor point_of_interest establishment"
"ChIJv-4cqXRy5kcRj6IMk7Btm-U","Despierre Conseils","48.8507239","2.3895449",NA,NA,NA,"point_of_interest establishment"
"ChIJIV8anvRz5kcRl673Oeq0n2E","Post Office","48.8507122","2.3899685",NA,"1","2","post_office finance point_of_interest establishment"
"ChIJC_FIpnRy5kcR7347e1kbLDw","Euro Centre","48.8505596","2.389513",NA,NA,NA,"store point_of_interest establishment"
"ChIJiacfnEtz5kcRna9EfprLCxg","Kinésithérapeute à domicile","48.8506917","2.3899871",NA,NA,NA,"physiotherapist health point_of_interest establishment"
"ChIJfbrMStlz5kcR5sov54zHaxw","Picadeli, bar à salades","48.8506917","2.3899871",NA,NA,NA,"restaurant food point_of_interest establishment"
"ChIJR19bpnRy5kcRuzhocUmhJ6E","Plas Gilles","48.8508178","2.389704",NA,NA,NA,"point_of_interest establishment"
"ChIJm2HIPsBz5kcRqM3tLeK0NjE","ADEXCA","48.8506642","2.3894136",NA,NA,NA,"accounting finance point_of_interest establishment"
"ChIJ3z8CKaeF50cR8xwTkWrDNs0","MB CONSTRUCTION","48.8506642","2.3894136",NA,NA,NA,"painter general_contractor point_of_interest establishment"
"ChIJbfDh_Jtz5kcRExTYF-G3cjw","HARMONY PROMOTION","48.8506642","2.3894136",NA,NA,NA,"finance real_estate_agency general_contractor point_of_interest establishment"
"ChIJyb4_i-xz5kcRARwLGOa28B4","KM BAT","48.8506642","2.3894136",NA,NA,NA,"general_contractor point_of_interest establishment"
"ChIJx2dPlT5z5kcRqQXQoEdz0qU","Credit Libra Paris","48.8506642","2.3894136",NA,"5","3","finance point_of_interest establishment"
"ChIJAQDArnRy5kcR2D2CvbW9d5c","Drawing Classes","48.8506642","2.3894136",NA,NA,NA,"point_of_interest establishment"
"ChIJGVfZ0llz5kcRJUxysGNqnwg","UCA COIN France - United Crypto Alliance","48.8506642","2.3894136",NA,NA,NA,"finance point_of_interest establishment"
"ChIJ0U-F3W9z5kcR1m5cE5hidfk","Monsieur nuisibles debarras","48.8506642","2.3894136",NA,"5","3","point_of_interest establishment"
"ChIJAQDArnRy5kcRfhmxc38ThEQ","MAXAM","48.8506642","2.3894136","2","4.3","116","bar restaurant food point_of_interest establishment"
"ChIJtcSjxxFu5kcRQjyV_ptHfmQ","Débarras et Nettoyages","48.8506642","2.3894136",NA,"5","41","point_of_interest establishment"
"ChIJjZLMpnRy5kcR7J4mN5qSKVQ","Andre Bernard Alfredo","48.8504666","2.3899541",NA,NA,NA,"point_of_interest establishment"
"ChIJs1ZW7MRz5kcRZR2OjAC-3UU","Once Cocktail Bar","48.8504018","2.389811",NA,"4.9","92","bar point_of_interest establishment"
"ChIJTQmVq3Ry5kcRn9m7x9y3QYc","REALISE BTP","48.8505592","2.3893829",NA,NA,NA,"point_of_interest establishment"
"ChIJG13yKgJz5kcRSQ1Le_vHlvc","Dumalu","48.8505592","2.3893829",NA,NA,NA,"finance point_of_interest establishment"
"ChIJZQH8q3Ry5kcRNgmKDsEpW9w","Raw 57","48.8505604","2.389377",NA,NA,NA,"point_of_interest establishment"
"ChIJ10K3D1Zz5kcRrDdw7aDVwZw","Agence web décollage","48.8503621","2.3897306",NA,NA,NA,"point_of_interest establishment"
"ChIJB9PAp3Ry5kcR-VIdSUE5YAc","NATHAN DELAVICTOIRE","48.8503621","2.3897306",NA,NA,NA,"point_of_interest establishment"
"ChIJbRhlsrhz5kcRxNE9tQ1FVg4","Le Chef en box","48.85034","2.3898786",NA,"4.9","34","bakery food point_of_interest store establishment"
"ChIJT9lDp3Ry5kcRdMbOeIInvls","Grellier Jacques","48.8503103","2.3898325",NA,NA,NA,"point_of_interest establishment"
"ChIJTwmVq3Ry5kcRI_E48kVcfr4","Atelier De La Forge Royale","48.8505173","2.3892157",NA,NA,NA,"point_of_interest establishment"
