"Id","Name","Lat","Lng","Rating","Nb_Rating","Type"
"ChIJl8turs1t5kcR_gkO5dQTOG4","10-12 Rue Barbanègre","48.8926702","2.3836482",NA,NA,"route"
"ChIJ4xoGTbht5kcRWDm2cmgeERo","Nursery School Barbanègre","48.8922551","2.3836866","4.4","7","school point_of_interest establishment"
"ChIJcR4hrs1t5kcRlGs1pmFCUCI","I T D Consulting","48.8925222","2.3836204",NA,NA,"point_of_interest establishment"
"ChIJb2gfrs1t5kcRz8v3J36rYI4","Capsule Corp","48.8925808","2.3836208",NA,NA,"point_of_interest establishment"
"ChIJD7fiBh9u5kcRYJSMaMOCCwQ","Paris","48.856614","2.3522219",NA,NA,"locality political"
