"Id","Name","Lat","Lng","Price_level","Rating","Nb_Rating","Type"
"ChIJSymXt0Nu5kcRPq0My4lUDB0","Boulevard de Rochechouart","48.8828222","2.3431944",NA,NA,NA,"route"
"ChIJwY5Mo0Nu5kcRUSNtBSt3crA","Aparthotel Adagio Paris Montmartre","48.8834044","2.3428979",NA,"4.2","457","lodging point_of_interest establishment"
"ChIJNYdHukNu5kcRc68FzsQy4vw","La Snc LTT","48.8830857","2.343041",NA,NA,NA,"point_of_interest establishment"
"ChIJJTVPvUNu5kcRVcKOJ6VvIrg","Les Dessous De Montmartre","48.8832841","2.3425396",NA,NA,NA,"real_estate_agency point_of_interest establishment"
"ChIJnw5jvUNu5kcRKe5pJ56YOpw","Se Rencontrer en France","48.8832229","2.3424865",NA,"3","1","point_of_interest establishment"
"ChIJndgFs0Nu5kcRrep5KgD2DtI","Pret A Manger Sacré Cœur","48.8832322","2.3436272","2","4.2","1747","restaurant food point_of_interest establishment"
"ChIJyYUyv0Nu5kcRzHqncN5eitw","Sylvie Buisson","48.8828132","2.3427799",NA,NA,NA,"point_of_interest establishment"
"ChIJ4f-YBlNv5kcRhlZpXfUIfjk","Le Salon des Dames","48.8833757","2.342759",NA,NA,NA,"point_of_interest establishment"
"ChIJB0uEpENu5kcR5JLWF00rppU","Pv Residences & Resorts France","48.8834481","2.3428868",NA,NA,NA,"travel_agency point_of_interest establishment"
"ChIJvQB1pENu5kcRbOWDRB2z3RU","Le Saint Regis","48.8834737","2.3428748","2","3.9","311","restaurant food point_of_interest establishment"
"ChIJAQAUvUNu5kcRLhQb7IX1sIM","Ert","48.8832324","2.3425821",NA,NA,NA,"point_of_interest establishment"
"ChIJuakczhdv5kcRGhFd-ron5eU","Chassaint & Cerclé Notaires","48.8832324","2.3425821",NA,"5","23","finance point_of_interest establishment"
"ChIJTREmAGhv5kcR319TfbL1Txo","Alice Design Studio - architecture d'intérieur","48.8832324","2.3425821",NA,NA,NA,"point_of_interest establishment"
"ChIJJcG1k0Nu5kcRw4gSPmO21Qk","Cœur de Talents","48.8832324","2.3425821",NA,NA,NA,"point_of_interest establishment"
"ChIJv4BFvUNu5kcRtSeVoa5MkDs","Gohlke Roland","48.8832324","2.3425821",NA,NA,NA,"point_of_interest establishment"
"ChIJNUErMPZv5kcR1nyklRJ2CgU","Studio Combo","48.8831963","2.3433921",NA,NA,NA,"point_of_interest establishment"
"ChIJAQCwsUNu5kcRLXRy6glwQ2k","Regain","48.8831963","2.3433921",NA,NA,NA,"point_of_interest establishment"
"ChIJ1xJ1vUNu5kcRBxbLk-qdaQA","ERT - Entreprise de domotique","48.8831851","2.342545",NA,NA,NA,"electrician point_of_interest establishment"
"ChIJ1xJ1vUNu5kcRjWZTQXKb3wk","Synd Copro Charles Dullin","48.8831851","2.342545",NA,NA,NA,"real_estate_agency point_of_interest establishment"
"ChIJD7fiBh9u5kcRYJSMaMOCCwQ","Paris","48.856614","2.3522219",NA,NA,NA,"locality political"
"ChIJEa9hD9pv5kcRCrfQGU6c_2Q","Pomme de Pain","48.8831769","2.3434441","2","3.8","158","meal_delivery cafe restaurant food point_of_interest establishment"
"ChIJKX_il0Nu5kcRhouHf41oyDw","Ciclop","48.8832705","2.3424724",NA,NA,NA,"point_of_interest establishment"
"ChIJlysNpENu5kcR-MFi3G1bPHA","La Favorita","48.8835615","2.342885","2","4.2","493","restaurant food point_of_interest establishment"
"ChIJeaHRpUNu5kcRdL3osOZNU4E","La Favourita","48.8835892","2.3430495",NA,"5","1","point_of_interest establishment"
"ChIJZ1SruUNu5kcR2vvVCZoFRL4","Paris Recharge Charging Station","48.882851","2.342989",NA,NA,NA,"point_of_interest establishment"
"ChIJa538uENu5kcRRWK4IyMcjCg","Brother’s Crêpes & Café","48.8828326","2.3429402","2","4.2","1184","restaurant bakery cafe food point_of_interest store establishment"
"ChIJyYYKl0Nu5kcRnR8K4tjjn84","Mira Belle","48.8832222","2.342345",NA,"4.5","11","point_of_interest clothing_store store establishment"
"ChIJodVQtE9v5kcRPfVsrBjqrRE","Centre Médical d'Appui (CMA) - Rochechouart","48.8828132","2.3427799",NA,NA,NA,"health point_of_interest establishment"
"ChIJyYUyv0Nu5kcRMae3LoDZvtI","Union Française des Experts","48.8828132","2.3427799",NA,NA,NA,"furniture_store home_goods_store point_of_interest store establishment"
"ChIJXRCjuENu5kcRLZFAEOG9x_4","Out-inn Monmatre","48.8828369","2.3426813",NA,NA,NA,"lodging point_of_interest establishment"
"ChIJL3hJv0Nu5kcRX-9WtZip8Kw","Valette-Coat Joëlle","48.8828369","2.3426813",NA,NA,NA,"point_of_interest establishment"
"ChIJocGntkNu5kcRFJp-KwTtHAs","J2m Retail","48.882954","2.3434978",NA,NA,NA,"point_of_interest establishment"
"ChIJeYPXo0Nu5kcREu6k0Dqg8bg","Le Roy Arnaud","48.883634","2.342723",NA,NA,NA,"doctor health point_of_interest establishment"
"ChIJeYPXo0Nu5kcRAIE7EOmlX70","Blais Jacques","48.883634","2.342723",NA,NA,NA,"doctor health point_of_interest establishment"
"ChIJeYPXo0Nu5kcR1VP-q1CQizI","Cole-Rocher Marie-Françoise","48.8836467","2.3426945",NA,NA,NA,"doctor health point_of_interest establishment"
"ChIJFbA7SENv5kcRsLjgY2X3JY8","coffe&me","48.8833248","2.3436665",NA,"5","1","cafe food point_of_interest establishment"
"ChIJOXWXrkNu5kcRZE9j5mLfFFU","Bénédicte Dussy","48.883538","2.343503",NA,NA,NA,"point_of_interest establishment"
