"Id","Name","Lat","Lng","Rating","Nb_Rating","Type"
"ChIJh1GqJ59t5kcROejeu9s-EvI","116 Boulevard Mortier","48.8725746","2.4086773",NA,NA,"route"
"ChIJM8fgIZ9t5kcRaGVl0ta51hw","Maddle shop - Ventes de clic-clac et Bz en lignes","48.8727611","2.4091153","4.4","9","furniture_store home_goods_store point_of_interest store establishment"
"ChIJH6FXH59t5kcRLLx2DhMm7p4","De Giudici Pascal","48.8727611","2.4091153",NA,NA,"point_of_interest establishment"
"ChIJH6FXH59t5kcRZBhbMhwWGuM","Sarl Mortier Regnault","48.8727611","2.4091153",NA,NA,"real_estate_agency lodging point_of_interest establishment"
"ChIJ10FSDW9t5kcRixjH4XDI0kY","Rack À Vélo","48.8728877","2.4088406",NA,NA,"point_of_interest establishment"
"ChIJYQISGJ9t5kcRLAAaL-Y8R3s","Paris Recharge Charging Station","48.873088","2.409207",NA,NA,"point_of_interest establishment"
"ChIJD7fiBh9u5kcRYJSMaMOCCwQ","Paris","48.856614","2.3522219",NA,NA,"locality political"
