"Id","Name","Lat","Lng","Rating","Nb_Rating","Type"
"ChIJmXId7nhy5kcRclcMGAxKfn8","14-22 Cité Champagne","48.8533785","2.4039786",NA,NA,"route"
"ChIJKfux7nhy5kcR0ipUJNrl5Oo","Commune de Paris","48.8533509","2.4043133","1","1","city_hall local_government_office point_of_interest establishment"
"ChIJa-wq6nhy5kcR8CWeIiqEUSw","Mairie De Paris","48.8534246","2.4045095",NA,NA,"city_hall local_government_office point_of_interest establishment"
"ChIJ86n763hy5kcRwp0v9KLLuPE","School Of La Providence","48.8534951","2.4044493","4.8","6","school point_of_interest establishment"
"ChIJoRNC6nhy5kcRvgqs5DpSeDs","Bozonnet Benjamin","48.853439","2.404578",NA,NA,"point_of_interest establishment"
"ChIJLxG17nhy5kcRcu8OANM9joQ","Ecole Polyvalente Champagne","48.8533509","2.4043133",NA,NA,"point_of_interest establishment"
"ChIJ0e7v6nhy5kcRw1H2O9Zn7FQ","Crèche Happy Zou Cité Champagne - La Maison Bleue","48.8536175","2.4045667","3","2","point_of_interest establishment"
"ChIJD7fiBh9u5kcRYJSMaMOCCwQ","Paris","48.856614","2.3522219",NA,NA,"locality political"
