"Id","Name","Lat","Lng","Price_level","Rating","Nb_Rating","Type"
"ChIJN0pUEpJt5kcRzE2rZYjx3ww","12-28 Rue Villiers de l'Isle Adam","48.8660393","2.3946767",NA,NA,NA,"route"
"ChIJv3GtQ5Jt5kcR7RaBQyCTVXo","Adoma","48.8665077","2.3944886",NA,"3.5","8","point_of_interest establishment"
"ChIJuyS0FpJt5kcRF9vKRd4YOaM","Braunstein Associes","48.8662174","2.3949229",NA,NA,NA,"point_of_interest establishment"
"ChIJsZBcFpJt5kcRLay-PPyEUCc","Benoît Dufrénoy","48.8664369","2.3948933",NA,"5","17","health point_of_interest establishment"
"ChIJByQtEpJt5kcRxSXfkn7LVe8","A.E.P.E.M","48.8660986","2.3948496",NA,NA,NA,"point_of_interest establishment"
"ChIJE_LNEJJt5kcRoX_YRuDM8uI","Le Comptoir","48.8662111","2.3950806","2","4.3","164","restaurant food point_of_interest establishment"
"ChIJiyMK-edt5kcR795DZUImBE4","Atelier ROBERTA","48.8664087","2.3944873",NA,"4.5","2","general_contractor point_of_interest establishment"
"ChIJ9Yz_a5Jt5kcReRiihIUsUc8","Centre social Caf - Annam","48.8661951","2.3941174",NA,"3.9","53","point_of_interest establishment"
"ChIJD7t5F5Jt5kcRwPYb_p9cKZI","Bsip","48.8663271","2.3953788",NA,NA,NA,"point_of_interest establishment"
"ChIJuyS0FpJt5kcRdcTZF0Nsh10","Kriegel Emmanuel","48.8662174","2.3949229",NA,NA,NA,"point_of_interest establishment"
"ChIJwVdmjLZt5kcRQMb1ok7pu9w","Dépannage Informatique Paris 20 MAC & PC - Réparation ecran iphone Sur Paris IDF - DR PHONE","48.8661406","2.3949068",NA,"5","1","point_of_interest establishment"
"ChIJ4TSErfdt5kcRWolTrwiEbUI","Maud Berniere - Acupuncture Traditionnelle Chinoise","48.8661406","2.3949068",NA,"5","8","health point_of_interest establishment"
"ChIJ5aNDEZJt5kcRQo0DYxl5kuI","Réparation écran IPhone paris 20 - Réparation ordinateur Paris 20 - ASP","48.8661406","2.3949068",NA,"5","11","point_of_interest establishment"
"ChIJI9ugMKJt5kcROu_8vzPW6VA","Nadège PIERRE","48.8661406","2.3949068",NA,NA,NA,"health point_of_interest establishment"
"ChIJFTpzBvtt5kcRum6dOvW6Es0","Réparation Ordinateur Paris 20 - Réparation IPhone Paris 20 - 24/7 EASY INFO PHONE","48.8661406","2.3949068",NA,"5","1","point_of_interest establishment"
"ChIJmbG-1N9t5kcRcWsLXFUwiY8","Amandine Marchat","48.8661406","2.3949068",NA,NA,NA,"health point_of_interest establishment"
"ChIJRx5DEZJt5kcR5ZE5kR32BCA","Reparation macbook paris - reparation ordinateur paris - GROUPE INFORMATIQUE","48.8661142","2.3948773",NA,"5","1","grocery_or_supermarket food point_of_interest store establishment"
"ChIJV1UFFZJt5kcRt8Y0TD0ub88","iridescent","48.8664075","2.3946531",NA,NA,NA,"point_of_interest establishment"
"ChIJf4UFE5Jt5kcR0bBhCsAMpDo","Mayflower Finance","48.8660991","2.3945242",NA,NA,NA,"point_of_interest establishment"
"ChIJD7fiBh9u5kcRYJSMaMOCCwQ","Paris","48.856614","2.3522219",NA,NA,NA,"locality political"
"ChIJuXYFaJJt5kcREKYEnzYWsAI","Sefico Nexia","48.8664087","2.3944873",NA,NA,NA,"accounting finance point_of_interest establishment"
"ChIJkUWLPZJt5kcR2EBuncyVD8s","Perspective Soignante","48.8664713","2.394864",NA,NA,NA,"point_of_interest establishment"
"ChIJsZBcFpJt5kcRy6kDVsl1yxU","Colombani Fabrice","48.8664713","2.394864",NA,NA,NA,"electronics_store home_goods_store point_of_interest store establishment"
"ChIJZ-LIFpJt5kcR6s9QXp18GhU","Chez les Passants","48.8662203","2.3951429",NA,NA,NA,"restaurant food point_of_interest establishment"
"ChIJKYBfy5Vt5kcRyaXvqcIExzU","PromoSanté Ile-de-France","48.866259","2.3952789",NA,"5","1","point_of_interest establishment"
"ChIJ3fzrGZJt5kcRGi0G4O2jxM0","COI-IWC","48.866259","2.3952789",NA,NA,NA,"point_of_interest establishment"
"ChIJwyplX91t5kcRKHFf5aWs3tQ","Pôle de Ressources Ile de france en Education thérapeutique","48.866259","2.3952789",NA,"4","2","point_of_interest establishment"
"ChIJAQB8DZJt5kcRcY1hQFCuH3o","de la neige en été","48.865877","2.39463",NA,"5","21","home_goods_store point_of_interest store establishment"
"ChIJAQB8DZJt5kcRd-VWStNL-uA","Papotart Est Une Association Culturelle Valorisant","48.8658769","2.3946302",NA,NA,NA,"point_of_interest establishment"
"ChIJ-bafbZJt5kcRtRqCGTEgu40","Michel Dropsy Jean-Pierre","48.865983","2.3943154",NA,NA,NA,"real_estate_agency point_of_interest establishment"
"ChIJx1gg2f1t5kcR2PWEB2dv3So","AMAP Ménil'sème","48.8662011","2.3941739",NA,"5","7","point_of_interest establishment"
"ChIJRRGpGZJt5kcRr04pzro17rE","Id2market Consulting","48.8663271","2.3953788",NA,NA,NA,"point_of_interest establishment"
"ChIJ9YapGpJt5kcRDweFnRkQf10","De La Chapelle Antoine","48.8659055","2.3951912",NA,NA,NA,"car_dealer point_of_interest store establishment"
"ChIJgeMxBZJt5kcRWyD286xUkzU","Abenia Olivier","48.8659055","2.3951912",NA,NA,NA,"point_of_interest establishment"
"ChIJme6XcpJt5kcRRiUbtrPnQ_Q","Billard Clara","48.865859","2.3943829",NA,NA,NA,"point_of_interest establishment"
"ChIJ-T0qwNRt5kcRfPHnJAmB6Wo","Yespark - Ménilmontant/Square du Docteur Granchet","48.866332","2.394904",NA,NA,NA,"parking point_of_interest establishment"
