"Id","Name","Lat","Lng","Rating","Nb_Rating","Type","Price_level"
"ChIJCfCJlUtu5kcRLSGVJSclRLw","5-1 Rue Jules Lefebvre","48.8804841","2.3279423",NA,NA,"route",NA
"ChIJy1qHhUtu5kcRLSAAs-CchiI","Maison Nabis by HappyCulture™","48.881171","2.3277916","4.3","217","lodging point_of_interest establishment",NA
"ChIJV5KrOEVu5kcRbtyT3P9RSLY","de Parcevaux Tristan - Fasciathérapeute - Paris 9","48.881174","2.328056","5","1","physiotherapist health point_of_interest establishment",NA
"ChIJEz0Kjktu5kcRYnbEnJWWqg0","Préfecture de Police (9ème arrondissement)","48.8811712","2.327885","2.7","15","police point_of_interest establishment",NA
"ChIJX1WejUtu5kcRU_5xcdmow3w","Basile Massé Kinésithérapeute et Thérapie manuelle","48.8811744","2.3280559","5","7","physiotherapist health point_of_interest establishment",NA
"ChIJLWF2nEtu5kcRuxaT4U86RE8","Le Passé Composé","48.8809175","2.3273363","4.8","4","book_store point_of_interest store establishment",NA
"ChIJoarn60tu5kcROG9YO4qUC54","Bismuth Julien","48.8808235","2.3284877","4.4","13","dentist health point_of_interest establishment",NA
"ChIJnYbxqzNu5kcRvqsjTObIPHA","ADDACTIS France","48.8805435","2.3276079","4.4","7","point_of_interest establishment",NA
"ChIJdyVw60tu5kcRxbGjPt_r2Jo","BP clichy","48.8808033","2.3285002","4.7","14","supermarket grocery_or_supermarket food point_of_interest store establishment",NA
"ChIJG0RT_sOoi0cRdMn1zRLmSsY","Empruntis L'agence Paris 09 courtier en crédit immobilier","48.8809085","2.32854","5","11","finance point_of_interest establishment",NA
"ChIJoarn60tu5kcRz2mnSri0LRQ","Charoy Bruno","48.8808009","2.3285414",NA,NA,"point_of_interest establishment",NA
"ChIJ48gN3Utu5kcRbIvBgYpKMWY","LE LABO OPTICAL CORNER","48.8809212","2.3285764",NA,NA,"health point_of_interest store establishment",NA
"ChIJb2SXkEtu5kcRTxL5FOsvOrs","SOS Villages d'Enfants","48.880948","2.328406","4","16","point_of_interest establishment",NA
"ChIJT9ybnEtu5kcRglULVKH5b7I","Raffinerie du Midi","48.8810705","2.3273674","3","2","point_of_interest establishment",NA
"ChIJFfFelEtu5kcRogXR4x_qPP4","Men Capital & Development","48.8806877","2.3280152",NA,NA,"point_of_interest establishment",NA
"ChIJ40o17Utu5kcRo07PqxZ1RmU","Garcia Gabriel","48.8810193","2.3282303",NA,NA,"point_of_interest establishment",NA
"ChIJMXaC7Utu5kcRtOElbhcmT1s","Farago Bela","48.8810193","2.3282303",NA,NA,"point_of_interest establishment",NA
"ChIJMXaC7Utu5kcR19NU1IiAFK8","Sitbon Jacques","48.8810193","2.3282303",NA,NA,"point_of_interest establishment",NA
"ChIJB7Q-jktu5kcRZdo-TrPAW8I","Clarion Collection Opéra Pavillon","48.8811741","2.3277825",NA,NA,"point_of_interest establishment",NA
"ChIJD7fiBh9u5kcRYJSMaMOCCwQ","Paris","48.856614","2.3522219",NA,NA,"locality political",NA
"ChIJv2LUjEtu5kcRXYlrCoaNQyY","Rivas Tony","48.8811744","2.3280559","4","1","point_of_interest establishment",NA
"ChIJ4aT4ultv5kcRnG6Fkf5Hhfw","Cabinet de Kinésithérapies et Thérapies Manuelles","48.8811925","2.3281153",NA,NA,"physiotherapist health point_of_interest establishment",NA
"ChIJQ4ixpmxv5kcRI08Tl2PKE24","ACS","48.8805587","2.3279514",NA,NA,"point_of_interest establishment",NA
"ChIJ4euym0tu5kcR8sAEY-rdI9k","Location Peniche Paris","48.8809175","2.3273363",NA,NA,"point_of_interest establishment",NA
"ChIJcc56OZBv5kcR7L6f56JA5dE","OBUNS","48.8809175","2.3273363","4.9","16","restaurant food point_of_interest establishment",NA
"ChIJvV6HnEtu5kcRqC1cH4UzLe4","Livres D'Occasion Achat","48.8809175","2.3273363","5","1","store point_of_interest establishment",NA
"ChIJUewJnEtu5kcRG2CM5fr5XWs","Somprasith Sananikone Lisa","48.8808266","2.3272696",NA,NA,"point_of_interest establishment",NA
"ChIJC1rsLDxu5kcR6mR2S80IKKg","ConvictionsRH","48.8805435","2.3276079","5","9","point_of_interest establishment",NA
"ChIJR-ggNQhv5kcRcp5WX3X4xwE","Heroic People","48.8805435","2.3276079",NA,NA,"point_of_interest establishment",NA
"ChIJUYJxZhNw5kcRP1eYZsKs5YY","Galadrim","48.8805435","2.3276079","4.8","10","point_of_interest establishment",NA
"ChIJ3fZ9Ej1v5kcRJHd7eu6cxeY","École V - Paris","48.8805435","2.3276079",NA,NA,"point_of_interest establishment",NA
"ChIJyYpJu2xv5kcRu2_INbJgz6I","Fleet - Location d'ordinateurs","48.8805435","2.3276079","4.6","9","point_of_interest establishment",NA
"ChIJW0_nb_hv5kcRKpT2PKRVbNY","Japan","48.8805434","2.327608",NA,NA,"school point_of_interest establishment",NA
"ChIJo-T1rndv5kcR6cJMkUYz2Po","WeWork 4 Rue Jules Lefebvre","48.8805434","2.327608","4.1","10","real_estate_agency point_of_interest establishment",NA
"ChIJcfxdk9Nv5kcRnMvpBCd4Cys","VOODOO","48.8805434","2.327608","3.6","20","point_of_interest establishment",NA
"ChIJMXaC7Utu5kcRPgsB23gAuPw","O.L. Print and Digital Design","48.8810585","2.3284527",NA,NA,"point_of_interest establishment",NA
"ChIJoarn60tu5kcR2atsnTjTar4","Waintrater Régine","48.8808068","2.3285012",NA,NA,"health point_of_interest establishment",NA
"ChIJg-Hnm1Rv5kcRzmXudoKA_bo","ATELIER BOBUN","48.8808266","2.3272696","3","7","restaurant food point_of_interest establishment",NA
"ChIJa2Hy7Utu5kcRaqETLybxWzk","JL DISTRIBUTION","48.8810798","2.3284507",NA,NA,"restaurant food point_of_interest establishment",NA
"ChIJJ7ORMSJv5kcR4YhvoMPv6gc","Dr Ava Bismuth","48.8807819","2.3285135","5","8","dentist health point_of_interest establishment",NA
"ChIJHfYr7Etu5kcRDhzS5lDou7A","Cite Monthiers","48.8809223","2.3285514",NA,NA,"point_of_interest establishment",NA
"ChIJ1QF28ktu5kcRdVxxoAmideY","Whoz","48.8810974","2.3284771",NA,NA,"point_of_interest establishment",NA
"ChIJ1QF28ktu5kcRXH3A6itIwlc","Gd Patrimoine","48.8810974","2.3284771",NA,NA,"point_of_interest establishment",NA
"ChIJ1QF28ktu5kcRiV58Sgg3cgw","Restaurant Fruits&Basilic Salad'bar","48.8810974","2.3284771","4.3","23","restaurant food point_of_interest establishment",NA
"ChIJ40o17Utu5kcRQl4Eum3WFlA","CHOY","48.8810121","2.3285307","4.1","40","restaurant food point_of_interest establishment",NA
"ChIJoarn60tu5kcR6TqonQ3JgJE","Brunon Anne","48.8808009","2.3285414",NA,NA,"point_of_interest establishment",NA
"ChIJ_cwC7Etu5kcRBzV9YtKKZdM","Supermarché Diagonal","48.8808198","2.3285574","4.1","7","grocery_or_supermarket food point_of_interest store establishment",NA
"ChIJzYqd7ktu5kcRegczBRV_9Vw","Villa Moncy Espace De Vente Sefri Cime","48.880884","2.3285707",NA,NA,"point_of_interest establishment",NA
"ChIJq7kq7Etu5kcR4hL_AoGnA9c","relief en pierre","48.8809351","2.3285696","2","1","point_of_interest establishment",NA
"ChIJn7mk80tu5kcRKljRsDOHdpc","Chez Papa","48.8811917","2.3284361","4.2","574","cafe restaurant food point_of_interest establishment","2"
