"Id","Name","Lat","Lng","Rating","Nb_Rating","Type"
"ChIJTV4Alm9u5kcRtRhQVLktbXI","21-13 Rue de Jessaint","48.8849533","2.3563332",NA,NA,"route"
"ChIJbQqeVxJu5kcR3q6T5di7agI","La Générale de Production","48.8854981","2.3556086","5","1","point_of_interest establishment"
"ChIJL0rVkG9u5kcRsVGerZ61wbU","Square Alain Bashung","48.8853421","2.3561919","3.7","101","park point_of_interest establishment"
"ChIJa_7coW9u5kcR2Miz8PdF_nY","Daslook","48.8848577","2.3555512",NA,NA,"point_of_interest establishment"
"ChIJ9WXavW9u5kcRsf7bFO1wUKc","Inter Plus","48.8848264","2.3562877","5","1","bakery restaurant food point_of_interest store establishment"
"ChIJ5RpH629u5kcR_eMM7B-xFp8","SPLIT Coworking","48.8851502","2.3565185","4.6","17","real_estate_agency point_of_interest establishment"
"ChIJ__-boW9u5kcRiNkGTtBETEE","Boca Chica Cine Circuit","48.8848184","2.355548",NA,NA,"point_of_interest establishment"
"ChIJiW7K4Zdv5kcRQC3HPGQAWtE","D Antin Olivier","48.885265","2.3553542",NA,NA,"lawyer point_of_interest establishment"
"ChIJ827cDVRu5kcRXP6Fgn1Ag50","ETIENNE ANDREAU - RÉALISATEUR - CAMERAMAN - MONTEUR VIDÉO","48.885259","2.356575","5","2","point_of_interest establishment"
"ChIJi12nlG9u5kcR70PHglgVsAw","AROBAZE","48.8852594","2.3565752","4.9","11","point_of_interest establishment"
"ChIJi12nlG9u5kcRhpk_qdmyMP4","Professeur Diaby","48.8852608","2.3565798",NA,NA,"point_of_interest establishment"
"ChIJ25bcoW9u5kcR1-nsKC0FMr4","Proxinformatique","48.8848577","2.3555512","5","2","electronics_store point_of_interest store establishment"
"ChIJiW7K4Zdv5kcR2iC0velQH5Y","SCP D'ANTIN BROSSOLLET","48.8853243","2.3552964",NA,NA,"lawyer point_of_interest establishment"
"ChIJTYIzhW9u5kcR1ygmWb29ZtA","Association des Travailleurs Maghrébins de France","48.8855886","2.3559178","3.9","18","point_of_interest establishment"
"ChIJjwVumW9u5kcRUka_qY6mJDg","Al Dahdah Marine","48.8852496","2.3556277",NA,NA,"point_of_interest establishment"
"ChIJh6A_l29u5kcRyJXUnWPD-Xw","""Ben's Alimentaire"" Alimentation Générale","48.8850849","2.3559773","3.5","2","grocery_or_supermarket food point_of_interest store establishment"
"ChIJJ7XD4uhv5kcRNK7OlLwmwuk","Chez mai","48.8852409","2.3559308","4.2","19","restaurant food point_of_interest establishment"
"ChIJ8VbomG9u5kcRIJqQfgscA9c","Le Melting Pot","48.8850622","2.3557322","4.6","51","restaurant food point_of_interest establishment"
"ChIJaRCvom9u5kcRO70LI7mn81w","Graine de Jardins","48.8849173","2.3559237","5","1","food point_of_interest establishment"
"ChIJD7fiBh9u5kcRYJSMaMOCCwQ","Paris","48.856614","2.3522219",NA,NA,"locality political"
"ChIJG7VhQxtv5kcRii9tK7yyaCE","La P'tite Ferme Pédagogique de la Goutte d'Or","48.8852593","2.3561731",NA,NA,"point_of_interest establishment"
"ChIJwUS1o29u5kcRbBcuCAKRq8g","Laverie Jessaint","48.884891","2.3557302","3","1","laundry point_of_interest establishment"
"ChIJQbAmo29u5kcRGc_jZ8JX5d8","Apagy Catherine Corine","48.8848304","2.3559226",NA,NA,"point_of_interest establishment"
"ChIJcdZik29u5kcRua6TDaGt5AE","MAME STORE","48.8852594","2.3565752",NA,NA,"point_of_interest establishment"
"ChIJ_Rd6vW9u5kcRwpvXaY8bUco","Boucherie Marhaba","48.884884","2.3561986","5","8","food point_of_interest store establishment"
"ChIJO1WFacdv5kcR8Yry0wydS9M","LES MAH-BOULES","48.8851061","2.3564103","4.7","26","bar restaurant food point_of_interest establishment"
"ChIJa_7coW9u5kcRZ79o_aMKuJc","Boucherie Amaar Sté","48.8848932","2.3555487",NA,NA,"food point_of_interest store establishment"
"ChIJza5tdWVu5kcRNwdCXNZONJM","Christophe Chaplain","48.8854685","2.3559166","5","1","physiotherapist health point_of_interest establishment"
"ChIJEaHJn29u5kcRjW-H3cp6s5w","Distique","48.8850919","2.3553627",NA,NA,"point_of_interest establishment"
"ChIJaRuOCm9u5kcRxqAtjpkFjlk","Barbes Services","48.8848606","2.3554006","5","4","point_of_interest establishment"
"ChIJt0mpt_9v5kcRxVPGD35rew0","Point Nickel","48.88487","2.356441",NA,NA,"atm bank finance point_of_interest establishment"
"ChIJxwFzI3Zv5kcRExeE15GummU","Le Nemrod","48.88487","2.356441",NA,NA,"bar point_of_interest establishment"
"ChIJBwpVnm9u5kcRIQcwQjpBQDc","LE CHIEN DE LA LUNE","48.8851015","2.355275","4.3","92","restaurant food point_of_interest establishment"
"ChIJQU8rdkGMikcRRug0FqG7ejM","My Happy Yoga, Course Yoga Paris","48.885259","2.356575","5","10","school point_of_interest establishment"
"ChIJcdZik29u5kcRgoVqVMv0EWQ","almaweb","48.8852594","2.3565752",NA,NA,"point_of_interest establishment"
"ChIJRZ4OH_Vv5kcRHWSFl7qBQSk","Dioptae","48.8852594","2.3565752",NA,NA,"point_of_interest establishment"
"ChIJcdZik29u5kcRb5B_z_N7Wx0","Owygo","48.8852594","2.3565752","5","1","point_of_interest establishment"
"ChIJ5RpH629u5kcR2DkYk3xcXFQ","Gomes Aurelie","48.8852594","2.3565752",NA,NA,"point_of_interest establishment"
"ChIJ5RpH629u5kcRJzFqn9ZPWl8","Valérie Michel","48.8852763","2.3565674",NA,NA,"point_of_interest establishment"
"ChIJy6davm9u5kcRzloZXvBwbtw","Etoile Du Sud","48.884817","2.3564484","5","2","convenience_store food point_of_interest store establishment"
"ChIJTYIzhW9u5kcREoTjq0gLkrs","Moonbikes Motors","48.8855886","2.3559178",NA,NA,"point_of_interest establishment"
"ChIJvwKopnpv5kcRtiOP8E68Ubk","Espace Dån Tiån","48.8854752","2.3559219",NA,NA,"health point_of_interest establishment"
