"Id","Name","Lat","Lng","Price_level","Rating","Nb_Rating","Type"
"ChIJJZW4PM5t5kcRb3Xarl5Ib28","Quai de la Marne","48.8892243","2.3817288",NA,NA,NA,"route"
"ChIJbTx6Js5t5kcRUZdX5fdW2yE","Comme Neuf Nettoyage","48.8890288","2.3815745",NA,"3.1","17","point_of_interest establishment"
"ChIJAYlJtIJt5kcR-HufdWur8pk","Association des Responsables de Copropriété","48.888738","2.38211",NA,"3","29","point_of_interest establishment"
"ChIJ9TcbLs5t5kcRcGSTpXEK1Aw","Bijoux fantaisie - Créateur - Paris","48.8885572","2.3815803",NA,NA,NA,"point_of_interest establishment"
"ChIJAeFYPs5t5kcRzImce75uQIw","Domlangues","48.8893002","2.3821386",NA,"4","2","travel_agency school health point_of_interest establishment"
"ChIJN9blMc5t5kcRoVQ6FnKb4Gw","Novolife","48.888738","2.38211",NA,NA,NA,"store point_of_interest establishment"
"ChIJT0UNN85t5kcRfhe7Hnybk_w","Novomed Group","48.888738","2.38211",NA,"1","1","health point_of_interest store establishment"
"ChIJyesTNs5t5kcRi2OyWO459rg","Théâtre de l'ABC","48.8885567","2.3822415",NA,"3.2","71","point_of_interest establishment"
"ChIJbTx6Js5t5kcRtZgSTGUDYB4","Graphiste Webdesigner Freelance Paris","48.8887452","2.3818878",NA,NA,NA,"point_of_interest establishment"
"ChIJq6rqMM5t5kcRDdCjx2DpS8U","Margy Consultants","48.8887452","2.3818878",NA,NA,NA,"point_of_interest establishment"
"ChIJi6OTOs5t5kcR-xVYBjB--LA","Jackowski Bernard","48.8887452","2.3818878",NA,NA,NA,"point_of_interest establishment"
"ChIJoa1XcPht5kcRgiSK_ORdEEk","Retraite Plus","48.8890288","2.3815745",NA,"4.9","111","point_of_interest establishment"
"ChIJT0UNN85t5kcRUvBbudm8yw4","Aerokyn masques","48.888738","2.38211",NA,NA,NA,"hospital health point_of_interest establishment"
"ChIJT0UNN85t5kcRo6X3w6F8z4U","Copro-devis","48.888738","2.38211",NA,NA,NA,"point_of_interest establishment"
"ChIJVWIkMs5t5kcRNXe4ePWSFLw","Bahouche Tsoufik","48.8887375","2.38211",NA,NA,NA,"point_of_interest establishment"
"ChIJfx8IN85t5kcRxmQLXXwEZwM","Paulat Daniel","48.8887375","2.38211",NA,NA,NA,"point_of_interest establishment"
"ChIJ-wR8Oc5t5kcR0NieFR-yqzs","Café Odilon.","48.8891832","2.3818542","2","4.3","514","restaurant cafe bar liquor_store food point_of_interest store establishment"
"ChIJaQ7QMc5t5kcRWEhIpFYCyJk","Maï Boiron","48.888634","2.3816547",NA,NA,NA,"point_of_interest establishment"
"ChIJL9wILs5t5kcRbu0FLIa_HWc","Boiron Anne-Marie","48.8885572","2.3815803",NA,NA,NA,"point_of_interest establishment"
"ChIJD7fiBh9u5kcRYJSMaMOCCwQ","Paris","48.856614","2.3522219",NA,NA,NA,"locality political"
"ChIJh4YBLs5t5kcRv794PGZfTqI","Saulnier Jeremie Rene Henri","48.8885572","2.3815803",NA,NA,NA,"point_of_interest establishment"
"ChIJAeFYPs5t5kcRnXichalSWgk","Everial CRM","48.8893002","2.3821386",NA,"5","1","point_of_interest establishment"
"ChIJHfvltQJt5kcRKoQsjyLc658","DMLD Créations","48.8886436","2.3816044",NA,NA,NA,"jewelry_store point_of_interest store establishment"
