"Id","Name","Lat","Lng","Price_level","Rating","Nb_Rating","Type"
"ChIJm3aHeURu5kcRmssxXfNiO2o","59-47 Rue d'Orsel","48.8835077","2.3407466",NA,NA,NA,"route"
"ChIJ5ZQlgkNu5kcR5kDVzXcq7aY","Le Progrès","48.883932","2.3413799","2","4.1","751","restaurant cafe food point_of_interest establishment"
"ChIJz7UJh0Nu5kcREwuLMYfxmpA","Century 21 Les Abbesses","48.883552","2.3411808",NA,"4.1","21","real_estate_agency point_of_interest establishment"
"ChIJLbBOgUNu5kcRx0-Wu5LGAgA","Cie Joelle Bouvier","48.8836919","2.3413916",NA,NA,NA,"point_of_interest establishment"
"ChIJAQCMZERu5kcRyYVXg4XB744","Mynore","48.8836339","2.3402422",NA,"4.2","14","point_of_interest store establishment"
"ChIJeaBa-CZw5kcRbmXS3-Vyik4","ELISA WEYGAND","48.8836339","2.3402422",NA,NA,NA,"point_of_interest establishment"
"ChIJcxqPeERu5kcR67NThBcgekw","meta – atelier acoustique","48.8835456","2.3410395",NA,NA,NA,"point_of_interest establishment"
"ChIJV-lFhUNu5kcRqdYcjGuAXEI","Christine Diegoni Gallery","48.883394","2.341005",NA,"3","4","art_gallery point_of_interest establishment"
"ChIJJQAYZURu5kcRdjPqIZYZ0fk","Créatrice de prêt à porter et robes de mariées inoubliables et écoresponsables","48.8834366","2.3402698",NA,"4.8","16","point_of_interest clothing_store store establishment"
"ChIJV-lFhUNu5kcRXyN9iPBma50","Zélia","48.8834378","2.3407981",NA,"4.9","181","point_of_interest clothing_store store establishment"
"ChIJ4c4Jh0Nu5kcRcExu1F0QtMU","L’hélice Resto","48.883524","2.3412494","2","3.8","102","restaurant food point_of_interest establishment"
"ChIJN4osZERu5kcR8x6dyGhw6i8","Flavia","48.8836339","2.3402422",NA,NA,NA,"real_estate_agency point_of_interest establishment"
"ChIJV-lFhUNu5kcR5sqoCSYYJeU","Fargant Joëlle","48.8834257","2.3412791",NA,NA,NA,"lawyer point_of_interest establishment"
"ChIJ_Wh3eERu5kcRZ3REC6UXRzU","Timkat Delplanque Benoit","48.8835456","2.3410395",NA,NA,NA,"point_of_interest establishment"
"ChIJN4osZERu5kcRIClBreiDdwk","Le Kokolion","48.8836339","2.3402422",NA,NA,NA,"point_of_interest establishment"
"ChIJk4aReURu5kcR9YsvIxgX2Zs","Sur La Gerre Comme Au Ciel","48.8834558","2.3407945",NA,"5","1","point_of_interest establishment"
"ChIJg1jzeURu5kcR7WTCI_wuwdU","Uni Food & Beverage","48.8834433","2.3407538",NA,NA,NA,"point_of_interest establishment"
"ChIJ2Z_URRVv5kcR_rYsrcvDOoo","hanna salah","48.8834433","2.3407538",NA,NA,NA,"accounting finance point_of_interest establishment"
"ChIJg1jzeURu5kcRJmc0YA8cUlE","sophro-hypnose-anneroge","48.8834433","2.3407538",NA,"5","1","health point_of_interest establishment"
"ChIJD7fiBh9u5kcRYJSMaMOCCwQ","Paris","48.856614","2.3522219",NA,NA,NA,"locality political"
"ChIJ7UCReURu5kcRXvFDqfTQ2aE","Dubail Charles-Edouard","48.8834433","2.3407538",NA,NA,NA,"general_contractor point_of_interest establishment"
"ChIJ9_TJct9v5kcRQG6s0B4RqOQ","Bubista Natural & NQV","48.8834637","2.3409871",NA,NA,NA,"jewelry_store point_of_interest store establishment"
"ChIJySg8ekRu5kcR3yi7IqJnOf8","Oenos Fruit Pierre Lumiere","48.8834295","2.3406208",NA,NA,NA,"food point_of_interest establishment"
"ChIJySg8ekRu5kcRiZNsmhroVsY","Sangan Alexandre","48.8834295","2.3406208",NA,NA,NA,"point_of_interest establishment"
"ChIJIRWNh0Nu5kcRId9_NJ2bXxE","Le Charme Inattendu","48.8834446","2.3411216",NA,NA,NA,"point_of_interest establishment"
"ChIJAQAshkNu5kcR-AeRJkfECMg","La maison Emile et Ida","48.8834221","2.3410795",NA,"4.3","13","clothing_store point_of_interest store establishment"
"ChIJXd4Ah0Nu5kcRRrHLy-6tM4s","Cbetjiaha","48.8835241","2.3412488",NA,NA,NA,"point_of_interest establishment"
"ChIJ_Z3ZuOFv5kcR8h0ZCrAJOKE","Hélice resto","48.883524","2.3412494",NA,"5","1","restaurant food point_of_interest establishment"
"ChIJjfHCekRu5kcRtN9CNKW7JgU","Boire Patrice","48.8834322","2.3404892",NA,"5","1","point_of_interest establishment"
"ChIJjfHCekRu5kcRQ-uhBv9Hz0o","Coatelen Julien","48.8834322","2.3404892",NA,NA,NA,"point_of_interest establishment"
"ChIJW1cRgUNu5kcRU2RMbRbPqI4","Alyo 26","48.8837712","2.341351",NA,NA,NA,"point_of_interest establishment"
"ChIJi40Dh0Nu5kcRGNlUFebYTDg","Apartamentos Orsel, 54","48.8835838","2.3413371",NA,"3","2","lodging point_of_interest establishment"
"ChIJkW3DekRu5kcR9iRWTv6wMq4","Pascale Laisne Immobilier","48.883481","2.3403802",NA,"1","1","real_estate_agency point_of_interest establishment"
"ChIJLbBOgUNu5kcR6yyg5kjLnCM","Brewed Outta Paris","48.8836919","2.3413916",NA,NA,NA,"point_of_interest establishment"
"ChIJLbBOgUNu5kcR7uWvNQQDQak","Barratier Christophe","48.8836919","2.3413916",NA,NA,NA,"point_of_interest establishment"
"ChIJ__-vgUNu5kcRkOTil_fHi9M","ル プログレ","48.8838675","2.3413381",NA,NA,NA,"point_of_interest establishment"
"ChIJg9zfekRu5kcRIcgKXoXg0SY","Seb'on","48.8836339","2.3402422","3","4.7","328","restaurant food point_of_interest establishment"
"ChIJ5bArZERu5kcRMLeoo6jhvFs","Jagh Paris","48.8836339","2.3402422",NA,"4.6","17","jewelry_store point_of_interest store establishment"
"ChIJcQSRh0Ru5kcRYwmjhMUjzrE","Communal School De Filles","48.8840524","2.3405498",NA,NA,NA,"school point_of_interest establishment"
"ChIJV-lFhUNu5kcR8cVPpFZZ5qo","Maître Caroline YADAN PESAH, Avocat","48.8833769","2.3412756",NA,"5","21","lawyer point_of_interest establishment"
"ChIJ4U1oj0Nu5kcRO_Jtl2XNkwk","""Au D d'Or"" Montmartre 75018 Paris Couture-retouche","48.8834038","2.3412279",NA,"4.7","28","furniture_store home_goods_store health point_of_interest clothing_store store establishment"
"ChIJG-GShUNu5kcR3CJL4Ppgeu8","L'Hélice Bar","48.8835191","2.3413655","1","4.4","187","bar point_of_interest establishment"
"ChIJ5d81hkNu5kcRZNwDyHBSoaM","Accueil Psychanalytique","48.8834308","2.3412799",NA,NA,NA,"point_of_interest establishment"
"ChIJo667sK1v5kcRcdsNnhL7G9c","Jean-Yves Rochmann","48.8834257","2.3412791",NA,"4.2","6","lawyer point_of_interest establishment"
"ChIJJf9fgERu5kcRSaJS8hzyklU","Il Ristorante","48.8841075","2.3409102","2","4.4","158","restaurant food point_of_interest establishment"
"ChIJpbh8cCJw5kcR2Qnh-pZe7r8","Bleu Tango","48.8834164","2.3412714",NA,"4.7","14","point_of_interest clothing_store store establishment"
"ChIJ83Odf0Nu5kcREQPCL_itLKs","La Boutique des Anges Paris Montmartre","48.8840743","2.3411802",NA,"4.7","47","point_of_interest clothing_store store establishment"
"ChIJUdp5iENu5kcR6U-QLmIc4rE","Fargant Joelle Renee Andree","48.8833563","2.341193",NA,NA,NA,"lawyer point_of_interest establishment"
"ChIJV-lFhUNu5kcRzE-OJ9N17lM","Jo.","48.8833769","2.3412756",NA,"4.9","15","point_of_interest clothing_store store establishment"
"ChIJbTHvgERu5kcRd5niBEpC4Q8","Yvonne le Tac","48.8840586","2.3412035",NA,NA,NA,"transit_station point_of_interest establishment"
"ChIJ4U1oj0Nu5kcRkLBU5KLKI_w","Evy Vartazarmian","48.8833769","2.3412756",NA,NA,NA,"point_of_interest establishment"
"ChIJJQAYZURu5kcRcNFCa5gizVs","Flinois Pierre","48.8834366","2.3402698",NA,NA,NA,"point_of_interest establishment"
