"Id","Name","Lat","Lng","Price_level","Rating","Nb_Rating","Type"
"ChIJxzNnZndy5kcRKigZ_-SPR5o","19-17 Rue d'Avron","48.8515627","2.3996938",NA,NA,NA,"route"
"ChIJ85RFQF9u5kcRwkVhdN5bWck","ABED BEY Traduction","48.8517225","2.4000285",NA,"4.7","15","point_of_interest establishment"
"ChIJh-qWaHdy5kcRfRwGJXgdY8c","Chic & Fun","48.8516561","2.3997551",NA,"4.4","48","beauty_salon point_of_interest establishment"
"ChIJbaIbZHdy5kcRso4Z-XQC_BE","L'ADRESSE Agence Paris Charonne","48.8516726","2.3997928",NA,"5","4","real_estate_agency point_of_interest establishment"
"ChIJIdxmb3dy5kcRHWC6fLPxeTM","docteur packo","48.8517288","2.3997214",NA,NA,NA,"doctor health point_of_interest establishment"
"ChIJJf-iYXdy5kcRUOIkfmJ5cv0","Majordomus","48.8514851","2.4000963",NA,NA,NA,"moving_company point_of_interest establishment"
"ChIJLScvYndy5kcR2XaQ2h-B-rA","Maïssa l'élégance islamique","48.8517401","2.400031",NA,"5","3","clothing_store point_of_interest store establishment"
"ChIJdR1rYXdy5kcRwtt40QwZJgQ","L et M coiffure","48.8514627","2.3997538",NA,"4.9","21","hair_care point_of_interest establishment"
"ChIJ_bw_b3dy5kcR-S-8sqOJOEQ","Gueret Melanie","48.8517045","2.3995535",NA,NA,NA,"point_of_interest establishment"
"ChIJFWSTY3dy5kcRKKtm97tOXjM","Allo Ostéopathes Rdv 7 j / 7","48.8517305","2.400033",NA,"5","1","health point_of_interest establishment"
"ChIJFylU33ly5kcRNUwbzLCnc2k","Espaces et Volumes","48.8515759","2.4003168",NA,NA,NA,"point_of_interest establishment"
"ChIJM1lLaXdy5kcRFdh8K91_Jl4","First Optic","48.8516352","2.3993188",NA,"3.5","13","health point_of_interest store establishment"
"ChIJQSpibndy5kcRy2MHjtv505U","Restaurant FLEUR D'ASIE","48.8517419","2.3993406",NA,"4.5","40","restaurant food point_of_interest establishment"
"ChIJmwZfaXdy5kcRP1kavfuqtiw","Chez Younice Restaurant Marocain","48.8516154","2.3992656","1","4.5","504","restaurant food point_of_interest establishment"
"ChIJ4_0Xbndy5kcR9I5Ja9ylIHQ","Isabelle Melin-Daniau","48.8519258","2.3995663",NA,"5","2","school gym health point_of_interest establishment"
"ChIJ4_0Xbndy5kcRa_wuoj9D6Is","Atomic Jungle","48.8519258","2.3995663",NA,"4.6","67","hair_care health point_of_interest establishment"
"ChIJq6p2XXdy5kcReJQBreoyzdI","Territoires Paris","48.8512568","2.3997254",NA,NA,NA,"store point_of_interest establishment"
"ChIJFylU33ly5kcR8xY-m7VtOkg","Freva Guez Chantal","48.8515759","2.4003168",NA,"1.1","144","doctor health point_of_interest establishment"
"ChIJHVGaYXdy5kcRdCobXPC9Kiw","Driving School C.i.r Plus Avron, Paris 20","48.8515362","2.4002028",NA,"4.2","260","point_of_interest establishment"
"ChIJD7fiBh9u5kcRYJSMaMOCCwQ","Paris","48.856614","2.3522219",NA,NA,NA,"locality political"
"ChIJJf-iYXdy5kcRIqoMKAFE54Y","Crédit Agricole de Paris Avron","48.8515636","2.4002233",NA,"2.7","46","bank atm finance insurance_agency point_of_interest establishment"
"ChIJBf0Zr3ly5kcRkozN_o5jWYE","Laforet Avron agences immobiliere paris 20 (vente, location, gestion)","48.8514465","2.3995647",NA,"4.7","106","real_estate_agency point_of_interest establishment"
"ChIJIePFYHdy5kcRJUxH3Z6JYxM","5 Brothers","48.8514708","2.399671",NA,NA,NA,"hardware_store point_of_interest store establishment"
"ChIJI6zUQndy5kcRG_M6GiQKv8Q","Navi-Concept","48.8511799","2.3995638",NA,NA,NA,"point_of_interest establishment"
"ChIJ_7exaXdy5kcRz4JnVdqg_Xs","Camaïeu","48.8513855","2.3994622",NA,"3.8","67","point_of_interest clothing_store store establishment"
"ChIJIdxmb3dy5kcRqiV72Lg5jOs","Dr Berzig Mourad","48.8517045","2.3995535",NA,"4.6","22","doctor health point_of_interest establishment"
"ChIJIdxmb3dy5kcRTFqJXZvjdHM","The bistro of Avron","48.851729","2.399721","2","4.4","269","bar food point_of_interest establishment"
"ChIJ3wnsY3dy5kcR5zDwDV5-TqQ","Cabinet d'ostéopathie d'avron Paris 20","48.8515517","2.4002691",NA,"5","21","health point_of_interest establishment"
"ChIJmwZfaXdy5kcR067W9euYGLw","Hotel Le Moderne","48.8516202","2.3992726",NA,"2","1","lodging point_of_interest establishment"
"ChIJgUT_Zndy5kcRQdcUzcH_nXs","Coiffeur Styliste","48.8514882","2.3997704",NA,NA,NA,"store point_of_interest establishment"
"ChIJfUHgZXdy5kcROSLdnhy6ib0","Fromagerie","48.8516374","2.3996853",NA,"5","1","point_of_interest establishment"
"ChIJh-qWaHdy5kcRNeXe5k-aszU","La Ferme d'Avron","48.8516724","2.3997268",NA,"3.4","17","grocery_or_supermarket food point_of_interest store establishment"
"ChIJ2SYXZHdy5kcRJ3QUZSRWF1E","Bijoux D'avron","48.8516755","2.3998888",NA,"1","1","store point_of_interest establishment"
"ChIJZ9nVZndy5kcR5eEZlNwwanU","Bar Hôtel Etoile","48.8514576","2.3999237",NA,"2.2","6","lodging point_of_interest establishment"
"ChIJqVIKZHdy5kcRiTgzVf7CFi4","Procomm","48.8516922","2.3999491",NA,NA,NA,"point_of_interest establishment"
"ChIJaVSTY3dy5kcRjtLz4kjT2Nw","Fnaim","48.8517037","2.4000258",NA,NA,NA,"real_estate_agency point_of_interest establishment"
"ChIJ6VZCb3dy5kcRW8Qty5At8c8","Vincent Freyss","48.8517045","2.3995535",NA,NA,NA,"point_of_interest establishment"
"ChIJIdxmb3dy5kcRL68xpjIzjoo","Apthorpe Minnie Margaret","48.8517045","2.3995535",NA,NA,NA,"point_of_interest establishment"
"ChIJZZuwoJRz5kcRBRo6xnLrws4","MASSIAMY COUTURE","48.8517225","2.4000285",NA,NA,NA,"point_of_interest establishment"
"ChIJ2ZsgdIVm5kcRTUmEfrSknEM","PARUZYNSKI Maxime - Ostéopathe D.O.","48.8517225","2.4000285",NA,"5","8","health point_of_interest establishment"
"ChIJ3wnsY3dy5kcR4ngp5jHWzLY","Tibi Ribal","48.8517225","2.4000285",NA,NA,NA,"point_of_interest establishment"
"ChIJYWR3Z3dy5kcR1ng82Geloc4","Auger Interim","48.8513499","2.3997811",NA,NA,NA,"point_of_interest establishment"
"ChIJmcG5Y3dy5kcRlNAWaHcRb8Y","Maissa Prêt À Porter","48.8517158","2.4000895",NA,NA,NA,"point_of_interest establishment"
"ChIJD1BRQY9y5kcRZCn6z34xHbE","Alliance Diagnostic","48.85176","2.400032",NA,"3.4","5","finance point_of_interest establishment"
"ChIJ3wiaYXdy5kcRqqSrCgBMbbk","Avron Centre D'Instruciion Routiére Plus","48.8515514","2.4001885",NA,NA,NA,"point_of_interest establishment"
"ChIJ1841b3dy5kcRCK0B-GNn2lQ","Cabinet médecine générale Planchat","48.8517612","2.3995194",NA,"5","1","doctor health point_of_interest establishment"
"ChIJZ0WYYXdy5kcRpl3Xmm1Ar5Y","Bontemps Stephan","48.8515362","2.4002028",NA,NA,NA,"doctor health point_of_interest establishment"
"ChIJHVGaYXdy5kcRYJsx0s-87no","Croutzeilles Jérôme","48.8515362","2.4002028",NA,"5","4","health point_of_interest establishment"
"ChIJ9XL9rWJz5kcRzTb5QtNxuXo","Huetinauco","48.8514255","2.3994479",NA,NA,NA,"store point_of_interest establishment"
"ChIJ__9v2Hly5kcRsUt4SM1_hO4","Julie Soucail","48.8518138","2.4003659",NA,NA,NA,"point_of_interest establishment"
"ChIJc5HtYXdy5kcRtc7mtWWe1AM","Sun Telecom","48.8515412","2.4002369",NA,NA,NA,"point_of_interest establishment"
"ChIJYQy8aXdy5kcRAB3k35P_4-4","Boucherie Nouvelle D'avron","48.851381","2.3994282",NA,"4.5","4","food point_of_interest store establishment"
"ChIJN3LuQndy5kcRIa7aWQ-DK8g","Restaurant Vitamin","48.8514292","2.3993801",NA,"4.3","13","restaurant food point_of_interest establishment"
"ChIJNUQbS8Nz5kcR9XFrMSS1FSk","Laverie Libre Service","48.8512568","2.3997254",NA,NA,NA,"laundry point_of_interest establishment"
"ChIJAcoPXXdy5kcRZWIIV29G2hs","ANAPHORE","48.8512568","2.3997254",NA,"4.3","16","book_store point_of_interest store establishment"
"ChIJyXqUaHdy5kcRHVyk5kAB8eI","Bern Optic","48.8516352","2.3993188",NA,NA,NA,"health point_of_interest store establishment"
"ChIJ_fB_Z3dy5kcRpXjWFf9nFEI","Jean-Marie GEFFROY","48.8512524","2.399726",NA,"5","1","health point_of_interest establishment"
"ChIJaYI7bndy5kcR67eO0G7EU98","Arnold Blaise","48.8519288","2.3995625",NA,"5","1","point_of_interest establishment"
"ChIJFylU33ly5kcRA02bpqlQ8RI","Pharmacie Illouz","48.8515759","2.4003168",NA,"1.9","15","pharmacy health point_of_interest store establishment"
"ChIJ8f2wb3dy5kcR_C5RMiLFzc8","Beauté Planehat","48.8518435","2.3994785",NA,NA,NA,"point_of_interest establishment"
