"Id","Name","Lat","Lng","Rating","Nb_Rating","Type"
"ChIJLfJbOfVu5kcRJRoZxuMMHBg","33 Boulevards des Maréchaux","48.8979576","2.3455067",NA,NA,"route"
"ChIJC2-VnfVu5kcR_86TX43FPfk","Le Royal Clignancourt","48.8974758","2.344992","4.2","66","bar point_of_interest establishment"
"ChIJtXk4CvVu5kcRhHi6QX74hvo","Porte de Clignancourt","48.897997","2.345222","3","1","transit_station point_of_interest establishment"
"ChIJ-1-eCvVu5kcRJzadgEWJ6es","Porte de Clignancourt","48.897862","2.345392",NA,NA,"transit_station point_of_interest establishment"
"ChIJV5-7dPVu5kcRETQmCTpmkhg","Porte de Clignancourt","48.8977","2.345351","4","1","transit_station point_of_interest establishment"
"ChIJwbxmdfVu5kcRjsvD8BCdGKo","Porte de Clignancourt","48.897665","2.345079","2","2","transit_station point_of_interest establishment"
"ChIJHcDrefVu5kcRtxvk0ivlYg0","Porte de Clignancourt","48.8977709","2.3446992","3.7","3","bus_station transit_station point_of_interest establishment"
"ChIJvaFvdPVu5kcR4G5thShhBGo","Self Meeting Tool","48.8975552","2.34536",NA,NA,"point_of_interest establishment"
"ChIJu8jICspv5kcRh4hjP7u3xNo","Ea Esat","48.8975552","2.34536",NA,NA,"point_of_interest establishment"
"ChIJ6QO4iFBv5kcR1RlTjsOp2DM","Les assistantes","48.8975552","2.34536",NA,NA,"point_of_interest establishment"
"ChIJLY-8u4Vv5kcR8UMTHnNw0fQ","Ertram","48.8975552","2.34536",NA,NA,"point_of_interest establishment"
"ChIJGUiAmNdv5kcRLvHeCqwI5Io","Liable Event","48.8975552","2.34536",NA,NA,"point_of_interest establishment"
"ChIJ0czp6FBv5kcR9UfyGVIttCc","Genius Registration","48.8975552","2.34536",NA,NA,"point_of_interest establishment"
"ChIJIb-XKg1v5kcRKtIrbJWlVBw","My Seminar","48.8975552","2.34536",NA,NA,"point_of_interest establishment"
"ChIJ21qk_QNv5kcRWlD8HslKOzE","ehotelmarketing","48.8975552","2.34536",NA,NA,"point_of_interest establishment"
"ChIJpaVZoMNv5kcR0lodQMMv5-k","Aquelleheure","48.8975552","2.34536",NA,NA,"point_of_interest establishment"
"ChIJJSwA5SBv5kcRtzbHz_PvyFs","HappynessHouse","48.8975552","2.34536",NA,NA,"point_of_interest establishment"
"ChIJl6FvdPVu5kcR4uokE-MlSBc","c-k-ré","48.8975552","2.3453601",NA,NA,"point_of_interest establishment"
"ChIJVSScbfVu5kcRo8W4cwy6MXw","Alto Cafe Porte De Clignancour","48.8975376","2.3454049","4","2","cafe food point_of_interest establishment"
"ChIJD7fiBh9u5kcRYJSMaMOCCwQ","Paris","48.856614","2.3522219",NA,NA,"locality political"
"ChIJo33BZ25v5kcR0IEek4cXzh4","Hm depanneur","48.8982295","2.3447861",NA,NA,"point_of_interest establishment"
"ChIJMeHvdfVu5kcR0kyiwrlCi5k","Lazakis Jean","48.8974886","2.3451143",NA,NA,"restaurant food point_of_interest establishment"
"ChIJH0NldPVu5kcRChQJRP7YtsQ","Visites guidees Paris: Florence Porteseil","48.8975375","2.3454812","5","6","travel_agency point_of_interest establishment"
"ChIJ60S9nfVu5kcRHSOU_Yo4LGE","Porte de Clignancourt","48.8975498","2.3447128","3.5","91","subway_station transit_station point_of_interest establishment"
"ChIJx1CccvVu5kcRWBuME3_nup8","Dirles Franck","48.8976451","2.3457493",NA,NA,"point_of_interest establishment"
