"Id","Name","Lat","Lng","Rating","Nb_Rating","Type"
"ChIJ2_PuzY1t5kcRn4Fs5zUGbSk","Avenue Transversale nÂ°2","48.8631988","2.3947341",NA,NA,"route"
"ChIJdz8rLnpt5kcR5MVD_28t7VY","Tombe de Gholam Hossein Saedi","48.863297","2.3947181","5","3","cemetery point_of_interest establishment"
"ChIJ1R_A2o1t5kcRtBvGLI1fzis","Comtesse de Moncade Aragon","48.8634529","2.3950631",NA,NA,"cemetery point_of_interest establishment"
"ChIJ5eaJ0Y1t5kcR2yPTDLNn9_Y","Tombe de Marcel Proust","48.8630781","2.3949954","4.9","8","cemetery tourist_attraction point_of_interest establishment"
"ChIJuThd0Y1t5kcRlUQsz4sV-wQ","grave of Sadegh Hedayat, the Persian writer","48.8630683","2.3952562","5","14","cemetery point_of_interest establishment"
"ChIJD7fiBh9u5kcRYJSMaMOCCwQ","Paris","48.856614","2.3522219",NA,NA,"locality political"
