"Id","Name","Lat","Lng","Price_level","Rating","Nb_Rating","Type"
"ChIJH-qPiU5u5kcRII2WBmUx7wg","75 Boulevard de Clichy","48.884081","2.3309149",NA,NA,NA,"route"
"ChIJ3_SZ001u5kcRPdvjTKKzPww","Boutique-Rugby.com","48.884066","2.3306417",NA,"4.2","170","point_of_interest clothing_store store establishment"
"ChIJ3_SZ001u5kcRBZL-qyqFvVQ","The French Flair","48.8840901","2.3304917","1","4","755","bar point_of_interest establishment"
"ChIJDzcr7U5u5kcRjn2N4p8j7qA","Logiciels et Services Duhem","48.8837707","2.3303728",NA,NA,NA,"point_of_interest establishment"
"ChIJO3KFkU5u5kcRSPFqMnY1pWY","Workshop Berlioz","48.8834308","2.3307197",NA,"5","3","point_of_interest establishment"
"ChIJoyBti05u5kcRR3QjyiEkYSs","Cassiopée Avocat","48.8839374","2.3310976",NA,NA,NA,"lawyer finance point_of_interest establishment"
"ChIJ7xOPj05u5kcRz67o95YOcZI","S.h.a.r.e","48.8837184","2.3305435",NA,NA,NA,"point_of_interest establishment"
"ChIJJyF2OA1u5kcRNCH4Cd5m6j4","VOIR","48.8839027","2.3307329",NA,NA,NA,"point_of_interest establishment"
"ChIJ8S-ZjU5u5kcRwGgpIjBBD2s","Psychologue à Paris 9ème","48.883546","2.3309635",NA,"5","2","health point_of_interest establishment"
"ChIJ8S-ZjU5u5kcR-Eb75PDVKsM","Placais Anne Carole","48.883546","2.3309635",NA,NA,NA,"finance point_of_interest establishment"
"ChIJt2Bnkk5u5kcRHdLnSwNgp8k","De Fouchier Marie","48.883546","2.3309635",NA,NA,NA,"point_of_interest establishment"
"ChIJC3eei05u5kcRt0RFpo7Q4Kc","Iscomwiz Data visualisation","48.8839214","2.3308845",NA,"5","3","point_of_interest establishment"
"ChIJMTPkkE5u5kcRQH4xupDQbJI","T.i.e-m.g.o (Sarl)","48.8834128","2.33065",NA,NA,NA,"point_of_interest establishment"
"ChIJDfZUj05u5kcRzOfIA9hjQ4w",".","48.884007","2.33054",NA,NA,NA,"point_of_interest establishment"
"ChIJpfawiE5u5kcRZCNUXuCgJ_w","Rosenau-Pastisson Nathalie","48.8839749","2.3305605",NA,NA,NA,"health point_of_interest establishment"
"ChIJW7uhh05u5kcR_IuvF-0FaZQ","Sigue","48.8839733","2.3308719",NA,"3.1","16","finance point_of_interest establishment"
"ChIJBXvFisRv5kcRK-KoegvlSMo","sex shop les cocottes pigalle","48.8839733","2.3308719",NA,"4.4","52","point_of_interest clothing_store store establishment"
"ChIJpfawiE5u5kcRZb9bdKovEH8","Lot Cent","48.8839749","2.3305605",NA,"3.3","3","real_estate_agency point_of_interest establishment"
"ChIJpfawiE5u5kcRPSh5VM6FRds","Janny Arrostéguy Yoga","48.884004","2.330548",NA,NA,NA,"school gym health point_of_interest establishment"
"ChIJD7fiBh9u5kcRYJSMaMOCCwQ","Paris","48.856614","2.3522219",NA,NA,NA,"locality political"
"ChIJ29p5kE5u5kcRuhX4eaVsRIY","PostTRIP","48.8834536","2.3305528",NA,NA,NA,"point_of_interest establishment"
"ChIJC3eei05u5kcRzSwpRH-1KSM","In Le Grand-Serre : Le Grand Cerf's Campsite","48.8839178","2.3310599",NA,NA,NA,"campground lodging park point_of_interest establishment"
"ChIJDYYhhk5u5kcRGcZt16AXgjQ","SERENN","48.8839749","2.3305606",NA,"3.7","3","health point_of_interest establishment"
"ChIJa8-2iU5u5kcRkMkh8SmIZO4","Grenouille Zen","48.8839749","2.3305605",NA,"5","7","health point_of_interest establishment"
"ChIJKfTEmk5u5kcRcqDFkh6SYno","Resources & Logistics","48.8834798","2.3303429",NA,NA,NA,"point_of_interest establishment"
"ChIJC3eei05u5kcR0MMLIIqm6sU","BlackAndWhite Burger","48.8839374","2.3310976","2","4.2","165","restaurant food point_of_interest establishment"
"ChIJE4Yhhk5u5kcR9QP2Uatd7hw","Centre Esthetique Barye Monceau","48.884007","2.33054",NA,"2.3","4","hospital health point_of_interest establishment"
"ChIJE4Yhhk5u5kcRftiryoHaf3c","Accueil","48.884007","2.33054",NA,NA,NA,"point_of_interest establishment"
"ChIJDfZUj05u5kcRyZ5zAaAQhK8","L'obsédé textuel","48.884007","2.33054",NA,NA,NA,"point_of_interest establishment"
"ChIJbTZT7U5u5kcR-STBaDMsrFs","Assaban Franck","48.8835522","2.3312222",NA,"5","1","health point_of_interest establishment"
"ChIJmdXnaWpu5kcR_hsxD570CoI","Aitana Mac Gowan HypnoseInParis.Com","48.8840107","2.3305376",NA,"5","9","health point_of_interest establishment"
"ChIJ98XmBUlu5kcRzhA54YjSUdY","Julia SIDERIS","48.8840107","2.3305376",NA,"5","1","health point_of_interest establishment"
"ChIJZTeq0ERu5kcRjNfQPaguPfQ","Perles Thierry","48.8837757","2.330206",NA,"2.5","8","doctor health point_of_interest establishment"
"ChIJE4Yhhk5u5kcRkIZYX6yGWHk","FEGI - Expert-Comptable et Commissaire aux Comptes - Paris 9","48.884066","2.3306417",NA,"5","1","accounting finance point_of_interest establishment"
"ChIJeZtRmk5u5kcRzOmKei4nZ1Q","Le Valois","48.8834024","2.3304374","2","4.2","412","restaurant food point_of_interest establishment"
"ChIJnQiz9E5u5kcR8oj_Bynt15k","Sex Toys","48.8838821","2.3312699",NA,"3","12","point_of_interest store establishment"
"ChIJX4dNmk5u5kcRkHhRo0h87uY","Marrey Bernard","48.8833891","2.3303828",NA,NA,NA,"point_of_interest establishment"
"ChIJxWru8k5u5kcR-Oz5W8e3S28","Maison Souquet. Bar","48.8836775","2.3313756",NA,"4.8","342","lodging point_of_interest establishment"
"ChIJheAvkU5u5kcRe3KlWiuKodw","La Prairie by Thierry Racoillet","48.8832971","2.3307641","1","4.2","51","bakery food point_of_interest store establishment"
"ChIJhyMUv3F75kcR6MiU5L1E8R8","Anna Piot - Thérapeute et Coach","48.883814","2.3313736",NA,NA,NA,"health point_of_interest establishment"
"ChIJ0eqZ9E5u5kcRmRIk_NHIX4o","Cheral Servais","48.883814","2.3313736",NA,NA,NA,"lawyer point_of_interest establishment"
"ChIJvWNp805u5kcRwmclqLgkK9s","Rouède Cécile","48.883814","2.3313736",NA,NA,NA,"health point_of_interest establishment"
"ChIJv9DRiE5u5kcRMlMZPjA9FMo","Coussin d'Afrique","48.8839027","2.3307329",NA,"4.9","14","general_contractor point_of_interest store establishment"
"ChIJC3eei05u5kcR5gVcJz7mlXk","CAMPING Presqu'île Crozon","48.8839374","2.3310976",NA,NA,NA,"campground lodging park point_of_interest establishment"
"ChIJC3eei05u5kcRbznOE9Y8eL0","Cabinet SITEA immobilier","48.8839374","2.3310976",NA,"5","1","real_estate_agency point_of_interest establishment"
"ChIJC3eei05u5kcRNVhlpdA8u2I","Camping du Pré-Rolland","48.8839374","2.3310976",NA,NA,NA,"campground lodging park point_of_interest establishment"
"ChIJC3eei05u5kcRBjqkLX8AhO0","Camping de Kervoen","48.8839374","2.3310976",NA,"1","1","campground lodging park point_of_interest establishment"
"ChIJC3eei05u5kcRjyHEcs65hSE","Bonbox","48.8839374","2.3310976",NA,"5","1","point_of_interest establishment"
"ChIJC3eei05u5kcRbpSqs2JMLK4","Camping Luberon Parc","48.8839374","2.3310976",NA,NA,NA,"campground lodging park point_of_interest establishment"
"ChIJC3eei05u5kcRVmYYyhHq_Uk","maisons SEPHORIA","48.8839374","2.3310976",NA,NA,NA,"general_contractor point_of_interest establishment"
"ChIJpfawiE5u5kcRZO78KUOez9Y","Judith Attias - Psychologue psychothérapeute 75009","48.884007","2.33054",NA,NA,NA,"health point_of_interest establishment"
"ChIJ3_SZ001u5kcRdun024Vd3fE","MAISON ERNEST","48.883996","2.330915",NA,"4.6","16","shoe_store point_of_interest store establishment"
"ChIJ3__InE5u5kcREy2sO3HGo1M","Innovation Voyages","48.8835553","2.3300913",NA,NA,NA,"travel_agency point_of_interest establishment"
"ChIJtTgAi05u5kcRVPCak8Rr6d4","Dr. Hatem Georges","48.8839374","2.3310976",NA,"3.7","3","dentist doctor health point_of_interest establishment"
"ChIJDZz0kE5u5kcRaVSJvKK82Cc","Le Valois Chuppa Choups","48.883395","2.330637","2","4.2","234","bar cafe restaurant food point_of_interest store establishment"
"ChIJrTB6hU5u5kcRrm4pIkXOHhQ","Institut Capillaire","48.8837086","2.3305239",NA,NA,NA,"point_of_interest establishment"
"ChIJv9DRiE5u5kcROoCXxcgLwlo","Maison Nue","48.8839027","2.3307329",NA,NA,NA,"point_of_interest establishment"
"ChIJ11cFJFpu5kcRQLJmQxmWymM","Varinot & Varinot Architectes","48.8839027","2.3307329",NA,"5","1","point_of_interest establishment"
"ChIJa-hzu05u5kcRGS3PyjkjQCI","Benhamou Laurence Juliette","48.8839027","2.3307329",NA,NA,NA,"point_of_interest establishment"
"ChIJ8S-ZjU5u5kcRDX8NjTAuQOM","Annick Joncour","48.883546","2.3309635",NA,NA,NA,"health point_of_interest establishment"
