"Id","Name","Lat","Lng","Price_level","Rating","Nb_Rating","Type"
"ChIJD46XlW1u5kcRSk4tFG6qAoo","Rue de Dunkerque","48.8797055","2.3563443",NA,NA,NA,"route"
"ChIJuSgWlG1u5kcR9y4kp17VcZ4","Hotel Richmond","48.8795271","2.3563413",NA,"3.4","259","lodging point_of_interest establishment"
"ChIJCzG5kW1u5kcR8K7mthdliO0","Picardy Hotel Paris","48.8794667","2.3568239",NA,"2.6","348","lodging point_of_interest establishment"
"ChIJi0a7lm1u5kcRUQOfeXFmjWM","ibis Styles Paris Gare du Nord TGV","48.8795015","2.3565413",NA,"3.6","284","lodging point_of_interest establishment"
"ChIJz0tO621u5kcR3jujyzVfVeU","Starbucks","48.879945","2.3565361","2","3.6","752","bakery cafe restaurant food point_of_interest store establishment"
"ChIJxa-A6W1u5kcRmcml0P8Yg0I","Café Kiosque","48.8802181","2.356443",NA,"1.4","10","meal_takeaway restaurant food point_of_interest establishment"
"ChIJK2691m1u5kcR_oeP66n_zbY","Pickup Station Gare du Nord","48.8801516","2.3570704",NA,"1","2","point_of_interest establishment"
"ChIJz8_iwG1u5kcR1UhB9RUFneo","La Place Gare du Nord","48.8800631","2.3560673","2","2.6","23","restaurant food point_of_interest establishment"
"ChIJ4xkE921u5kcRAY3HiE0s7mE","EXKi","48.8802288","2.3562144",NA,"3.1","47","restaurant food point_of_interest establishment"
"ChIJR4-wRA5u5kcRkcrX_BGEHGU","Simba Matelas","48.8794865","2.3565118",NA,"4.3","158","point_of_interest establishment"
"ChIJh1i0lm1u5kcRoFhqBIA0Fqk","Musée du Rock","48.8795179","2.3565692",NA,NA,NA,"museum tourist_attraction point_of_interest establishment"
"ChIJ098-621u5kcR7LEnBWaPDbM","Ginger's New York Coffee Gare du Nord","48.8799587","2.356507",NA,"3.2","9","bakery cafe food point_of_interest store establishment"
"ChIJk4MQYxtv5kcREZo-w_9soq4","فندق بيكاردي","48.8797442","2.3569017",NA,NA,NA,"lodging point_of_interest establishment"
"ChIJP8KGkm1u5kcRySRmHHskNyA","EURO-FINA","48.8797471","2.3569239",NA,NA,NA,"finance point_of_interest establishment"
"ChIJGQt0jW1u5kcRH_wirPs4psA","Cityssimo","48.8797507","2.3570224",NA,NA,NA,"point_of_interest establishment"
"ChIJE-rSyCpv5kcRNgZK0hE35kU","Maison fond gare du Nord","48.8798537","2.3561644",NA,"4.6","5","point_of_interest establishment"
"ChIJ7TJI6W1u5kcRw9aom0XY56c","Homeland","48.8802813","2.3566108",NA,"3.3","3","store point_of_interest establishment"
"ChIJnW__8W1u5kcRiq1g8H6IgOQ","Orfea Gare du Nord","48.880207","2.3570036",NA,"3.7","3","lodging point_of_interest establishment"
"ChIJQYICUzpv5kcRt8xoKMIk4cg","TEST NO CONTACT","48.87955","2.35683",NA,NA,NA,"point_of_interest establishment"
"ChIJD7fiBh9u5kcRYJSMaMOCCwQ","Paris","48.856614","2.3522219",NA,NA,NA,"locality political"
"ChIJNy7iE0lv5kcRQiV4XT0We1A","TEST BC1","48.87955","2.35683",NA,NA,NA,"point_of_interest establishment"
"ChIJqSj2-wVv5kcRoCY2o6wx4N4","NC123","48.87955","2.35683",NA,NA,NA,"point_of_interest establishment"
"ChIJHSeMkW1u5kcRzYLNEl_-qsI","L'Oasis Du Nord","48.8795121","2.3565916",NA,"2.8","64","restaurant food point_of_interest establishment"
"ChIJ45Pqlm1u5kcRZ7edWMAhNGY","Le Cadran du Nord","48.8795003","2.3564868",NA,"3.6","73","bar restaurant food point_of_interest establishment"
"ChIJEbv6vm1u5kcRpm8IG7kiCCE","Paris Nord Café","48.8795814","2.3561478","2","3.5","646","cafe restaurant food point_of_interest establishment"
"ChIJl4tyjm1u5kcRoVIfNkeALYs","La Fayette - Dunkerque","48.879539","2.3570315",NA,NA,NA,"transit_station point_of_interest establishment"
