"Id","Name","Lat","Lng","Price_level","Rating","Nb_Rating","Type"
"ChIJGxSf9g1u5kcR0y6Xbf8Wwr8","78 Rue du Faubourg Saint-Martin","48.8719841","2.357327",NA,NA,NA,"route"
"ChIJuxKL9g1u5kcRj6WBPWWHIF4","Centre de congrès Tapis Rouge Paris","48.871999","2.357101",NA,"4.1","33","point_of_interest establishment"
"ChIJl6Aj5Q1u5kcRx3JGfZI22DM","Fund of 10th Arrondissement Schools","48.8719268","2.3575143",NA,NA,NA,"point_of_interest establishment"
"ChIJvcRmChJu5kcR_r5K62ZZaNg","Pompes Funèbres Belgrand","48.872071","2.3572337",NA,"4.6","11","funeral_home point_of_interest establishment"
"ChIJfQ6N9g1u5kcR_Jj20uXdc64","Stage futur notaire","48.8720085","2.3570968",NA,NA,NA,"school point_of_interest establishment"
"ChIJ19-tHPxt5kcRfF3Q-2Xp1xo","Biborg","48.8722253","2.3572433",NA,"4.6","5","point_of_interest establishment"
"ChIJGcMd9Q1u5kcRD6sXtuKRneY","Stéréoplane","48.8722122","2.3572479",NA,NA,NA,"point_of_interest establishment"
"ChIJRXFVvnxu5kcR-CD6QUVHonw","Aire Publique","48.8722456","2.3572437",NA,NA,NA,"point_of_interest establishment"
"ChIJkfNumABu5kcRJ7bRjnYtW9Q","Atelier KIOL","48.8722313","2.3572729",NA,"1","1","point_of_interest establishment"
"ChIJy4wc1Ppt5kcRTwB7heTEbP4","Made by moi","48.87223","2.3571991",NA,"4.1","8","clothing_store point_of_interest store establishment"
"ChIJH8Md9Q1u5kcRhuGPeYTDTdo","ABC AUTISME","48.87223","2.3571992",NA,NA,NA,"point_of_interest establishment"
"ChIJH8Md9Q1u5kcRgA8W_urSI-Q","ROCK8","48.87223","2.3571992",NA,NA,NA,"point_of_interest establishment"
"ChIJGcMd9Q1u5kcRWNhXPEZUegM","Donutz Marketing - Agence Adwords & Analytics","48.87223","2.3571991",NA,"5","2","point_of_interest establishment"
"ChIJg1YM0Q5u5kcRXdem_tWJycg","Mairie du 10e arrondissement","48.8717442","2.357828",NA,"3.9","52","city_hall local_government_office point_of_interest establishment"
"ChIJGcMd9Q1u5kcRYJU1CLwirFc","Altermundi Mairie du 10 - Paris 10","48.8722456","2.3572437",NA,"4.2","20","store home_goods_store point_of_interest clothing_store establishment"
"ChIJ18MICRJu5kcRUWOUI_qJGFU","PFG - SERVICES FUNÉRAIRES","48.8718036","2.3568638",NA,"3","4","funeral_home general_contractor point_of_interest establishment"
"ChIJB4Cj9w1u5kcRnQMrEjk4Ehg","La Petite Louise","48.8719094","2.3570824","2","4.2","271","restaurant bar food point_of_interest establishment"
"ChIJmXlHDxJu5kcR0w00O8-8xD0","Cobra Paris","48.8716689","2.3569816",NA,NA,NA,"point_of_interest establishment"
"ChIJdWCRABJu5kcR4LUYMit_82c","Papelli Fbg Saint Martin.","48.8716701","2.3569611",NA,"4.5","257","restaurant food point_of_interest establishment"
"ChIJD7fiBh9u5kcRYJSMaMOCCwQ","Paris","48.856614","2.3522219",NA,NA,NA,"locality political"
"ChIJ3wX4BxJu5kcR4FhMHnRBby0","Nadia Bonventre","48.8716689","2.3569816",NA,NA,NA,"health point_of_interest establishment"
"ChIJNZRbCBJu5kcRPNmlYl57UE0","Avec brio","48.8718115","2.3568477",NA,NA,NA,"point_of_interest establishment"
"ChIJtxRcjQ1u5kcRVXwHsQ8LhqE","Abscisse Nettoyage","48.8723101","2.3576872",NA,NA,NA,"point_of_interest establishment"
"ChIJZ9RGjQ1u5kcRXyx4WwVrE2g","PrepMyFuture","48.8723101","2.3576872",NA,"4.4","27","point_of_interest establishment"
"ChIJGZay8g1u5kcRtClEokYU-8E","Valentin Vezinat","48.8723101","2.3576872",NA,"3","2","point_of_interest establishment"
"ChIJ53TbMQRu5kcRPn4nUXNRoAs","Quentin Rodriguez","48.8723101","2.3576872",NA,"5","9","health point_of_interest establishment"
"ChIJQXXB8g1u5kcRFTh8pFnw0xA","Arizaderm Cosmetics","48.8723288","2.3576407",NA,"4.5","11","point_of_interest store establishment"
"ChIJZ_cV-Q1u5kcRfGyAGUQpgYA","La Vie Claire Paris Saint Martin","48.8714603","2.35729",NA,"4.2","42","grocery_or_supermarket food point_of_interest store establishment"
"ChIJgxSljA1u5kcRubyVCstMxno","Soap and the City, soaps and candles French","48.8723761","2.3574034",NA,"4.7","64","health point_of_interest clothing_store store establishment"
"ChIJA2mbjA1u5kcRwR-IgRLUJws","Mairie du 10e","48.871947","2.3573048",NA,"4.8","4","bus_station transit_station point_of_interest establishment"
"ChIJTekOIw1v5kcRo3joF2lwDhs","Résidence de l'Eau (4e étage dans la mairie)","48.8719749","2.3575134",NA,NA,NA,"point_of_interest establishment"
"ChIJR2FN8g1u5kcRmPj-9azpr1Q","Aknar International","48.8721262","2.357555",NA,NA,NA,"point_of_interest establishment"
"ChIJcx338g1u5kcRFdhnqWX50Xs","Optic 10E","48.8721783","2.3576073",NA,NA,NA,"health point_of_interest store establishment"
"ChIJaeQ5CxJu5kcRIp977zKHbY8","La Cabane","48.8722399","2.3572504",NA,NA,NA,"point_of_interest establishment"
"ChIJGcMd9Q1u5kcRVioi9ZN-2yw","DevFloor","48.87223","2.3571991",NA,"4.5","2","point_of_interest establishment"
"ChIJGcMd9Q1u5kcRxJS9ai_SSnc","Paw","48.87223","2.3571991",NA,"5","2","point_of_interest establishment"
"ChIJpQP29A1u5kcRoFHHTRvDcjg","Grant Pamela","48.87223","2.3571991",NA,NA,NA,"point_of_interest establishment"
"ChIJpQP29A1u5kcR1z-n5UBHdeU","Francisque Eddie","48.87223","2.3571991",NA,NA,NA,"point_of_interest establishment"
"ChIJlSSJEYJv5kcRNeRPHRVXApc","IRIS CHERVET ARCHITECTURES","48.8717442","2.357828",NA,NA,NA,"point_of_interest establishment"
"ChIJ8caD211v5kcRrbRvE3AV2sQ","BomBomLife","48.8717442","2.357828",NA,"5","3","health point_of_interest establishment"
"ChIJWRGa7w1u5kcRiS9rI-KALWk","Les Mongols de l'Occident","48.8717442","2.3578281",NA,NA,NA,"point_of_interest establishment"
"ChIJG7zn9A1u5kcR_woyvOIkRCc","CITADIA DESIGN","48.8722456","2.3572437",NA,NA,NA,"general_contractor point_of_interest establishment"
"ChIJ2bLJ77Vv5kcR3VuIwVC8aiA","Loopsider","48.8722456","2.3572437",NA,"5","1","point_of_interest establishment"
"ChIJ3aj9-g1u5kcRkVgB0_5kK4k","Rainbow Informatique","48.8715729","2.3574315",NA,"2","1","store point_of_interest establishment"
"ChIJCwb4BxJu5kcRcfVfResr6GU","Fabulous Fab","48.871669","2.3569817",NA,NA,NA,"point_of_interest establishment"
"ChIJsTuswHRv5kcRBOetpVobpuM","Cécile Alexandre Sophrologue Paris 10","48.8716689","2.3569816",NA,"4.8","4","health point_of_interest establishment"
"ChIJgV-arFBv5kcRT3bL5MI2954","Aurélie Clair - Hypnose Médicale Paris","48.8716689","2.3569816",NA,"5","3","health point_of_interest establishment"
"ChIJDZWU9HRv5kcR5vOjRmFmRuM","Juliette Bosramier - Sophrologie et Hypnose Paris","48.8716689","2.3569816",NA,NA,NA,"health point_of_interest establishment"
"ChIJHSAbkkhv5kcRrDADmTxOOEc","Daniela Gonçalves - Psychologue","48.8716689","2.3569816",NA,NA,NA,"health point_of_interest establishment"
"ChIJx-72RT9v5kcREVuIFuyNBrA","JUSTINE SAUNIER","48.8716689","2.3569816",NA,"5","9","health point_of_interest establishment"
"ChIJgaprZC5v5kcRK8Kvj1Y8QHo","Valérie BEAUMONT - SOPHROLOGUE","48.8716689","2.3569816",NA,"5","1","health point_of_interest establishment"
"ChIJdxbUZctv5kcRMPwzVk9dFpA","MAPARENTHÈSE - Studio Yoga, Pilates, Méditation et Médecines Naturelles","48.8716689","2.3569816",NA,"5","44","health point_of_interest establishment"
"ChIJS_D6yKFv5kcRvVgREQoVsG4","Sirine Massage","48.8716689","2.3569816",NA,NA,NA,"point_of_interest establishment"
"ChIJo06DtCVv5kcR_FSoSQ-OfK0","Sandrine DARGAUD","48.8716689","2.3569816",NA,NA,NA,"health point_of_interest establishment"
"ChIJGbpPIgJv5kcRoT6D106bKQA","L'heure aux Îles D'Or","48.8718115","2.3568477",NA,NA,NA,"jewelry_store point_of_interest store establishment"
"ChIJGTBV-g1u5kcRg1nJ6bSCmeg","Colis - Bangla Paris - chateau d'eau","48.8715405","2.3574916",NA,"1","1","point_of_interest establishment"
"ChIJ5Yo2SzVv5kcRyYPxgbvNfvo","Les Petits Mecs","48.8718191","2.3568137",NA,"4.6","42","point_of_interest clothing_store store establishment"
"ChIJIxq6eoZv5kcRgFexFWGqWaI","Kaliméra / Épicerie fine Grecque","48.8715375","2.3575093",NA,"5","6","food point_of_interest store establishment"
"ChIJBbHxzcpv5kcRww39nPcIZr8","Gfst","48.8715375","2.3575093",NA,"5","1","electronics_store point_of_interest store establishment"
"ChIJgfkw7A1u5kcRt74t3s9AygA","Flambeau D'afrik Paris","48.8720519","2.3579288",NA,NA,NA,"point_of_interest establishment"
