"Id","Name","Lat","Lng","Price_level","Rating","Nb_Rating","Type"
"ChIJ46kkftBt5kcRQqbL4ncSRUU","16 Rue Euryale Dehaynin","48.8859739","2.3779148",NA,NA,NA,"route"
"ChIJbR3xf9pt5kcRaYcVCnRnDQs","Paul H","48.8857332","2.3777969",NA,NA,NA,"point_of_interest establishment"
"ChIJBahdkNBt5kcRHUnZLG_jnvs","BarOurcq","48.8864713","2.3772929","1","4.2","644","bar point_of_interest establishment"
"ChIJHabiftBt5kcRdybLSfMSH5k","Collège Sonia Delaunay","48.885999","2.378017",NA,"3.1","17","university secondary_school school point_of_interest establishment"
"ChIJ_8IkhNZt5kcR8bLXqysG9XY","Fund For Schools Du 19ème","48.8859488","2.3781782",NA,"5","1","school point_of_interest establishment"
"ChIJLxCOj9Bt5kcRjl3gEgXaI2c","Ecoute et Soutien","48.886515","2.3774339",NA,NA,NA,"point_of_interest establishment"
"ChIJYe24ZgZy5kcRPJbCfB25VnY","Mouvement Colibris","48.8862018","2.3777475",NA,"5","4","point_of_interest establishment"
"ChIJBVu2Lhtt5kcRZqohP44TRj4","Service Maillard bp67","48.8860737","2.3777328",NA,NA,NA,"point_of_interest establishment"
"ChIJYfwEh9Bt5kcRMAnSVqSsExE","Coopérative Oasis","48.8862018","2.3777475",NA,NA,NA,"point_of_interest establishment"
"ChIJzXw-htBt5kcRSwA5JbwsCWA","Baap","48.8863311","2.3776485",NA,NA,NA,"point_of_interest establishment"
"ChIJi2SugNBt5kcRwLlLz4Eg93w","Fellous Claude","48.8862749","2.3778182",NA,"5","1","doctor health point_of_interest establishment"
"ChIJi2SugNBt5kcRaEVBuPBG9rw","Laeng Jerome","48.8862749","2.3778182",NA,NA,NA,"point_of_interest establishment"
"ChIJ__-Ph9Bt5kcRcK7F5jYER20","Près de chez nous","48.8862703","2.3778533",NA,"5","1","point_of_interest establishment"
"ChIJ5fOPh9Bt5kcRdeOYu7xg9Pk","Indenomade","48.8862716","2.3778576",NA,NA,NA,"travel_agency point_of_interest establishment"
"ChIJbR3xf9pt5kcR_c45d3aoubk","Reiss Myrto","48.8857332","2.3777969",NA,NA,NA,"point_of_interest establishment"
"ChIJe2Cn-FFt5kcRrrP7u7RgEAk","Association Spectrum Paris - Recherche Paranormale","48.8863467","2.3770497",NA,NA,NA,"point_of_interest establishment"
"ChIJ08NgkNBt5kcR2s9FlozY498","Diette Guillaume","48.8863467","2.3770497",NA,NA,NA,"point_of_interest establishment"
"ChIJ6yG4ndBt5kcRtA_59HeR528","AEEM DENNKO","48.8858953","2.376904",NA,NA,NA,"point_of_interest establishment"
"ChIJj7CGaMO3zhIR0BZXQt3-UA0","Viale Olivier Claude","48.8856988","2.377108",NA,NA,NA,"food point_of_interest establishment"
"ChIJD7fiBh9u5kcRYJSMaMOCCwQ","Paris","48.856614","2.3522219",NA,NA,NA,"locality political"
"ChIJZRKi4kxu5kcRorzwBL6b5Jo","virgile vallet osteopathe","48.8864439","2.3771337",NA,"5","11","health point_of_interest establishment"
"ChIJzZ0Jetpt5kcRjtdnHGLlaPg","Square Marcel Mouloudji","48.885429","2.3771593",NA,NA,NA,"park premise point_of_interest establishment"
