"Id","Name","Lat","Lng","Rating","Nb_Rating","Type"
"ChIJKYcoPsFt5kcRCmQ2mNnxMNk","1-8 Villa des Buttes Chaumont","48.8792794","2.3873805",NA,NA,"route"
"ChIJBeTcQcFt5kcRsSnumKoU4kk","Ki Life","48.8793257","2.3869127","3","1","point_of_interest establishment"
"ChIJ9YofaMFt5kcRbISydtlOjAY","Rault Ivana","48.8792779","2.3865461",NA,NA,"point_of_interest establishment"
"ChIJ-YYIQMFt5kcR7XvBRZBnIyE","Spiruline De La Côte Bleue","48.879312","2.3871533",NA,NA,"point_of_interest establishment"
"ChIJcVGwYqZt5kcRAhFu9OzID8o","Els-Développement","48.8793306","2.3871524",NA,NA,"point_of_interest establishment"
"ChIJD7fiBh9u5kcRYJSMaMOCCwQ","Paris","48.856614","2.3522219",NA,NA,"locality political"
