"Id","Name","Lat","Lng","Price_level","Rating","Nb_Rating","Type"
"ChIJ4yUKAEJu5kcRHoQCJ8YWKR0","77-67 Rue Marguerite de Rochechouart","48.8814023","2.3465149",NA,NA,NA,"route"
"ChIJFWBp-mlu5kcRt2BwoZYcchk","Vintage Paris Gare du Nord","48.8817722","2.3471716",NA,"4","753","lodging point_of_interest establishment"
"ChIJt81tB0Ju5kcRl-1pZAjgVK8","Balades Sonores","48.8817098","2.3461913",NA,"4.6","199","art_gallery electronics_store home_goods_store point_of_interest clothing_store store establishment"
"ChIJvShLB0Ju5kcRReszdGQ_aVs","polyprim","48.8816301","2.3464408",NA,"3.8","4","point_of_interest store establishment"
"ChIJIcaj_Wlu5kcRdBnuIpxlK4A","Paripac","48.881634","2.3466909",NA,NA,NA,"point_of_interest establishment"
"ChIJOXjPBkJu5kcRksWtC8w2xks","CHEZ BOUBOULE PIGALLE","48.881905","2.346707","2","3.9","203","bar food point_of_interest establishment"
"ChIJD2-jBkJu5kcR6qgM46OBSrg","DUNKERQUE","48.8816667","2.3463889","2","4","856","cafe bar restaurant food point_of_interest establishment"
"ChIJ6UgDCEJu5kcRZlhoJjVb_OE","Violaine Béraud-Sudreau","48.8820279","2.3465742",NA,NA,NA,"health point_of_interest establishment"
"ChIJcWN8D0Ju5kcRv6jyjXBIn2w","Adam-Caumeil Judith","48.8820112","2.3461503",NA,NA,NA,"lawyer point_of_interest establishment"
"ChIJHT_3BUJu5kcRBno-7ZRL_tA","Pharmacie d'Anvers","48.8820335","2.3462401",NA,"5","20","pharmacy health point_of_interest store establishment"
"ChIJcWN8D0Ju5kcRI2o8gxEDYlQ","Fau Alexandra","48.8820112","2.3461503",NA,"1","1","point_of_interest establishment"
"ChIJqy-LAEJu5kcR5qUq76x2Vrc","Levy Harold","48.881484","2.3463269",NA,NA,NA,"point_of_interest establishment"
"ChIJEVdiAEJu5kcRl0hLuP6-3zc","Mixomania","48.881484","2.346327",NA,"5","2","bar point_of_interest establishment"
"ChIJq6q6AUJu5kcRN3uO8lgPmHk","Productions du Sillon","48.881484","2.3463269",NA,NA,NA,"point_of_interest establishment"
"ChIJPQqPAUJu5kcRftIMCt33hGQ","Macstuff Shop","48.881484","2.3463269",NA,"3","2","store point_of_interest establishment"
"ChIJLbVW4mlu5kcRKK71u5LccsA","Bui Beauté","48.8821782","2.3468231",NA,"4.6","30","beauty_salon point_of_interest establishment"
"ChIJUx0JCUJu5kcR5lCilmcnv9s","CMJ Sarl","48.8822005","2.3464164",NA,NA,NA,"point_of_interest establishment"
"ChIJA96jGkhu5kcRHPb1x77rAE4","You Talking To Me","48.8820542","2.3471108",NA,NA,NA,"point_of_interest establishment"
"ChIJbWDr_0Fu5kcRq86dk_iakJ0","73 Parking Garage Rochechouart","48.8813959","2.346417",NA,"3.2","10","parking point_of_interest establishment"
"ChIJD7fiBh9u5kcRYJSMaMOCCwQ","Paris","48.856614","2.3522219",NA,NA,NA,"locality political"
"ChIJ361M_Wlu5kcR-Lnv5MtGJ78","Groupe Pleiades","48.881847","2.3468624",NA,NA,NA,"finance point_of_interest establishment"
"ChIJyw0i5Wlu5kcRzd8vvkU_dks","Sécuritas","48.8820557","2.3471477",NA,"5","1","point_of_interest establishment"
"ChIJeRNY5Wlu5kcRBqLFsTbreuA","Shengsheng","48.8819376","2.3472434",NA,"1","1","point_of_interest store establishment"
"ChIJOR8tGShu5kcRnpq1x2koynE","Appear Here","48.8821175","2.3471045",NA,"4.7","16","real_estate_agency point_of_interest establishment"
"ChIJI9ij_Wlu5kcRyh26ooXjJlI","CAMARA PARIS 09","48.881634","2.3466909",NA,"4.3","24","electronics_store home_goods_store point_of_interest store establishment"
"ChIJUx0JCUJu5kcRJT1rCPwBC30","Artora","48.8822005","2.3464164",NA,NA,NA,"point_of_interest establishment"
"ChIJSV3bCUJu5kcRRWShKxitwzI","Abalhaoune Lahoussine","48.8821702","2.3464496",NA,NA,NA,"grocery_or_supermarket food point_of_interest store establishment"
"ChIJIcaj_Wlu5kcRuSKiTfXklis","Réseau International Immobilier","48.8817504","2.3466543",NA,NA,NA,"real_estate_agency point_of_interest establishment"
"ChIJhaoa_mlu5kcRgpu43isE85I","La Binouze Rochechouart","48.8817422","2.3466556",NA,"4.7","233","bar liquor_store restaurant food point_of_interest store establishment"
"ChIJuz3o_Wlu5kcRM1_cluuZWzg","CAVE A BIERES (La Binouze Rochechouart)","48.8817189","2.3466503",NA,"4.9","23","bar point_of_interest establishment"
"ChIJV0InB0Ju5kcRb6ouMuEeRnY","Keycafe","48.881734","2.346395",NA,NA,NA,"point_of_interest store establishment"
"ChIJMxQMCUJu5kcRF3-ZvLlZnuU","Philippe","48.881847","2.3468624",NA,NA,NA,"bakery food point_of_interest store establishment"
"ChIJY18h_Glu5kcRYbU9pctZEfw","Hacor Services","48.881847","2.3468624",NA,"2","1","point_of_interest establishment"
"ChIJAzFsB0Ju5kcRaFj67JwLRHY","Hayaux Dutilly Emmanuel","48.8816997","2.3463667",NA,NA,NA,"point_of_interest establishment"
"ChIJm1h_2BJv5kcRmRfbxjfuUC0","SALUMERIA","48.881634","2.3466909",NA,NA,NA,"point_of_interest establishment"
"ChIJ__9v_mlu5kcRH0A-GLhcwq0","Le Monde des SCPI","48.881634","2.3466909",NA,NA,NA,"finance point_of_interest establishment"
"ChIJ__9v_mlu5kcRh4_1kEVG6p4","Feelnfood","48.881634","2.3466909",NA,NA,NA,"point_of_interest establishment"
"ChIJ__9v_mlu5kcRbCug3303StA","LE DEPANNEUR (SARL)","48.881634","2.3466909",NA,NA,NA,"convenience_store food point_of_interest store establishment"
"ChIJ8dleB0Ju5kcRX3zAbFlngUs","ELCY","48.881634","2.3466909",NA,NA,NA,"point_of_interest establishment"
"ChIJFxmj_Wlu5kcR3m5z20NzOC8","Leca Bernard","48.881634","2.3466909",NA,NA,NA,"point_of_interest establishment"
"ChIJHcE0AUJu5kcRJZJDYkoByMI","Papilles Coffeehouse & Restaurant","48.8816545","2.3464058","2","4.4","327","meal_delivery cafe restaurant food point_of_interest establishment"
"ChIJRTpsB0Ju5kcRtywG1s01vpk","Synd Copro Soc Safima","48.8817442","2.3462531",NA,NA,NA,"real_estate_agency point_of_interest establishment"
"ChIJ55-R4mlu5kcRJxI6uBrufzI","Zenatti Immobilier","48.8820489","2.3468318",NA,"5","1","real_estate_agency point_of_interest establishment"
"ChIJhaoa_mlu5kcRHJLgDkg0nuE","Faggio","48.881557","2.3466496","2","4.1","467","restaurant food point_of_interest establishment"
"ChIJ55-R4mlu5kcRRP076-eOY3M","La Botte Plus","48.8820489","2.3468318",NA,"5","8","point_of_interest establishment"
"ChIJ4wXv4mlu5kcRQVUB8XqQ_-w","Horloger","48.8820827","2.3467589",NA,NA,NA,"point_of_interest establishment"
"ChIJ02zhA-lv5kcR0AFMyxw1LV0","Galerie Boho Boheme","48.8820434","2.3468786",NA,"5","4","general_contractor point_of_interest establishment"
"ChIJq6pG42lu5kcRUO6NLaotYbE","Kelos - Handmade Glass","48.8820434","2.3468786",NA,NA,NA,"point_of_interest establishment"
"ChIJleBX-2lu5kcReNBz3s8dErQ","Kay Quinn Quinn","48.8820434","2.3468786",NA,NA,NA,"point_of_interest establishment"
"ChIJ55-R4mlu5kcRAvb32YYcE5k","Gardair","48.8820434","2.3468786",NA,NA,NA,"point_of_interest establishment"
"ChIJu6jzRq5v5kcRBFfuOuLJlYU","Carni","48.8815116","2.3464119",NA,"4.8","35","restaurant food point_of_interest establishment"
"ChIJlWPYI2vsC0ERkChD84nYf0o","Au Caprice Gourmand","48.8821409","2.3465034",NA,"4.4","111","bakery food point_of_interest store establishment"
"ChIJm_Mw-cFv5kcRvC6-bfGcryM","Balk-Bazot Ulrike","48.8820112","2.3461503",NA,NA,NA,"lawyer point_of_interest establishment"
"ChIJcWN8D0Ju5kcRSvtUIt7Bmmo","Gregores Joanna","48.8820112","2.3461503",NA,NA,NA,"furniture_store home_goods_store point_of_interest store establishment"
"ChIJcWN8D0Ju5kcRzzuZtMXBr04","TRUDAINE OPTIQUE","48.8820112","2.3461503",NA,"5","12","health point_of_interest store establishment"
"ChIJb6PiCEJu5kcRAqv4xyRbzeI","Dr Jean Luc Roy","48.8821533","2.346393",NA,"3.8","4","doctor health point_of_interest establishment"
"ChIJTR7NRgtv5kcR93ZrLyJOQXY","Marc Procaccia - Coach Thérapeute Magnétiseur","48.881484","2.3463269",NA,NA,NA,"health point_of_interest establishment"
"ChIJFZouAmhv5kcR3dYjJeE4zqM","Faggio Osteria","48.881484","2.3463269",NA,NA,NA,"restaurant food point_of_interest establishment"
"ChIJy1Wf4qZv5kcRc9Md58kJr2o","Paille Ecologique SuperStraw. par Les Ateliers Mixologie ©","48.881484","2.3463269",NA,NA,NA,"point_of_interest establishment"
"ChIJq6q6AUJu5kcRnvdmWaUoKfE","ร้านนอด","48.881484","2.3463269",NA,NA,NA,"point_of_interest establishment"
