"Id","Name","Lat","Lng","Rating","Nb_Rating","Type"
"ChIJL0eJszJs5kcRxEpxgq5E-EY","32-54 Rue de Cambrai","48.8959485","2.3825628",NA,NA,"route"
"ChIJ32ZRzzJs5kcRUo3RLvOSrI8","square du quai de la Gironde","48.8963255","2.3833401","4","3","park point_of_interest establishment"
"ChIJx_PP7AZt5kcRgCE8ipxzxGU","Navette fluviale Le Millénaire","48.8967226","2.3829032","5","2","point_of_interest establishment"
"ChIJk5skwzJs5kcR66zKmQvIdBc","Embarcadère Le Millénaire","48.8967839","2.3836426","3.8","18","point_of_interest establishment"
"ChIJD7fiBh9u5kcRYJSMaMOCCwQ","Paris","48.856614","2.3522219",NA,NA,"locality political"
