"Id","Name","Lat","Lng","Rating","Nb_Rating","Type"
"ChIJ52pUD1hu5kcRJKQP8UpUi4Q","21-5 Passage du Champ Marie","48.896278","2.3372091",NA,NA,"route"
"ChIJo81dBFhu5kcRiwuTL9hTw-k","Of'esa","48.8962181","2.3369604",NA,NA,"point_of_interest establishment"
"ChIJ3WxsIVhu5kcRYtL58JmY6IA","Flexsin: Digital marketing agency, web development, mobile application","48.8957663","2.3367811","5","3","point_of_interest establishment"
"ChIJz9_3clhu5kcRd7FJQYfQ_aY","Etienne Catherine","48.8957663","2.3367811",NA,NA,"point_of_interest establishment"
"ChIJJxc5I9NIVg0RmR5-ABHKYeg","Svelt studio • Design graphique — Direction artistique","48.895655","2.336798","5","1","point_of_interest establishment"
"ChIJR4hDmdtv5kcRME5GJcBivxA","Elementary School Belliard","48.8963612","2.3361129",NA,NA,"school point_of_interest establishment"
"ChIJD7fiBh9u5kcRYJSMaMOCCwQ","Paris","48.856614","2.3522219",NA,NA,"locality political"
