"Id","Name","Lat","Lng","Price_level","Rating","Nb_Rating","Type"
"ChIJH0cxVsVt5kcRgaG8Gi28c0c","Avenue Jean Jaurès","48.885635","2.3811599",NA,NA,NA,"route"
"ChIJ7QLlWMVt5kcRJ2bgtTpgQjo","Le Morlaix","48.8855387","2.3815921",NA,"3.8","16","restaurant liquor_store food point_of_interest store establishment"
"ChIJ_XLIWcVt5kcR8jFEG8gOndQ","A-J-C Training Center","48.8853869","2.3814594",NA,NA,NA,"point_of_interest establishment"
"ChIJ8eELUcVt5kcRm83kt-2fQWY","Laverie du Rhin","48.8852343","2.3811052",NA,"4.5","2","laundry point_of_interest establishment"
"ChIJ-Q3FXsVt5kcRX-P6FXm3HoA","Fresh Food","48.885565","2.3816657","2","3.7","59","restaurant food point_of_interest establishment"
"ChIJucwDqtpt5kcR3tnsXby5djc","Cedars - Restaurant Libanais","48.8856276","2.380461",NA,"4.2","418","meal_delivery restaurant food point_of_interest establishment"
"ChIJ7ZALU8Vt5kcRXpq1Nc237Xw","PHO 19","48.8852285","2.38078",NA,"3.9","153","restaurant food point_of_interest establishment"
"ChIJ2YW0UcVt5kcRBtPAOtbDjNQ","Opngo","48.8851644","2.3811951",NA,"2.4","5","parking point_of_interest establishment"
"ChIJbaLFU8Vt5kcRJ-rhop037Po","Boucherie Durand","48.8851664","2.3808176",NA,"4.8","20","food point_of_interest store establishment"
"ChIJczXMV8Vt5kcRdEHstyERUto","Caisse d'Epargne Paris Laumiere","48.8858043","2.3811203",NA,"2","21","bank atm finance insurance_agency health point_of_interest establishment"
"ChIJ_XLIWcVt5kcRMRELVn61QKQ","Boucherie Desfrennes","48.8853869","2.3814594",NA,"4.9","8","food point_of_interest store establishment"
"ChIJKf2RVsVt5kcRiUaB4uh9E2U","Agence Final Word","48.8854953","2.3810625",NA,NA,NA,"point_of_interest establishment"
"ChIJFbhdAtBt5kcR9vFxXuk4VPY","Centre de de Santé Médico-dentaire Jean Jaurès-Laumière","48.8857446","2.3809004",NA,"3.6","37","health point_of_interest establishment"
"ChIJbZEDVMVt5kcRN7bNtL63sgU","Fontaine Wallace","48.8854057","2.3809733",NA,NA,NA,"point_of_interest establishment"
"ChIJj-w4V8Vt5kcRLI0gwBD2_Zk","Extra Time","48.8854266","2.3812512",NA,NA,NA,"point_of_interest establishment"
"ChIJ_ZMfUcVt5kcRxep7vNezlUU","Les Merveilles D'oona","48.8854073","2.381229",NA,"5","5","book_store school point_of_interest store establishment"
"ChIJ5bdHV8Vt5kcRswafPuuEXjc","Extra pizza","48.8853908","2.381221",NA,"4.7","6","restaurant food point_of_interest establishment"
"ChIJB9NWVMVt5kcRiW-QrQcVdcQ","Huguet Primeurs","48.8853346","2.3810877",NA,"3.7","14","grocery_or_supermarket food point_of_interest store establishment"
"ChIJq6r6_89t5kcRJHL38v1rQnE","Kh","48.8857392","2.3807117",NA,NA,NA,"point_of_interest establishment"
"ChIJD7fiBh9u5kcRYJSMaMOCCwQ","Paris","48.856614","2.3522219",NA,NA,NA,"locality political"
"ChIJ8wO-WcVt5kcRIXgi6VRJKwk","Basma (Sarl)","48.8854495","2.3814555",NA,NA,NA,"point_of_interest establishment"
"ChIJ8wO-WcVt5kcRumyaNmL3v4M","SAS BOUCHERIE DE MEAUX","48.8854495","2.3814555",NA,"4.4","7","food point_of_interest store establishment"
"ChIJ-_9Tb71t5kcRxPfQYNU8lwA","w.p.s","48.8858946","2.3810789",NA,"3.3","7","liquor_store food point_of_interest store establishment"
"ChIJ_ZMfUcVt5kcR9tcX6_bwxSk","Infantes Emmanuel","48.8852937","2.3811513",NA,NA,NA,"point_of_interest establishment"
"ChIJ67zg_89t5kcRTBc3lRH49UY","Ouissal El Hammoumi","48.8857762","2.3806883",NA,NA,NA,"point_of_interest establishment"
"ChIJ67zg_89t5kcR4W_foRWUxkY","Dr Céline Auffret","48.8857762","2.3806883",NA,"5","1","doctor health point_of_interest establishment"
"ChIJG6_bWcVt5kcR_pgmtvJGgzQ","Star Orientale","48.8854278","2.3814993",NA,"5","2","store point_of_interest establishment"
"ChIJ_XLIWcVt5kcRi6kkQL7x7Hk","Bonnaud Emilie","48.8853869","2.3814594",NA,"5","1","point_of_interest establishment"
"ChIJvWtbU8Vt5kcRm9dKmo3Wb7k","Fruits Et Legumes En Libre Choix","48.8853518","2.3806966",NA,"3.9","7","food point_of_interest store establishment"
"ChIJC-WN-c9t5kcRF2hBBcjJafE","Optique Medicale Jaures FED'OPTIC","48.8858773","2.381399",NA,"4.4","7","health point_of_interest store establishment"
"ChIJC-OKKzRt5kcRqLphBvp5GtQ","la maison des délices","48.885432","2.3815968",NA,"4.5","4","bakery food point_of_interest store establishment"
"ChIJUWUU989t5kcR2rLnrL1e_NI","Franco et Giacomo","48.8859863","2.3813891","2","4.1","351","restaurant food point_of_interest establishment"
"ChIJzTvo4Att5kcRRpLu08qx0wc","Chaponiais","48.8853415","2.3806215",NA,NA,NA,"point_of_interest establishment"
"ChIJnaxgqtpt5kcRC8mCK9Lvjys","Gofood","48.8856276","2.3804609",NA,NA,NA,"point_of_interest establishment"
"ChIJE_GLUcVt5kcRx0540OPaEuE","La Ferme de Chloé","48.88517","2.380983","2","4.5","76","food point_of_interest store establishment"
"ChIJ0-SLUcVt5kcRGqswZLCLtdU","S.p.s","48.8851702","2.3809604",NA,"3","3","point_of_interest store establishment"
"ChIJk85IX8Vt5kcRDSSsl1DZkDc","Boucherie Musulmane","48.885618","2.3817499",NA,"4.8","4","food point_of_interest store establishment"
"ChIJE_GLUcVt5kcRh0H5Q2ZY6zM","Sivakumar Selladurai","48.8851664","2.3808176",NA,"4","2","point_of_interest establishment"
"ChIJAQBcUsVt5kcRIXNXQa4EbgA","Joly Telecom","48.8851664","2.3808176",NA,"2.9","10","point_of_interest establishment"
"ChIJ__8jX8Vt5kcRdGSFTHVF4lw","Kataposte","48.8855403","2.3817727",NA,NA,NA,"point_of_interest establishment"
"ChIJ__8jX8Vt5kcRpcLiEXLGFJM","Vincent Capmartin","48.8855403","2.3817727",NA,NA,NA,"general_contractor point_of_interest establishment"
