"Id","Name","Lat","Lng","Rating","Nb_Rating","Type"
"ChIJGWq23gpy5kcRyjwY0zhBc-E","212-224 Boulevard Voltaire","48.8531039","2.3880208",NA,NA,"route"
"ChIJ0Rhmwwpy5kcRYwRZYue2EOY","Comfort Hotel Nation Père Lachaise Paris 11","48.853682","2.3881479","3.4","277","lodging point_of_interest establishment"
"ChIJX8sQ1wpy5kcRLrprmXLoOl0","Dental Practice Dr Véronique Nizard","48.8531369","2.388593","4.7","12","dentist health point_of_interest establishment"
"ChIJ6Sf1xApy5kcRWfo7s2hhszM","SEC3","48.8534513","2.3882986","2.5","2","accounting finance point_of_interest establishment"
"ChIJF4koe3Ry5kcR-FqmQATA5hk","SERVICES ETOILES","48.8536222","2.3883677",NA,NA,"point_of_interest establishment"
"ChIJ87ZvmZJt5kcRASLdctGmaGE","Arcans","48.8535621","2.3884104",NA,NA,"point_of_interest establishment"
"ChIJN3CA0Qpy5kcRXcJJVBDpPSY","dst - security","48.8534705","2.388338","3.8","24","point_of_interest establishment"
"ChIJN3CA0Qpy5kcR9hr-3x7avYc","Solerim 0","48.8534705","2.388338",NA,NA,"point_of_interest establishment"
"ChIJtc4FFJtz5kcRAW8Uevd4Y6I","Renfort Service","48.8534705","2.388338","5","1","point_of_interest establishment"
"ChIJuwXs2gpy5kcRKhxiSwwBWXc","Franprix","48.85357","2.3882","3.5","85","supermarket grocery_or_supermarket restaurant food point_of_interest store establishment"
"ChIJAwMl8Dxu5kcRtRgOSj8v2RQ","Deerns France","48.8536226","2.3881585","5","1","point_of_interest establishment"
"ChIJpcuH3Apy5kcRs9zrvyzO5hs","FranceTradeWorld","48.8533064","2.38812",NA,NA,"point_of_interest establishment"
"ChIJ76iI5wpy5kcR_dCmc_0cXz8","Gravoclés Locksmith Paris 11","48.8533891","2.3878444","4.5","93","locksmith point_of_interest establishment"
"ChIJ1cBL6Apy5kcRI8sz8bB98Mw","Bio c' Bon Paris Voltaire","48.8535945","2.3877116","3.8","98","supermarket grocery_or_supermarket food point_of_interest store establishment"
"ChIJo74u3Apy5kcREVeEiR_c7Es","Sixt Paris 11","48.8533274","2.3880377","4.2","138","car_rental point_of_interest establishment"
"ChIJAQAw6Apy5kcRu-UJ3_JCtjA","Sodimut","48.8535693","2.3877685",NA,NA,"insurance_agency health point_of_interest establishment"
"ChIJI8f_zgpy5kcRi5vLdKFgKt0","Atelier de la Boiserie","48.8536309","2.3885924",NA,NA,"point_of_interest establishment"
"ChIJbzai5wpy5kcRgzvAORIfLgc","OCE IMMOBILIER","48.8533926","2.387881","4","4","real_estate_agency point_of_interest establishment"
"ChIJN3CA0Qpy5kcRnQW7fTMcHcE","Sacko Lassana","48.8534705","2.388338",NA,NA,"point_of_interest establishment"
"ChIJD7fiBh9u5kcRYJSMaMOCCwQ","Paris","48.856614","2.3522219",NA,NA,"locality political"
"ChIJwcqKxApy5kcRC90btM3Xk_o","Cabinet HOREN","48.8535566","2.3883827",NA,NA,"accounting finance point_of_interest establishment"
"ChIJi6BeAshz5kcR9H2EnkK7q7w","Oreegami","48.8535843","2.3882484","5","17","point_of_interest establishment"
"ChIJoT-LxApy5kcRWkf_kEQFhqE","Communications et VM","48.8535843","2.3882484",NA,NA,"point_of_interest establishment"
"ChIJ6Sf1xApy5kcRULLLBjg2n3o","Audit de France Sodip","48.8535843","2.3882484",NA,NA,"accounting finance point_of_interest establishment"
"ChIJK4t72wpy5kcRl3qL429ojaQ","Cartier Hamon Immobilier","48.8533315","2.3881457",NA,NA,"real_estate_agency point_of_interest establishment"
"ChIJK4t72wpy5kcRmmOMdXINPXU","Sushi Like","48.8533315","2.3881457","4.3","30","restaurant food point_of_interest establishment"
"ChIJpcuH3Apy5kcR2mGQaEw-5eI","Pain Blanc","48.8532962","2.3881017","2.3","20","bakery food point_of_interest store establishment"
"ChIJP88u3Apy5kcR4s_m4Uuvhwk","SB Architecture","48.8532962","2.3881017",NA,NA,"point_of_interest establishment"
"ChIJY1j13Apy5kcRcIOOYIo1IZk","Pierre Neff","48.8532883","2.3880491","5","1","real_estate_agency point_of_interest establishment"
"ChIJ5a9x3Apy5kcRb0fBwk9knpw","Boulangerie","48.8532357","2.3881004",NA,NA,"bakery food point_of_interest store establishment"
"ChIJFw3swwpy5kcRJ2eOlnW42TM","S E H P XI","48.8536991","2.3881355",NA,NA,"lodging point_of_interest establishment"
"ChIJHaAuxApy5kcROiq-axmpguM","Nehlig Camille","48.8537298","2.3883312",NA,NA,"point_of_interest establishment"
"ChIJIZB12gpy5kcRLNuVAQvMZtw","Star","48.8532132","2.3884829",NA,NA,"point_of_interest establishment"
"ChIJP_8po0Nz5kcRDEStdpuIZnc","Dr Caroline Krys-Koskas - Cabinet d'orthodontie - Invisalign","48.8532051","2.3881403","4.9","7","dentist health point_of_interest establishment"
"ChIJXX6O2gZz5kcR8-gRYMv1DxM","Toilettes","48.8532709","2.3879385",NA,NA,"point_of_interest establishment"
"ChIJm22iyApy5kcRvhvucNoWi2Y","Burgevin Joël","48.8537639","2.3885011",NA,NA,"point_of_interest establishment"
"ChIJbzai5wpy5kcRYRSehjubwnc","Yoshi","48.8534297","2.3877827","4.5","172","restaurant food point_of_interest establishment"
"ChIJO5CcLXVy5kcRq9BbK_GO4Uc","Hagege Hilda","48.8534374","2.3888461",NA,NA,"point_of_interest establishment"
"ChIJZb6SIzpz5kcRu0DDYrOhxKY","Neuro Training Paris","48.8535693","2.3877685","5","7","health point_of_interest establishment"
"ChIJQTaBtYxz5kcRqNa7BpJBqfk","HopHopFood - Point de collecte Bio c' Bon Voltaire","48.8535693","2.3877685",NA,NA,"point_of_interest establishment"
"ChIJ0Sqm0v9z5kcRMM9yMnOmRcI","SABINE LAROUSSINIE Diététicienne-Micronutritionniste","48.8537987","2.3886715",NA,NA,"health point_of_interest establishment"
"ChIJq6oG6gpy5kcRm-E0iAkKqOE","FILMICA Production","48.853785","2.387809",NA,NA,"point_of_interest establishment"
"ChIJP4f3RKxz5kcRX8ox_yUXMuY","LOUIS NAILS","48.8537848","2.3878087","5","6","beauty_salon point_of_interest establishment"
"ChIJq6oG6gpy5kcRk_1IjFHuP5g","AMZ Immobilier","48.8537848","2.3878087",NA,NA,"real_estate_agency point_of_interest establishment"
"ChIJAbOT1ZNz5kcRVUwT_38c7kw","FrancoisDerfalet","48.8537848","2.3878087",NA,NA,"point_of_interest establishment"
"ChIJYQNd3Qpy5kcRqRss_piUL0g","Renée Bruzaite","48.85338","2.3878319",NA,NA,"point_of_interest store establishment"
