"Id","Name","Lat","Lng","Price_level","Rating","Nb_Rating","Type"
"ChIJVYDXtsFt5kcRzXJI7-c-S_4","48-50 Rue de la Villette","48.8770143","2.3878602",NA,NA,NA,"route"
"ChIJpxXqcsBt5kcRYuhfZi2jAiU","Chambres d'hôtes Haut de Belleville","48.876924","2.3883319",NA,"4.5","2","lodging point_of_interest establishment"
"ChIJGRchscFt5kcRkwhe7EGLQSk","Ctre d'action Sociale de Ville de Pari","48.877123","2.3878963",NA,NA,NA,"point_of_interest establishment"
"ChIJD2eLSsBt5kcRX6l8jouU4jQ","compagnie du goudron et des plumes","48.8769013","2.3885236",NA,NA,NA,"point_of_interest establishment"
"ChIJAQBQ2cFt5kcRbDTQAsG_m4w","The Tamarind Tree Photography","48.8771092","2.3878777",NA,"5","6","point_of_interest establishment"
"ChIJ99sId-pt5kcRGQbW9ehm2tE","REMEMBEUR","48.87704","2.388735",NA,NA,NA,"point_of_interest establishment"
"ChIJFeAbScBt5kcRbYzTJex6O8I","Nof Yam Prestige","48.8768959","2.388787",NA,"5","1","travel_agency point_of_interest establishment"
"ChIJn241scFt5kcRhZ7WDq-b2_w","L'Escargot Bar","48.8769684","2.3881114","2","4.4","348","restaurant bar food point_of_interest establishment"
"ChIJZ7Ufw3Fy5kcRvaP0XPu93tw","Xavier Martin perspectiviste freelance portfolio","48.8769138","2.3889099",NA,NA,NA,"point_of_interest establishment"
"ChIJ7-uMS8Bt5kcRN66PkjcCUyI","Ruelle Sebastien","48.8770796","2.3885993",NA,NA,NA,"point_of_interest establishment"
"ChIJoeuMS8Bt5kcRYXMF0li0-Ss","Mezzafonte Julie","48.8770796","2.3885993",NA,NA,NA,"point_of_interest establishment"
"ChIJoeuMS8Bt5kcRTK-NCYoZtvk","Création Sans Blanc","48.8770796","2.3885993",NA,"4.5","2","point_of_interest establishment"
"ChIJsd5OPm1t5kcRVaijyL0pwzE","Ezrat Menachem","48.8770908","2.3883782",NA,NA,NA,"point_of_interest establishment"
"ChIJRdNltMFt5kcRDKQ7KNrxCGk","Hagege Benjamin","48.8769888","2.3881679",NA,NA,NA,"point_of_interest establishment"
"ChIJ30EJ8rpt5kcRHUtcp4gD11U","Valérie Genty","48.877081","2.3886038",NA,NA,NA,"health point_of_interest establishment"
"ChIJY8EYS8Bt5kcRrGVKl2hbUac","Menoes","48.8769067","2.3884649",NA,NA,NA,"point_of_interest establishment"
"ChIJVVUBS8Bt5kcRUeenlFs2JgE","Mariapia Bracchi PHOTOGRAPHIES","48.8769013","2.3885236",NA,NA,NA,"point_of_interest establishment"
"ChIJjZwptMFt5kcRc4CZrLVpHgg","Atelier Daniel Perret","48.8769752","2.3879241",NA,NA,NA,"furniture_store home_goods_store point_of_interest store establishment"
"ChIJnVb-sMFt5kcR-ZefOncntzo","Leduc Jean-Pierre","48.8771919","2.3878807",NA,NA,NA,"point_of_interest establishment"
"ChIJD7fiBh9u5kcRYJSMaMOCCwQ","Paris","48.856614","2.3522219",NA,NA,NA,"locality political"
"ChIJs97tQS9t5kcROmCg3bxbyJI","Delwarte Axel","48.8772653","2.3879099",NA,NA,NA,"point_of_interest establishment"
"ChIJ5xJctsFt5kcRE6EG5CY6b9g","B&M","48.8768701","2.3879085",NA,NA,NA,"point_of_interest establishment"
"ChIJ5xJctsFt5kcRIQLFXc4txNM","Fabrication De Maroquinerie","48.8768701","2.3879085",NA,NA,NA,"point_of_interest establishment"
"ChIJX1FPt8Ft5kcRuWFxm7K6vv0","Parking Box A Louer","48.8770187","2.3877195",NA,NA,NA,"point_of_interest establishment"
"ChIJQ_H2ScBt5kcRXcsguOTDOQg","Le Broussois Valerie","48.8768959","2.388787",NA,NA,NA,"point_of_interest establishment"
"ChIJnbZ2usFt5kcRNSgBIzvk17c","Spt Conseil","48.8771592","2.3876671",NA,NA,NA,"point_of_interest establishment"
"ChIJe0NFScBt5kcRQd8Tb_EFXac","Tsujimura Yukiko","48.8774098","2.3887328",NA,NA,NA,"point_of_interest establishment"
"ChIJydcltsFt5kcRJbcUVg2mhfg","les artistes se mettent à table","48.8767575","2.3878825",NA,NA,NA,"point_of_interest establishment"
"ChIJyywptsFt5kcRoyVz_0Nrtxo","Cafe Cheri (E)","48.8767576","2.387861",NA,NA,NA,"point_of_interest establishment"
"ChIJyywptsFt5kcRQCDnruuzYTI","Association Atelier 44","48.8767576","2.387861",NA,NA,NA,"point_of_interest establishment"
"ChIJF2wxrMFt5kcROr0tAgZ6y5I","Les Jacasses","48.8775429","2.3881306",NA,NA,NA,"point_of_interest establishment"
