"Id","Name","Lat","Lng","Rating","Nb_Rating","Type"
"ChIJw2_13YVu5kcR42F5oDZJ6kQ","3 Impasse Marteau","48.9016146","2.3608857",NA,NA,"route"
"ChIJDXnO_oVu5kcRcAbMlKjd_IA","ibis budget Paris Nord 18ème","48.9017526","2.3602605","2.9","1540","lodging point_of_interest establishment"
"ChIJKR4-3YVu5kcR5MAI6Lqr7h4","Altrem","48.9017689","2.3609982",NA,NA,"point_of_interest establishment"
"ChIJJY6wzyZv5kcRfNYnknrguGg","Accor Hôtel","48.9017306","2.3603924",NA,NA,"lodging point_of_interest establishment"
"ChIJZaaHNYRu5kcRWaDGiRCEz_U","Cimetière Parisien de la Chapelle","48.9022889","2.3625199",NA,NA,"cemetery premise point_of_interest establishment"
"ChIJD7fiBh9u5kcRYJSMaMOCCwQ","Paris","48.856614","2.3522219",NA,NA,"locality political"
