"Id","Name","Lat","Lng","Price_level","Rating","Nb_Rating","Type"
"ChIJ573LJ-xt5kcRRyuBtjas10A","39-31 Rue des Maronites","48.8686597","2.38498",NA,NA,NA,"route"
"ChIJRTElO-xt5kcRE_M6fRWCydM","CLAVECINS ROUAUD","48.8687958","2.385628",NA,"5","1","art_gallery point_of_interest establishment"
"ChIJpeigVg9y5kcRZw3TsLUkd1M","Velotority","48.8685244","2.3857872",NA,"4.2","43","bicycle_store point_of_interest store establishment"
"ChIJSx6UJuxt5kcRsHnLKEpGlao","House Of Common Knowledge","48.8688546","2.3852112",NA,NA,NA,"point_of_interest establishment"
"ChIJC8QvMuxt5kcRiGHjXT8ZbWE","Café el Emir","48.8684193","2.3858311","1","3.9","244","cafe food point_of_interest establishment"
"ChIJMW1lPOxt5kcRnQRr8AmpBL0","Jazzlink Project","48.8688129","2.3858202",NA,NA,NA,"point_of_interest establishment"
"ChIJ61ghg-5t5kcR_5dXgZLAPXU","Le Gall Morgane","48.8685451","2.3848334",NA,"1","1","point_of_interest establishment"
"ChIJiW0Hs_ht5kcRHBtLWsbeswc","RUE SEDAINE PRODUCTION","48.8685451","2.3848334",NA,"5","1","point_of_interest establishment"
"ChIJodirLext5kcRJmphnAQlxAc","Elementary School Etienne Dolet","48.8681495","2.385367",NA,"4","1","school point_of_interest establishment"
"ChIJWaARne5t5kcR0Um_J8kYhVw","Librairie La Maronite","48.8687427","2.3847846",NA,"4.7","67","book_store point_of_interest store establishment"
"ChIJN9T7gu5t5kcRrGoi_W1w_o8","Foxy Lady","48.8684864","2.3847245",NA,NA,NA,"point_of_interest establishment"
"ChIJb_MMJext5kcROoExB8a6-bY","Manuel Dias","48.868674","2.3853855",NA,NA,NA,"point_of_interest establishment"
"ChIJPUO8qOht5kcRHBj5NmqxEbE","Gemaile Rechak","48.8687305","2.3855225",NA,"5","1","point_of_interest establishment"
"ChIJYX-tJext5kcRXebl7oPk6f0","Photo passion md","48.868674","2.3853934",NA,NA,NA,"point_of_interest establishment"
"ChIJZzWeJext5kcRdi7U5Q31swo","An Di An Di","48.8686741","2.3853775","2","4.6","111","restaurant food point_of_interest establishment"
"ChIJURYibEFt5kcRZdy2VYETCZo","Cabinet L'îlot | Marie Zacarias - Sophrologist Et Edith Latrille - Psychologist - Hypnothérapeute","48.8685725","2.3855445",NA,NA,NA,"school health point_of_interest establishment"
"ChIJR6h-kDpR2hIRfb6_qJtH0co","Edith Latrille- Psychologue & Hypnothérapeute","48.8685725","2.3855445",NA,NA,NA,"health point_of_interest establishment"
"ChIJY3UlJext5kcRKalyOPGVBig","Signature Décoration","48.8687305","2.3855225",NA,"3.3","30","general_contractor point_of_interest establishment"
"ChIJY3UlJext5kcRaVPo-X60dH8","Le Petit Balcon","48.868776","2.3855246",NA,"4.1","80","bar point_of_interest establishment"
"ChIJD7fiBh9u5kcRYJSMaMOCCwQ","Paris","48.856614","2.3522219",NA,NA,NA,"locality political"
"ChIJUZ1R0Dxt5kcR6cgJA6CsC3g","Le Syrah Café","48.8686092","2.3857947",NA,"1","1","restaurant food point_of_interest establishment"
"ChIJgZ7O50xw5kcRg_qQeqP7ytQ","OXALIS FLEURISTE","48.8686092","2.3857947",NA,"4.5","6","florist point_of_interest store establishment"
"ChIJk9VsJOxt5kcRQH9Ago5nz6c","PARTENAIRES","48.8688722","2.3853206",NA,NA,NA,"point_of_interest establishment"
"ChIJzXD6Mext5kcREsD2FfywTIA","Cours de Piano. Beatriz Franco","48.8683134","2.3855789",NA,NA,NA,"point_of_interest establishment"
"ChIJt9XwSext5kcRRBs_ro6G08g","Edeikins Pierre","48.8683134","2.3855789",NA,NA,NA,"point_of_interest establishment"
"ChIJw_zrJfdt5kcRzkXPEJ6GIPU","Paume.","48.8688742","2.3852499",NA,"5","1","point_of_interest establishment"
"ChIJDyWvMOxt5kcRaqKYHOXWPyo","Restaurant Les délices de Tunisie","48.8685729","2.3858748",NA,"4.8","83","restaurant food point_of_interest establishment"
"ChIJ49R7JOxt5kcRuZ1YqVraZDU","Loggia","48.8689001","2.3853774",NA,"5","1","night_club restaurant food point_of_interest establishment"
"ChIJdWt5JOxt5kcRfa4px3XmxPs","Dream Team","48.868905","2.3853817",NA,"4","1","point_of_interest establishment"
"ChIJPc_AN-xt5kcR5JZsXJWXMCg","Sabatier Laurence Marie","48.8684193","2.3858311",NA,NA,NA,"point_of_interest establishment"
"ChIJBcB9I-xt5kcRfC-JFFY4up8","Pharmacie Azencott","48.8689242","2.3854392",NA,"5","1","point_of_interest establishment"
"ChIJS_yfJOxt5kcREkmFGi1hgH0","Pharmacy 43 Selarl","48.868933","2.385454",NA,"2.6","28","pharmacy health point_of_interest store establishment"
"ChIJq6omJ-xt5kcRrZVbXeT2qeg","Habeo","48.8688685","2.3850335",NA,NA,NA,"point_of_interest establishment"
"ChIJ7Wv6Kext5kcRxTeTgtenDUU","Poirson Remi Georges","48.8685451","2.3848334",NA,NA,NA,"point_of_interest establishment"
"ChIJN3yTOext5kcRJe_xYlpczxY","intermed","48.8686834","2.3859619",NA,NA,NA,"store point_of_interest establishment"
"ChIJpb3WO-xt5kcRr_Kyk6HJTaM","Hommes Coiffure","48.8687749","2.38591",NA,"4.5","12","hair_care point_of_interest establishment"
"ChIJZf--Oext5kcRqePbKW1tfDk","Cendrine Gabaret","48.8687462","2.3859361",NA,NA,NA,"health point_of_interest establishment"
"ChIJRQfrO-xt5kcRheYDwHe8eJI","Blick Productions","48.8688431","2.3858555",NA,NA,NA,"point_of_interest establishment"
"ChIJRQfrO-xt5kcRRKwLq6cBtbY","Kimia Cafe","48.8688431","2.3858555",NA,"5","3","point_of_interest establishment"
"ChIJgQaAN-xt5kcRceobM3eI6k0","Demain C'est Loin","48.8686218","2.3860044","1","4.6","331","restaurant bar food point_of_interest establishment"
"ChIJgefwgu5t5kcRxK9gBTdpNWs","J.h Studio","48.8684864","2.3847245",NA,NA,NA,"point_of_interest establishment"
