"Id","Name","Lat","Lng","Rating","Nb_Rating","Type"
"ChIJW0nM-XVu5kcRRMlFg8_l3T8","Quai de Jemmapes","48.880335","2.3687804",NA,NA,"route"
"ChIJZ0bXV99t5kcRQKQvjGRL75k","HOULTONSMETS","48.8803963","2.3689811","5","1","point_of_interest establishment"
"ChIJ90eZ93Vu5kcRu172-GdAxbA","Doumbouya Benoît","48.8802177","2.3688759","5","1","point_of_interest establishment"
"ChIJ8Y2v9nVu5kcRlyIX6FFiB-k","CCUES Orange","48.8799971","2.3686275","4.7","3","point_of_interest establishment"
"ChIJS1_CV99t5kcRI_sNc1Nl4u0","Collectif Inter Urgences","48.8803584","2.3690146",NA,NA,"point_of_interest establishment"
"ChIJdT5PPfht5kcROF072IRQK3Y","Яків Яцина","48.8806883","2.3690487",NA,NA,"point_of_interest establishment"
"ChIJbZOPVN9t5kcR6QOJh9d5-kk","Point.P - Paris 10ème","48.8806117","2.3693263","4.5","46","home_goods_store point_of_interest store establishment"
"ChIJD7fiBh9u5kcRYJSMaMOCCwQ","Paris","48.856614","2.3522219",NA,NA,"locality political"
