"Id","Name","Lat","Lng","Price_level","Rating","Nb_Rating","Type"
"ChIJGaHMjERu5kcRUfyWo74dlEM","96-100 Rue des Martyrs","48.8844304","2.3397615",NA,NA,NA,"route"
"ChIJm_zghENu5kcRTGqCECWa_vE","Boca Dos","48.8851026","2.3396162","2","4.4","162","bar restaurant food point_of_interest establishment"
"ChIJDdze8URu5kcR4i--9X52PGc","Aufroy Photo Pub Indust I Yvan","48.8845558","2.3392321",NA,NA,NA,"point_of_interest establishment"
"ChIJ8VRjKltu5kcRiJMi-ZhsYAo","Municipal Collective Nursery","48.8846941","2.3389226",NA,NA,NA,"point_of_interest establishment"
"ChIJdVFL7ERu5kcR9Xj9dVLBew4","Groh Marie-Thérèse","48.884718","2.3395387",NA,"4.5","2","health point_of_interest establishment"
"ChIJYV1U7URu5kcRIw6KAWtkUfE","Gérard Laurent","48.8845507","2.3393714",NA,"1","1","point_of_interest establishment"
"ChIJgcuYmUdu5kcRn8FvXsJ-hzc","Hélène BOYÉ","48.8845627","2.3390189",NA,"5","6","health point_of_interest establishment"
"ChIJq1I-jURu5kcR7e9EKi7Gu7s","PARIS - PORTO","48.8845568","2.3398486",NA,"4.7","54","grocery_or_supermarket food point_of_interest store establishment"
"ChIJRS_H9kRu5kcRTg3NyG1K_p4","Durance","48.8843236","2.3393086",NA,"4.6","14","home_goods_store point_of_interest clothing_store store establishment"
"ChIJtwzDjERu5kcR_6R1vnI7xAE","See My Optic","48.8844406","2.3398309",NA,"4.6","9","health point_of_interest store establishment"
"ChIJEc8H-0Ru5kcRDvFgLkEZpAs","ARGENSON ET SEPT ARPENTS","48.8844668","2.3389119",NA,"4.7","16","electronics_store home_goods_store point_of_interest store establishment"
"ChIJi1c4jURu5kcRz7OWgyWhmDU","Chinemachine","48.884557","2.339849",NA,"3.5","176","clothing_store point_of_interest store establishment"
"ChIJ91gv-0Ru5kcR-4WuqXmX9bA","Commune de Paris","48.8846778","2.3387787",NA,NA,NA,"point_of_interest establishment"
"ChIJrd269ERu5kcRl5mgiGJjelc","Lesage Carol","48.8843136","2.3395582",NA,NA,NA,"point_of_interest establishment"
"ChIJMeIY7URu5kcRjWftXeGhLc0","BRUNO HADJADJ PRODUCTION DESIGNER","48.88478","2.3396891",NA,NA,NA,"point_of_interest establishment"
"ChIJZ-oL9ERu5kcRRMZ2B3oipSo","Chambre aux Abbesses Montmartre","48.8843232","2.3394687",NA,NA,NA,"lodging point_of_interest establishment"
"ChIJq1I-jURu5kcR1BVy1OqhGSc","Paul Dehédin","48.8845568","2.3398486",NA,NA,NA,"point_of_interest establishment"
"ChIJ9056kkRu5kcRvFHY5HhdXuw","Spree","48.8846339","2.3400029",NA,"4","27","clothing_store art_gallery furniture_store home_goods_store point_of_interest store establishment"
"ChIJPTUW9ERu5kcRix3OIpQhrUI","La Fée Maraboutée","48.8843099","2.3394032",NA,"4.6","8","point_of_interest clothing_store store establishment"
"ChIJD7fiBh9u5kcRYJSMaMOCCwQ","Paris","48.856614","2.3522219",NA,NA,NA,"locality political"
"ChIJPfRN7URu5kcRshZ7EcM0mlQ","Nathalie Vaillant Médecine traditionnelle chinoise","48.8847464","2.3397187",NA,"5","1","health point_of_interest establishment"
"ChIJo2g2akVu5kcRkYxvZnzBSB8","Lafont Marc","48.8845558","2.3392321",NA,"3.2","12","doctor health point_of_interest establishment"
"ChIJPfRN7URu5kcRaWVDNQSMtPk","Dussica","48.8847222","2.3397222",NA,"3.5","6","home_goods_store point_of_interest store establishment"
"ChIJLeMB8ERu5kcR6u5toqs6XeM","Marelli Et Fils Sa","48.8846968","2.339037",NA,"3.3","8","general_contractor point_of_interest establishment"
"ChIJ486hlERu5kcRmew_gXwDLEA","natalia assis","48.884971","2.3398874",NA,NA,NA,"restaurant food point_of_interest establishment"
"ChIJTRLj7URu5kcR5Zwl2yvrGjI","MAKE MY D ...","48.8847026","2.3391689",NA,"4.5","10","point_of_interest clothing_store store establishment"
"ChIJPTUW9ERu5kcRYfd628PeyAg","Ravailhe Françoise","48.8843232","2.3394687",NA,NA,NA,"point_of_interest establishment"
"ChIJ4Um58kRu5kcR_6vj5K251P8","Gillery","48.8845476","2.3395378",NA,"3.3","3","point_of_interest store establishment"
"ChIJPTUW9ERu5kcRh8eA2UEaiuc","Ouvrard-Pascaud Annelise","48.8843232","2.3394687",NA,NA,NA,"point_of_interest establishment"
"ChIJJdf78URu5kcROamZG8VKtLQ","La Panse De L'ours","48.8846268","2.3394001",NA,NA,NA,"point_of_interest establishment"
"ChIJMX1nHMBv5kcR4f_jyKbCQnU","EVE AURELIE LOZAHIC","48.884718","2.3395387",NA,"5","1","health point_of_interest establishment"
"ChIJdVFL7ERu5kcRnEl4crwF9K4","Indivision Dubois-sourdeau Beauregard","48.884718","2.3395387",NA,NA,NA,"real_estate_agency point_of_interest establishment"
"ChIJ092A8R1v5kcRohOacGSFxg0","Savoie ou Quoi?","48.8845507","2.3393714",NA,"4.9","40","restaurant food point_of_interest establishment"
"ChIJfz1TMpFv5kcR0CaF5dbXQTc","Entreprise Lucas Brunelec","48.8845507","2.3393714",NA,NA,NA,"locksmith electrician point_of_interest establishment"
"ChIJiSWU7URu5kcRJ5u9osfJXOo","Fajal Elise Ostéopathe D.O - MKDE","48.8848013","2.3395432",NA,"5","16","health point_of_interest establishment"
"ChIJTyMAELFv5kcRS13sqhAHSW8","Sis home","48.8847983","2.3395658",NA,NA,NA,"lodging point_of_interest establishment"
"ChIJP_4a5URu5kcRQVpmvQuE5JQ","Roberta - Abbesses","48.8847222","2.3391667","2","3.9","709","restaurant food point_of_interest establishment"
"ChIJ5St2aA59j0cR0tlHsGM0Z1c","Mélanie ROUX","48.8845558","2.3392321",NA,NA,NA,"physiotherapist health point_of_interest establishment"
"ChIJqxR_QiRv5kcRavPS48wjB38","Pimpon production","48.884778","2.339128",NA,NA,NA,"electronics_store home_goods_store point_of_interest store establishment"
"ChIJMeIY7URu5kcRk5FD1sigtzY","Cœur et dao","48.88478","2.3396891",NA,NA,NA,"health point_of_interest establishment"
"ChIJM-mqotVv5kcRjK_nDNHoWvw","spree café galerie","48.88478","2.3396891",NA,"4.9","16","cafe food point_of_interest establishment"
"ChIJJTvn8kRu5kcRGW1CoKbXrS4","Laque Decor","48.8845145","2.3396695",NA,NA,NA,"store point_of_interest establishment"
"ChIJVxZQ5URu5kcROCbd0rVhI04","Restauration","48.8846968","2.339037",NA,NA,NA,"point_of_interest establishment"
"ChIJDyy1kkRu5kcR3w9lMu_BGzM","Papiers Peints","48.8847169","2.3397833",NA,NA,NA,"point_of_interest establishment"
"ChIJrd269ERu5kcRhgWpPI50Tlo","Scandolera Franck","48.8843136","2.3395582",NA,"5","1","point_of_interest establishment"
"ChIJzbOQ-kRu5kcRtieSBuCe_ys","Fanny Duchesne","48.8845627","2.3390189",NA,NA,NA,"health point_of_interest establishment"
"ChIJzbOQ-kRu5kcRaWXSCiXAfSQ","Saibo","48.8845627","2.3390189",NA,NA,NA,"point_of_interest establishment"
"ChIJzbOQ-kRu5kcRTpxPZ_S4fbM","Roa- Brith Inkis Doris Alice","48.8845627","2.3390189",NA,NA,NA,"point_of_interest establishment"
"ChIJ1ccR-URu5kcRDzMVa1Nn1Fo","Librairie des Abbesses","48.8843407","2.338964",NA,"2.2","151","book_store point_of_interest store establishment"
"ChIJ7-ZE-URu5kcRg-gzjaeMjGs","Cours de photo à Paris","48.8845085","2.3389005",NA,NA,NA,"point_of_interest establishment"
"ChIJs20690Ru5kcR9Xi35VtY9gg","Rockwell Marcel","48.8844141","2.3390726",NA,"5","3","health point_of_interest establishment"
"ChIJ5SbL8kRu5kcRlDpKLUcQXkA","Sweet Home Paris","48.8845561","2.33989",NA,NA,NA,"general_contractor point_of_interest establishment"
"ChIJ1ccR-URu5kcR4Ezs36WzgsA","Crédit Agricole de Paris Abbesses","48.8844327","2.3389042",NA,"3.4","15","bank atm finance insurance_agency point_of_interest establishment"
"ChIJZ-oL9ERu5kcRJz6GqYj6EA8","Atelier de Famille Montmartre","48.8843232","2.3394687",NA,"5","17","jewelry_store point_of_interest store establishment"
"ChIJIbjG9kRu5kcRtGhn5aBkjiY","Il Duca","48.884325","2.3393",NA,"4.4","246","restaurant food point_of_interest establishment"
"ChIJ-znrGotv5kcRHOkSYhJG79w","Alice LUTTON","48.8843276","2.3392493",NA,NA,NA,"point_of_interest establishment"
"ChIJIbjG9kRu5kcRw_SEcmU50gU","Gonthier-Romhanyi Anna","48.8843276","2.3392493",NA,NA,NA,"point_of_interest establishment"
"ChIJIbjG9kRu5kcRNekeFb8V9DU","Briva","48.8843276","2.3392493",NA,"3","1","restaurant food point_of_interest establishment"
"ChIJt-7kZ2Rv5kcRAk0Vbbi5G4w","Casita","48.884681","2.3399552",NA,NA,NA,"lodging point_of_interest establishment"
"ChIJy3bEjERu5kcRbp9-SMqGB14","Wafferkess","48.8844213","2.3398351",NA,"4.6","27","hair_care point_of_interest establishment"
