"Id","Name","Lat","Lng","Rating","Nb_Rating","Type"
"ChIJy2KNQ35u5kcRYQZrhpY6KMM","41 Rue de l'Ã‰vangile","48.8944221","2.3662503",NA,NA,"route"
"ChIJ9XJxRn5u5kcRywGTmJoe8kA","Atome","48.8945207","2.3665194","1","1","point_of_interest establishment"
"ChIJCwENQ35u5kcRRO6eSs2bnzQ","Tristan Tzara","48.894309","2.366137",NA,NA,"transit_station point_of_interest establishment"
"ChIJc6iXQ35u5kcRRBO5JNO5fJw","Tristan Tzara","48.8943885","2.366183",NA,NA,"transit_station point_of_interest establishment"
"ChIJKTQYRn5u5kcRt9MpQHHH4Pc","Lucky Men","48.8945609","2.3665873",NA,NA,"point_of_interest establishment"
"ChIJKTQYRn5u5kcRdwvDvVBx6Xs","Caviar Petrossian","48.8945609","2.3665873",NA,NA,"point_of_interest establishment"
"ChIJD7fiBh9u5kcRYJSMaMOCCwQ","Paris","48.856614","2.3522219",NA,NA,"locality political"
