"Id","Name","Lat","Lng","Price_level","Rating","Nb_Rating","Type"
"ChIJk6kaHl9u5kcR1dNzJu0hGfg","87-71 Rue Duhesme","48.8940521","2.3436719",NA,NA,NA,"route"
"ChIJs63A2l5u5kcRT5kCjvNBnYE","TABAC Reinitas","48.8935686","2.3426324","2","3.7","98","bar point_of_interest establishment"
"ChIJmWfv3V5u5kcRlEx5WuWoU50","Docteur Danielle Amouyal","48.8935752","2.3432124",NA,"4.8","6","dentist health point_of_interest establishment"
"ChIJeXHT215u5kcR-IBqd0kGAfc","Jolis Mômes","48.8936923","2.3428175","2","4","124","restaurant food point_of_interest establishment"
"ChIJJQYN315u5kcR05kmQQPdKyU","PEREIRA Juano","48.8938003","2.3431473",NA,"5","4","food point_of_interest store establishment"
"ChIJCfEC3l5u5kcRsUNC5hsWa0c","Charcuterie Et Cave Ā Biēre","48.8937364","2.3433324",NA,NA,NA,"food point_of_interest store establishment"
"ChIJLRp53F5u5kcR2LrXWRWxOBo","An Coiff","48.8938849","2.3431981",NA,"4.1","16","hair_care point_of_interest establishment"
"ChIJBTJswl5u5kcRDOzsLVTfWL0","Mac-Caroni","48.8932755","2.3431698",NA,"5","4","restaurant food point_of_interest store establishment"
"ChIJ___vwl5u5kcRQ_oYztvHc2k","Emily Newfield Consulting","48.8932755","2.3431698",NA,NA,NA,"point_of_interest establishment"
"ChIJd6dz2F5u5kcRajJ7XEQe3FA","Vinum Picatum","48.8939807","2.3428434",NA,"3.2","54","store grocery_or_supermarket liquor_store food point_of_interest establishment"
"ChIJkbVJxV5u5kcRj6WFU2_UfnM","Pinon Daniel","48.893225","2.342748",NA,"5","19","food point_of_interest store establishment"
"ChIJP2gp0F5u5kcRJlQtS72yHKY","Gourmandise Duhesme","48.8933096","2.3424754",NA,"3.4","19","meal_delivery restaurant food point_of_interest establishment"
"ChIJAQAs0V5u5kcRBJ1fSs7C-Ck","Du mardi au samedi","48.8937036","2.3424358",NA,"5","1","local_government_office point_of_interest establishment"
"ChIJ___vwl5u5kcRV5pDiO_E_Xo","Together Dialogos","48.8932755","2.3431698",NA,NA,NA,"point_of_interest establishment"
"ChIJE8a74F5u5kcRpICncLG7Kgk","Atout Immobilier 18","48.8937327","2.3433397",NA,NA,NA,"real_estate_agency point_of_interest establishment"
"ChIJdfkq3F5u5kcR_bly8VJpLEs","La Cigale Des Mers","48.8940234","2.3432808",NA,"4.1","21","food point_of_interest store establishment"
"ChIJqwpYXV9u5kcRbAD6ZM_UWQk","Trapani Bottega | Traiteur Italien 18ème","48.8936923","2.3428175",NA,"4.6","46","grocery_or_supermarket restaurant food point_of_interest store establishment"
"ChIJR3uw1l5u5kcRbQIDhx4NflU","Clément DUSSAUD","48.8937623","2.3423401",NA,NA,NA,"point_of_interest establishment"
"ChIJmXUb0V5u5kcR56lH2RPIUTA","Mister Minit Paris Poteau","48.8937036","2.3424358",NA,"3.5","16","locksmith point_of_interest store establishment"
"ChIJD7fiBh9u5kcRYJSMaMOCCwQ","Paris","48.856614","2.3522219",NA,NA,NA,"locality political"
"ChIJk7ZYeldu5kcRDebXISGbndM","Cavavin Paris","48.8932755","2.3431698",NA,"4.8","11","liquor_store food point_of_interest store establishment"
"ChIJ4Z8J215u5kcRZUhj_qkT5NQ","PHARMACIE PHARMAVANCE Mairie du 18ème","48.893583","2.3428685",NA,"3.2","20","pharmacy health point_of_interest store establishment"
"ChIJeXHT215u5kcRHrH1qgbz2gU","Djenhia Richard","48.8936923","2.3428175",NA,NA,NA,"bar point_of_interest establishment"
"ChIJS9lX3F5u5kcR8MyEcLQSOJM","Délices Wang","48.8935066","2.3430964",NA,"2.6","5","meal_takeaway restaurant food point_of_interest establishment"
"ChIJ8xF83F5u5kcR8y1k0LoeZ48","Nicolas Letort","48.893469","2.3430428","2","3.3","12","liquor_store food point_of_interest store establishment"
"ChIJC8T22l5u5kcRCcljRQTxtc0","He","48.8935437","2.3427375",NA,NA,NA,"point_of_interest establishment"
"ChIJF9bmJEtv5kcRg13ao0CXe1Y","Brasserie le Reinitas 18","48.8935437","2.3427375",NA,NA,NA,"food point_of_interest establishment"
"ChIJ4yqL4Jlv5kcRrOeFbYd9vL0","Bricolage Multiservices","48.8935437","2.3427375",NA,NA,NA,"general_contractor point_of_interest establishment"
"ChIJF5CO2l5u5kcRFvJilwFpaI0","Point Nickel","48.8935402","2.34273",NA,NA,NA,"atm bank finance point_of_interest establishment"
"ChIJiURI2V5u5kcR8GWdArt2Fe4","Bar Dionis Brasserie","48.893795","2.342937","1","4.2","85","bar point_of_interest establishment"
"ChIJ7aw8M2xv5kcRvCvb78-fbRQ","Dr Clément Carreiras","48.8935664","2.3432258",NA,"3.7","3","dentist health point_of_interest establishment"
"ChIJ_y3xU-5v5kcRHNw2DJG2Fpk","Gavrilov Egor","48.8935664","2.3432258",NA,NA,NA,"health point_of_interest establishment"
"ChIJ4Xah3V5u5kcR_iHQoll7skA","LA CHOCOLATINE","48.8935664","2.3432258",NA,"4.4","19","food point_of_interest store establishment"
"ChIJ4Xah3V5u5kcR0KsSQ91ZUMk","Sweet Marguerite","48.8935664","2.3432258",NA,"3.8","5","point_of_interest clothing_store store establishment"
"ChIJ4Xah3V5u5kcROZEY3LL1V8Y","Artiste Peintre Mo Bantman","48.8935664","2.3432258",NA,NA,NA,"point_of_interest establishment"
"ChIJU9Z83F5u5kcRaJqX4HPqYwY","Guillaume Catherine","48.8935664","2.3432259",NA,NA,NA,"health point_of_interest establishment"
"ChIJF5CO2l5u5kcR6lShRTeMPYk","Astro Black","48.893534","2.3426825",NA,NA,NA,"point_of_interest establishment"
"ChIJF5CO2l5u5kcRfOlpgx5Dd1E","Hjf Florescence (Snc)","48.893534","2.3426825",NA,NA,NA,"point_of_interest store establishment"
"ChIJhS3ekEZv5kcR2s_tDRDs2jU","AUJOURD'HUI","48.8938087","2.3428955",NA,"5","37","restaurant food point_of_interest establishment"
"ChIJ5RO4Qy1v5kcRoqqmqs_jtGo","MEGA PILES-LA REINE DE PIERRE SARL","48.8938161","2.3428919",NA,NA,NA,"point_of_interest establishment"
"ChIJ-4zO3F5u5kcRxZv3Wz3TiQI","Optical Soin","48.8934194","2.3430808",NA,NA,NA,"point_of_interest establishment"
"ChIJocy5W-Nv5kcRhqUPeccExAI","Optic Duroc - Paris 18","48.8934194","2.3430808",NA,"4.6","9","health point_of_interest store establishment"
"ChIJq6oG2l5u5kcRtlfL4yjItYE","Pharmacie Du Marche Du Poteau","48.8936991","2.3426552",NA,NA,NA,"point_of_interest establishment"
"ChIJW8Kd2l5u5kcRiJonTzhyjII","Elisa","48.8936991","2.3426552",NA,NA,NA,"shoe_store point_of_interest store establishment"
"ChIJ2y_03l5u5kcR21CRqHm-0sQ","Boucherie Letort","48.8938047","2.3431563",NA,"5","15","food point_of_interest store establishment"
"ChIJq6oG2l5u5kcRUeDw90jB4yg","Stracciatella et Chocolats","48.8935759","2.342569",NA,"4.4","37","food point_of_interest store establishment"
"ChIJ02eK0F5u5kcRqj4ie2egp0I","Le Grillon","48.8935679","2.3425481",NA,NA,NA,"point_of_interest establishment"
"ChIJsW1f9Vpv5kcRc69a1JsdD4c","Mano Mano bar","48.8936849","2.3433575",NA,"5","14","bar restaurant food point_of_interest store establishment"
"ChIJE8a74F5u5kcRvawZJHuzPxI","Dr Annie Dessau","48.8936849","2.3433575",NA,"5","2","dentist health point_of_interest establishment"
"ChIJP0xK3l5u5kcRb9Oc5SWFhZA","Rg Rénovation","48.893851","2.3432514",NA,NA,NA,"point_of_interest establishment"
"ChIJNbcL315u5kcRqeKgDQ3f2Vw","The Tibetan Kitchen","48.8939099","2.3431975","2","4.6","103","restaurant food point_of_interest establishment"
"ChIJ12sP315u5kcROaWpaPGeaqc","Jeanne Carpentier","48.893931","2.3431666",NA,NA,NA,"point_of_interest establishment"
"ChIJq0PqHwxv5kcRR8lc3T3xz58","Claire Berthomieu, Consultante en Conduite du changement","48.8937036","2.3424358",NA,NA,NA,"point_of_interest establishment"
"ChIJAQAs0V5u5kcRZewt7pnw0V0","Allo-Badge Paris 18","48.8937036","2.3424358",NA,NA,NA,"car_repair point_of_interest establishment"
"ChIJcaONp-Bv5kcRbN3PNAm9zaQ","Le roi du Saucisson","48.8937036","2.3424358",NA,"4.8","26","grocery_or_supermarket bar liquor_store restaurant food point_of_interest store establishment"
"ChIJgeJBj6Zv5kcRjGKLvSScUIE","Signorini TARTUFI","48.8932755","2.3431698",NA,"3.2","5","food point_of_interest store establishment"
"ChIJQ8iAQ15v5kcRsAl041dZvY0","Jouete Paquetpuais","48.8932755","2.3431698",NA,NA,NA,"point_of_interest establishment"
"ChIJ3_mewl5u5kcRQFWHk5v4sPI","Le Petit Creux Pâtisserie Artisanale","48.8932755","2.3431698",NA,"3.5","6","bakery food point_of_interest store establishment"
"ChIJ3_mewl5u5kcRGG9zOG3iLEM","Kaufman Emily","48.8932755","2.3431698",NA,NA,NA,"point_of_interest establishment"
"ChIJ96sIy15u5kcRu2y1QuzyhaQ","Sushi","48.8934248","2.3424474",NA,"4","1","restaurant food point_of_interest establishment"
