"Id","Name","Lat","Lng","Rating","Nb_Rating","Type"
"ChIJUYSVPXNu5kcRk9q8lqmSMzo","161-149 Rue du Faubourg Saint-Martin","48.8772102","2.3612355",NA,NA,"route"
"ChIJp0dnOXNu5kcRFRy6WJf2_gI","Dynam-Tech Machines","48.8768601","2.3613054","4.6","5","point_of_interest store establishment"
"ChIJ0QvCJXNu5kcRcwaPqy4VOsQ","Police de Paris","48.8767564","2.3606253","2.6","20","police point_of_interest establishment"
"ChIJp0dnOXNu5kcRkvHDcd_r9b4","Taroudant","48.8769088","2.3613522","5","1","convenience_store food point_of_interest store establishment"
"ChIJx_ZTOXNu5kcRd0RjnHQIHQY","Dynam Tech Machines","48.8769523","2.361313",NA,NA,"point_of_interest establishment"
"ChIJjRK1F3Nu5kcReWUBpCrIB1o","DANALE30","48.877371","2.361141",NA,NA,"funeral_home point_of_interest establishment"
"ChIJId5UOXNu5kcR4NIY1_P7Wxk","Libre Service De La Gare","48.8769454","2.3613531","5","2","store point_of_interest establishment"
"ChIJTzy5_ypv5kcRQ1z1Gf2PT0k","Ubeeqo","48.8772444","2.3614431",NA,NA,"point_of_interest establishment"
"ChIJD7fiBh9u5kcRYJSMaMOCCwQ","Paris","48.856614","2.3522219",NA,NA,"locality political"
