"Id","Name","Lat","Lng","Price_level","Rating","Nb_Rating","Type"
"ChIJORh6-Qdu5kcRj9an1uCaCfA","23-17 Boulevard Voltaire","48.8653813","2.3674026",NA,NA,NA,"route"
"ChIJayoH-wdu5kcR_PdXO_j3DF4","BNP Paribas - Paris Voltaire 11e","48.8653297","2.3671144",NA,"2","21","bank atm finance point_of_interest establishment"
"ChIJV1E79wdu5kcRn9IQF_AgjwY","SCP François Ardaillou","48.864962","2.367457",NA,"2","16","point_of_interest establishment"
"ChIJayoH-wdu5kcRRUijJgytB6U","Inteco","48.865215","2.3671284",NA,"5","2","accounting finance point_of_interest establishment"
"ChIJp3nc_3Ry5kcRO0bIGwF8CqM","M.c.i.","48.8652619","2.3671937",NA,NA,NA,"point_of_interest establishment"
"ChIJW0JL9wdu5kcRlRZCtEliF_c","Mathilde C. Art & Creation","48.8651377","2.3673422",NA,"2.5","2","store art_gallery point_of_interest establishment"
"ChIJW0JL9wdu5kcRRjAyo39cM7M","Óscar Select","48.8651377","2.3673422",NA,"5","9","food point_of_interest store establishment"
"ChIJFSGD-gdu5kcRq68kymaNc3k","Le Voltaire","48.865215","2.3671284","2","4.1","294","bar restaurant food point_of_interest establishment"
"ChIJ1-669wdu5kcR_Pm_fBk981c","SAF Aménagement, Spécialiste de la Pose de Cloisons","48.8650841","2.3675594",NA,NA,NA,"point_of_interest establishment"
"ChIJVVVJVv1t5kcRuL6fjAChSAc","Conception L Fr","48.8653672","2.3678177",NA,NA,NA,"point_of_interest establishment"
"ChIJMdg38Adu5kcRCYKyrWurSOQ","Bidoche","48.8650803","2.3670681",NA,"4.7","349","restaurant food point_of_interest store establishment"
"ChIJUy6FW_1t5kcRH89Tvu7x_mw","C.a.t.r.e.d","48.8649581","2.3676266",NA,NA,NA,"point_of_interest establishment"
"ChIJMdg38Adu5kcRgKC0NuPy-lM","D Noodles","48.8650799","2.3670066","2","4.7","243","restaurant food point_of_interest establishment"
"ChIJK9RV5Adu5kcRI2X4QegsUeU","Maître Emilie Duret","48.8653976","2.3668362",NA,"5","4","lawyer point_of_interest establishment"
"ChIJQdaq8Qdu5kcRFNMV7b4rdNo","Cizors Oberkampf - Coiffeur Paris 11","48.8650795","2.3671246",NA,"4.2","194","hair_care point_of_interest store establishment"
"ChIJK9RV5Adu5kcRLA4hQYY8mfo","Espace Mutuel MGEN Paris 11","48.8654889","2.3668713",NA,"2.9","8","insurance_agency health point_of_interest establishment"
"ChIJe0G6_Adu5kcRxL1lcQBydpY","Rosemar travaux","48.8656797","2.3672",NA,NA,NA,"general_contractor point_of_interest establishment"
"ChIJr6iX-Adu5kcRudSAWxp41Wo","Odile le Moal","48.8654207","2.36766",NA,NA,NA,"point_of_interest establishment"
"ChIJayoH-wdu5kcRWKpbV3W7H4c","Dr Dominique Burin","48.865215","2.3671284",NA,"3","8","doctor health point_of_interest establishment"
"ChIJD7fiBh9u5kcRYJSMaMOCCwQ","Paris","48.856614","2.3522219",NA,NA,NA,"locality political"
"ChIJL0ag_Qdu5kcReFOfb6Vc2AI","Sat Elite Video Games","48.8657341","2.3671892",NA,"4.2","251","point_of_interest store establishment"
"ChIJaZX4V_1t5kcRXUG6VZFLXEo","Immo City","48.8653672","2.3678177",NA,"3.2","31","real_estate_agency finance point_of_interest establishment"
"ChIJA8meVf1t5kcR1CE3sHNeqZE","Hôtel de Vienne","48.8656022","2.3676128",NA,"3.3","3","lodging point_of_interest establishment"
"ChIJ__8L_Qdu5kcRRqpUDzg30N8","LAUTO la logistique automobile","48.8657341","2.3671892",NA,NA,NA,"point_of_interest establishment"
"ChIJky6FW_1t5kcRz71Xtcd0FDs","l association l etape","48.8649581","2.3676266",NA,"4.3","6","point_of_interest establishment"
"ChIJLaN5dAhu5kcRaadXCaUkvwQ","hobby one","48.8657239","2.3671392",NA,"4.1","139","point_of_interest store establishment"
"ChIJwZOA-Adu5kcRIvSyUpr8_2U","Jean-Pierre Timbaud","48.8653842","2.3675029",NA,NA,NA,"bus_station transit_station point_of_interest establishment"
"ChIJd6iX-Adu5kcRxlKZAq1qLLY","Pôle APHP","48.86542","2.36766",NA,NA,NA,"point_of_interest establishment"
"ChIJx_vVjcpv5kcRmLHWO7Aroy4","Adecco Outsourcing","48.8654581","2.3676441",NA,"3","4","point_of_interest establishment"
"ChIJec5JUwJv5kcRESkj9EeFiI4","Adecco Medical Recrutement CDD-CDI Paris","48.8654581","2.3676441",NA,"5","1","point_of_interest establishment"
"ChIJtSnq8Adu5kcRWLyq8ncqFGs","Margo","48.865104","2.3672375",NA,"4.3","105","restaurant bar food point_of_interest establishment"
"ChIJ7_GbueNv5kcRewl06kvz8eY","Kazak Productions","48.865467","2.3676496",NA,"5","1","point_of_interest establishment"
"ChIJTzIAWP1t5kcR8JjlnOA_5gc","Rodrigues Teresa","48.8653672","2.3678177",NA,"1","1","point_of_interest establishment"
"ChIJ1-r4V_1t5kcR-yAkUDjl20Y","Cabinet de Pédicurie Podologie Pointurier","48.8653672","2.3678177",NA,"5","1","doctor health point_of_interest establishment"
"ChIJY0fb_gdu5kcRXLo5wWVlta4","Full 7","48.8655653","2.3675083",NA,"4.4","91","point_of_interest store establishment"
"ChIJzZ-bRsFv5kcRTtUZ0kfQD-c","The Whale's Side","48.8655653","2.3675083",NA,NA,NA,"point_of_interest establishment"
"ChIJ7RvX9gdu5kcR1FZ37mntoxw","Bar L'Estaminet Tabac","48.8650107","2.3673958",NA,"5","4","bar point_of_interest establishment"
"ChIJV1TZkGxv5kcR3tleQsEPFdA","Canal St Martin - Correct Location","48.8650209","2.3672868",NA,NA,NA,"point_of_interest establishment"
"ChIJiVo_5Adu5kcRNEEirf5WWS8","Boulangerie Blé d'Or","48.86535","2.3678806",NA,"2.7","91","bakery food point_of_interest store establishment"
"ChIJhTzoXv1t5kcRamMwnfOu7ig","Optical City","48.8649771","2.3676533",NA,"3.9","12","health point_of_interest store establishment"
"ChIJQTse9wdu5kcRWB1KvDF4oqA","Calvert Stephen","48.864962","2.367457",NA,NA,NA,"point_of_interest establishment"
"ChIJO3j34wdu5kcRM4smoayti00","Restaurant Ethio-Saris","48.865452","2.366938",NA,"4.4","36","restaurant food point_of_interest establishment"
"ChIJceFP-wdu5kcRICNf2Mlk8p4","Solovieff Laurence","48.8653976","2.3668362",NA,NA,NA,"lawyer point_of_interest establishment"
"ChIJceFP-wdu5kcRcQrsp5ocHGE","Bibas Jean-Maurice","48.8654253","2.3668997",NA,NA,NA,"lawyer finance point_of_interest establishment"
"ChIJceFP-wdu5kcRkklgA1hUJZI","Girodon Barbara","48.8654253","2.3668997",NA,NA,NA,"lawyer finance point_of_interest establishment"
"ChIJc1g99gdu5kcRQ0I1HEeej60","Prefnat","48.8649581","2.3676266",NA,NA,NA,"point_of_interest establishment"
"ChIJ9yciWf1t5kcRUoE5AX6pQ_g","PLEIN CIEL APPEL","48.8649581","2.3676266",NA,"3.6","17","point_of_interest store establishment"
"ChIJC-C5_Adu5kcR2dBL9cjCfdg","Vernhes Nathalie","48.8655821","2.367065",NA,NA,NA,"point_of_interest establishment"
"ChIJceFP-wdu5kcRoEx3utTDqqc","Ungar Daniel","48.8653869","2.366821",NA,NA,NA,"point_of_interest establishment"
"ChIJaxm6_Adu5kcRLKwg-AkOv4A","Jooby Provence","48.8656797","2.3672",NA,NA,NA,"health point_of_interest establishment"
"ChIJZzISUf1t5kcR5daZlFlc22M","le petit bleu","48.8653486","2.3680932",NA,"4.7","21","liquor_store food point_of_interest store establishment"
"ChIJB8g27gdu5kcRQ9jZzweYO4E","Ung Eng-y","48.8650289","2.3668891",NA,"5","2","point_of_interest establishment"
"ChIJr_o37gdu5kcREa0ulQC8NiY","Cordonnerie Derby","48.8650148","2.3668901",NA,"5","1","point_of_interest establishment"
"ChIJkfB5Io9v5kcRsj5HdgGj0Lw","Le Lab du Bonheur CBD Paris - Magasin de CBD - CBD Shop - CBD France","48.8657393","2.367633",NA,"4.7","253","food health point_of_interest store establishment"
