"Id","Name","Lat","Lng","Rating","Nb_Rating","Type"
"ChIJd4eHXnhy5kcR5VIN-qe3eoo","22-32 Rue de la Réunion","48.8536125","2.4029514",NA,NA,"route"
"ChIJZ0LSXXhy5kcRt-YKYzhcKmU","A.f.c.i","48.8536301","2.4028409","3.8","8","point_of_interest establishment"
"ChIJn56YXXhy5kcRUG96LLD0fa4","Carré-Urbain / Agence street-marketing Paris","48.853632","2.402784","5","5","point_of_interest establishment"
"ChIJxQlnRpNt5kcRGkDVvx5PtnM","Acoforme","48.8536301","2.4028409","3","2","point_of_interest establishment"
"ChIJg_p8XXhy5kcRWYIn3b-qTMk","Agence Clean-Tag","48.8536925","2.4027447","5","5","point_of_interest establishment"
"ChIJz4JlQnhy5kcRQklm3hS64R8","SAS Droitissimo Com","48.8537162","2.4024141",NA,NA,"point_of_interest establishment"
"ChIJg79T1ANy5kcRuZcXcdIqyDY","Isahit","48.8533099","2.4029476","4.8","4","point_of_interest establishment"
"ChIJQ25fZ3hy5kcRhuSPf-snaDw","Cadima","48.8537417","2.4029259",NA,NA,"point_of_interest establishment"
"ChIJz4JlQnhy5kcRZ30RBehiESw","Feral Jean-Luc","48.8537162","2.4024141",NA,NA,"point_of_interest establishment"
"ChIJXzpjXXhy5kcRC5WIlGWQ14U","Signes nomades","48.8537994","2.4026867","4.5","10","point_of_interest store establishment"
"ChIJD9LtRXhy5kcRqFJVCFVP-wU","De Lardemelle Aysseline","48.853199","2.402266",NA,NA,"point_of_interest establishment"
"ChIJWYzVWXhy5kcREGuwcPImhiE","Thibaut Pique Sélection","48.8531361","2.4030555",NA,NA,"point_of_interest establishment"
"ChIJ___b7MNv5kcReONRJs_4wGE","Uossm","48.8532546","2.4029494",NA,NA,"point_of_interest establishment"
"ChIJjXQiWXhy5kcRrLkjZusshgY","Namo Bio","48.853242","2.403119","4.3","186","grocery_or_supermarket food point_of_interest store establishment"
"ChIJ9zFkXnhy5kcRi8MSIXdDTkk","Point Viviane","48.8536388","2.4031136",NA,NA,"point_of_interest establishment"
"ChIJt02VXnhy5kcR8WZfW8ybb3w","Djebara Belkacem","48.8535112","2.4029052","2","4","lodging bar point_of_interest establishment"
"ChIJ__-rXXhy5kcRnrP1cHPoHHA","Riscochet Production","48.8536317","2.4027835",NA,NA,"point_of_interest establishment"
"ChIJS54jWKBz5kcRvfmzEQ1DOP0","Lab'oïkos Paris","48.8534242","2.4030082","4.6","12","point_of_interest establishment"
"ChIJgyt5WXhy5kcRce0nG3Fpva8","Saede","48.8533053","2.4029325",NA,NA,"point_of_interest establishment"
"ChIJD7fiBh9u5kcRYJSMaMOCCwQ","Paris","48.856614","2.3522219",NA,NA,"locality political"
"ChIJc8S1FK9z5kcRwjmtcvjLfK4","Mediacités","48.8533654","2.4030017",NA,NA,"point_of_interest establishment"
"ChIJa4IVWXhy5kcR8pO4ABjwOIE","Momentum","48.8533697","2.4030144",NA,NA,"point_of_interest establishment"
"ChIJAQCQWXhy5kcRyGH0A_tJocA","DATAPAULETTE","48.8532546","2.4029495",NA,NA,"point_of_interest establishment"
"ChIJl5v8Xnhy5kcR191hHA6l3Ao","Studio Photo La Parra","48.853573","2.4030879",NA,NA,"point_of_interest establishment"
"ChIJY_BhQnhy5kcRi7hIF7tiQng","Soul Delight Orchestra","48.8537162","2.4024141",NA,NA,"point_of_interest establishment"
"ChIJz4JlQnhy5kcRqzmaJX2GKl0","Societe Civile Feral Et Associes","48.8537162","2.4024141",NA,NA,"general_contractor point_of_interest establishment"
"ChIJQ98laHhy5kcRCJHSxBnHAPU","Gand","48.8538073","2.4025051",NA,NA,"roofing_contractor point_of_interest establishment"
"ChIJwecBRXhy5kcRwMlOW9Q5F0s","Desouche Fanny","48.8536719","2.4022004",NA,NA,"point_of_interest establishment"
"ChIJD9LtRXhy5kcR68clfTKx5Z8","FOREVER ALOE VERA GEL Paris - Distributeur Indépendant","48.8532007","2.4022862",NA,NA,"food health point_of_interest store establishment"
"ChIJW3x_VoJz5kcRdo6NfaGetzo","Go Rénov","48.8534253","2.4032713","5","3","point_of_interest establishment"
"ChIJawCqWHhy5kcRgGzrZM4oJ4s","We Sign It","48.8534253","2.4032713",NA,NA,"point_of_interest establishment"
"ChIJawCqWHhy5kcRVFuPO2jX2Xs","Union Nationale des Combattants de ALFORTVILLE","48.8534253","2.4032713",NA,NA,"point_of_interest establishment"
"ChIJR41A9nhy5kcREyaPyoMuDTw","Pellegrin Julie","48.8534253","2.4032713",NA,NA,"point_of_interest establishment"
"ChIJR41A9nhy5kcRRAcffGN8JIs","Omnes Benoit Francoise","48.8534253","2.4032713",NA,NA,"point_of_interest establishment"
"ChIJPwWhZ3hy5kcRlOzREfuiER4","Courari Franck","48.8538682","2.4028997",NA,NA,"point_of_interest establishment"
"ChIJPwWhZ3hy5kcR4SEpdboO3gw","Lieutet Marie Elisabeth","48.8538682","2.4028997",NA,NA,"point_of_interest establishment"
"ChIJV9oKQclz5kcRF2dXUmK_2Ic","Eric Florand","48.8538682","2.4028997",NA,NA,"health point_of_interest establishment"
"ChIJD9LtRXhy5kcRml1Top5heWE","Geka Magdalena","48.8536072","2.4020712",NA,NA,"point_of_interest establishment"
"ChIJQ3aixUpz5kcR7rdfh4P9Gd8","L'imprévu","48.8539387","2.4026249",NA,NA,"bar point_of_interest establishment"
