"Id","Name","Lat","Lng","Price_level","Rating","Nb_Rating","Type"
"ChIJP26S85Jt5kcRlOJOqdwQ3Fs","40-42 Rue de la Bidassoa","48.866812","2.3927346",NA,NA,NA,"route"
"ChIJyVbo8JJt5kcRj-NchFCAQG4","Treuttel Jean-Jacques","48.8669398","2.3926973",NA,NA,NA,"point_of_interest establishment"
"ChIJOwib9JJt5kcRmK0BjXxZihQ","Bains-Douches","48.8666421","2.3928426",NA,"4","1","point_of_interest establishment"
"ChIJdVHP5ZJt5kcRuEHdF0JMuIk","TGTFP","48.8668852","2.3926803",NA,NA,NA,"local_government_office point_of_interest establishment"
"ChIJ__9r8ZJt5kcRFRWeLuDdT98","Sysemo","48.8669398","2.3926973",NA,"1","1","point_of_interest establishment"
"ChIJv7Lp8JJt5kcRs-wR-WnL4jM","Treuttel Jérôme","48.8669398","2.3926973",NA,NA,NA,"point_of_interest establishment"
"ChIJ__9r8ZJt5kcRItpsmmaDxSI","Frédéric Lescure","48.8669398","2.3926974",NA,NA,NA,"point_of_interest establishment"
"ChIJr-xa9pJt5kcR4rD6pYMBUkE","Fondation Lebaudy Jules","48.866987","2.393024",NA,NA,NA,"real_estate_agency point_of_interest establishment"
"ChIJpTfvX5Jt5kcRQCvVvuNjZiI","Cramaro Armand Antoine Luigi","48.8666071","2.3932251",NA,"5","1","general_contractor point_of_interest establishment"
"ChIJFZT485Jt5kcROS4zn8pbrh4","Communication, Langages et Systèmes","48.8668532","2.3927955",NA,NA,NA,"point_of_interest establishment"
"ChIJ___PipJt5kcRnVeod8N1GgI","La Montagnarde","48.8665206","2.3929917",NA,NA,NA,"point_of_interest establishment"
"ChIJb9779JJt5kcRT3aiGVHAmnE","Les Tontons Bringueurs","48.8668567","2.3927865","2","4.5","237","bar point_of_interest establishment"
"ChIJ-WWvfuRt5kcRpPEkgZHypR4","Patricereinet","48.8667266","2.3929079",NA,NA,NA,"point_of_interest establishment"
"ChIJ4aDw9JJt5kcRqCUCW1abU0Q","Barruet Yves","48.8669398","2.3926973",NA,NA,NA,"bar point_of_interest establishment"
"ChIJ4aDw9JJt5kcRJ3ZCs7U8jsM","Cadre Compétences Paris","48.8669398","2.3926973",NA,NA,NA,"point_of_interest establishment"
"ChIJ65EZYZJt5kcRpv_Ts8CQ9WI","Angoleiros do Mar Paris","48.8665206","2.3929917",NA,NA,NA,"health point_of_interest establishment"
"ChIJcfQTiKJt5kcRY3ynoMLixww","Eliottemine","48.8665206","2.3929917",NA,NA,NA,"store point_of_interest establishment"
"ChIJkT749pJt5kcRhkKk2zHV70A","Port royal","48.8669968","2.3929815",NA,NA,NA,"point_of_interest establishment"
"ChIJFcpD0T5t5kcRRPnA2s1_COs","Remymtouillet","48.866987","2.393024",NA,NA,NA,"point_of_interest establishment"
"ChIJD7fiBh9u5kcRYJSMaMOCCwQ","Paris","48.856614","2.3522219",NA,NA,NA,"locality political"
"ChIJ1Xr-9JJt5kcRx-U3wswTUJ0","Geffard Olivier","48.866987","2.393024",NA,NA,NA,"painter point_of_interest establishment"
"ChIJY1mDk5Jt5kcRveAPROMY4fc","Rf Ecole De Garcons Vp","48.8664025","2.3920987",NA,NA,NA,"point_of_interest establishment"
