"Id","Name","Lat","Lng","Price_level","Rating","Nb_Rating","Type"
"ChIJHdLLuWxu5kcRJA0gn8lVkJE","18-36 Rue de Chabrol","48.87688","2.3530706",NA,NA,NA,"route"
"ChIJ6QpLp2xu5kcRDEPgQcKXW4k","Adaptel Hôtellerie Restauration Travail Temporaire","48.877137","2.3519689",NA,"3","25","point_of_interest establishment"
"ChIJ_YpMp2xu5kcRB1xBohup9o4","Médiane - Art & Com'","48.8771688","2.351957",NA,"5","16","point_of_interest establishment"
"ChIJFwDEpGxu5kcRLYruhqt6Ppc","Le Monde de l'Intérim","48.8771337","2.3524572",NA,NA,NA,"point_of_interest establishment"
"ChIJDaFN-vZt5kcR0PVF0e55Cok","Daubisse Esther","48.8771185","2.3520301",NA,NA,NA,"health point_of_interest establishment"
"ChIJx1mbpmxu5kcRkTX-C2deHRE","Editions Bauer","48.8771042","2.3527321",NA,NA,NA,"point_of_interest establishment"
"ChIJ_YpMp2xu5kcR1mWmX_NpxnE","Dabi Design Artisan Créateur - Luminaires","48.8771185","2.3520301",NA,"5","13","point_of_interest establishment"
"ChIJ_YpMp2xu5kcR-kZOhtY3ZS4","Agence Si - Studio irresistible","48.8771185","2.3520301",NA,"5","2","point_of_interest establishment"
"ChIJA59CpGxu5kcRkZSuB1uEsNA","Kashmir house","48.877073","2.352284","2","4.4","694","restaurant food point_of_interest establishment"
"ChIJ_Z6pfCdw5kcRo-XgCOFMA7E","Locomotion","48.877121","2.3522386",NA,NA,NA,"point_of_interest establishment"
"ChIJ8-SOIgZu5kcRtI-Qar1Ifec","Gym Suite","48.8770522","2.3524022",NA,"5","3","health point_of_interest establishment"
"ChIJiWympGxu5kcRKRql0q2S-BY","Amacco Sarl","48.8771337","2.3524572",NA,NA,NA,"point_of_interest establishment"
"ChIJVVWRo2xu5kcRL3DF-a5MABI","World Inline Figure Skating Association","48.8772118","2.3522796",NA,NA,NA,"school point_of_interest establishment"
"ChIJq6rapmxu5kcRE2sdgKmCw08","Joe Cook","48.8771185","2.3520301",NA,NA,NA,"point_of_interest establishment"
"ChIJq6rapmxu5kcRqPTbdvfEpDA","ADAM KIMMEL ASC","48.8771185","2.3520301",NA,NA,NA,"point_of_interest establishment"
"ChIJq6rapmxu5kcR5atNiXJyjEw","Rémy Chevrin","48.8771185","2.3520301",NA,NA,NA,"point_of_interest establishment"
"ChIJRdc6oWxu5kcRgsP8wsnQN04","Cosmic","48.8771185","2.3520301",NA,NA,NA,"point_of_interest establishment"
"ChIJiWympGxu5kcRpNywlr29g0k","BIENVENUE SUR NOTRE SITE INTERNET","48.8771663","2.3525834",NA,NA,NA,"point_of_interest establishment"
"ChIJ9efrpmxu5kcROr05X7fRLmM","Hypnose Paris 10 Access Bars Consciousness® Hélène Parisot","48.8772272","2.3519787",NA,"4.7","28","health point_of_interest establishment"
"ChIJD7fiBh9u5kcRYJSMaMOCCwQ","Paris","48.856614","2.3522219",NA,NA,NA,"locality political"
"ChIJt7INp2xu5kcRYpPNfV-eSb8","Aguerre Jean-Claude Psychanalyste","48.8768936","2.3519703",NA,NA,NA,"health point_of_interest establishment"
"ChIJuQUU-xrsC0ERSRthKNgEgsM","Apex - Apex-Isast - Apex-Isast Formation Paris","48.8770504","2.3527364",NA,NA,NA,"accounting finance point_of_interest establishment"
"ChIJ2dMrpmxu5kcR7Sj359Q6Ndk","Vicky Estevez","48.8768551","2.3519845",NA,"5","1","health point_of_interest establishment"
"ChIJ2dMrpmxu5kcRQrjGjQIWC3I","Aguerre Irène","48.8768551","2.3519845",NA,NA,NA,"health point_of_interest establishment"
"ChIJd7WVWGtu5kcRXK1Bz9g1_0o","Essique Lucien - Thérapeute, Auteur, Conférencier","48.8769174","2.3518748",NA,"5","1","health point_of_interest establishment"
"ChIJ-4I6umxu5kcRsiOmf0sozMY","Laverie Chabrol","48.8768366","2.3528013",NA,"3.1","13","laundry point_of_interest establishment"
"ChIJL1wrrUBu5kcR4X-2WEbi6cg","WizVille - La plateforme de Customer Feedback Management tout-en-un.","48.8767204","2.3522608",NA,"4.8","18","point_of_interest establishment"
"ChIJHW6usWxu5kcR8pPUbMVgFyI","Commissariat central 10ème Arrondissement","48.8768629","2.352763",NA,"1","5","police point_of_interest establishment"
"ChIJF2MNumxu5kcRGcRYO23B9to","Theatre in Paris","48.8768629","2.352763",NA,"5","7","point_of_interest store establishment"
"ChIJc0CC6mxu5kcRpebP8up63VE","Parimarz Rezai","48.8774698","2.3524194",NA,NA,NA,"dentist health point_of_interest establishment"
"ChIJ__-jmGxu5kcRxGXkj8TP4jo","JardiHand","48.8774877","2.3522585",NA,NA,NA,"point_of_interest establishment"
"ChIJib27mGxu5kcR9C6fLkmzR3s","Aikido Club La Fayette","48.8775205","2.3522557",NA,"2.5","2","health point_of_interest establishment"
"ChIJiWympGxu5kcRsRrGxfVZeHg","Sasson Consulting","48.8771337","2.3524572",NA,NA,NA,"point_of_interest establishment"
"ChIJq6rapmxu5kcRzpUgu_HcSSM","David Foulkes","48.8771185","2.3520301",NA,NA,NA,"electronics_store home_goods_store point_of_interest store establishment"
"ChIJq6reoGxu5kcRk3dlaGUcLYU","Ray Coates","48.8772181","2.3519725",NA,NA,NA,"point_of_interest establishment"
"ChIJL_ykuWxu5kcR36LvrEtAosM","Société Conseils Formalités","48.8770011","2.3529652",NA,NA,NA,"point_of_interest establishment"
"ChIJqcWvuWxu5kcR-_5MRUfCjKM","Sarl SNP","48.8770011","2.3529652",NA,NA,NA,"point_of_interest establishment"
"ChIJqcWvuWxu5kcRtVNhsPtuUWA","P.r.b.","48.8770011","2.3529652",NA,NA,NA,"point_of_interest establishment"
"ChIJo3GR1Zdu5kcRlQqHo0nynKA","Fanny's Beauty","48.877001","2.352965",NA,"3.1","68","hair_care point_of_interest establishment"
"ChIJD9gJpWxu5kcRGjGPbGZVTas","Happy End","48.8769188","2.3522667",NA,"5","1","point_of_interest establishment"
"ChIJnWdRlR5u5kcRlzY5VLPJk-g","Nouveaux Territoires","48.8775113","2.3520627",NA,NA,NA,"point_of_interest establishment"
"ChIJqcGpjRRu5kcRU86bMH4ySJc","THE OTHER GIFT","48.8775113","2.3520627",NA,"5","2","store point_of_interest establishment"
"ChIJ65Lan2xu5kcRy_cbHTvk7SY","Plus Editions","48.8775113","2.3520627",NA,NA,NA,"point_of_interest establishment"
"ChIJjS4Np2xu5kcRwhTaF1RXgZg","Cabinet Meurtin","48.8768551","2.3519845",NA,"1.8","5","real_estate_agency point_of_interest establishment"
"ChIJZSXqpmxu5kcRITk4lparM90","Ile Maurice Voyages","48.8771049","2.3521049",NA,"4.3","59","travel_agency point_of_interest establishment"
"ChIJKV_OmGxu5kcRJsHkcTOcBAo","Club Lafayette Sarl","48.8774877","2.3522585",NA,"4.5","24","gym health point_of_interest establishment"
"ChIJC7HQWGtu5kcRr8-Niozz5WE","www acdeco net","48.8771292","2.3516592",NA,NA,NA,"general_contractor point_of_interest establishment"
"ChIJD9gJpWxu5kcRQlMJSqHRFmA","Damkan","48.8769188","2.3522667",NA,NA,NA,"electronics_store home_goods_store point_of_interest store establishment"
"ChIJ__8LuWxu5kcReRwE5PH6nhA","Smart Green Power – France","48.8770011","2.3529652",NA,NA,NA,"point_of_interest establishment"
"ChIJFagXZJdv5kcRFaA1yfdw2kw","Artisans du Faubourg","48.877073","2.352284",NA,NA,NA,"general_contractor point_of_interest establishment"
"ChIJiWympGxu5kcR64InYgMTdQg","MC Listes","48.8771337","2.3524572",NA,NA,NA,"point_of_interest establishment"
"ChIJ93i9pWxu5kcR_g9F3vvkmcQ","YouScreenIt","48.8769188","2.3522667",NA,"5","4","point_of_interest establishment"
"ChIJ8w35Ehtp5kcRuGz-0YB1Juk","Paris Resto Cuisines","48.877119","2.35203",NA,NA,NA,"point_of_interest establishment"
"ChIJmV5CJRVu5kcRNKz2Co-nwVA","KAOM","48.877119","2.35203",NA,NA,NA,"point_of_interest establishment"
"ChIJ93i9pWxu5kcRdJVqcTPn87s","LA VERRIERE","48.8768948","2.3522612",NA,"4.2","19","electronics_store home_goods_store point_of_interest store establishment"
"ChIJK-Rrpmxu5kcRNnYjWjW9Mr4","Espace Klee","48.8769387","2.352077",NA,"1","1","point_of_interest establishment"
"ChIJC5WFjX1u5kcRxfTybUF-LcA","Ghozlan Nathalie","48.8771242","2.3519798",NA,"2.7","54","health point_of_interest establishment"
"ChIJq6reoGxu5kcRcbc5HamDGt4","Paul Meyers","48.8772181","2.3519725",NA,NA,NA,"point_of_interest establishment"
"ChIJq6reoGxu5kcRjvSJ38N_sFU","Sylvie Olivé","48.8772181","2.3519725",NA,NA,NA,"general_contractor point_of_interest establishment"
"ChIJByE6LtRv5kcRzenm_AGC06s","Jean-Baptiste Goupil Lucas-Fontaine Psychologue","48.8772181","2.3519725",NA,"3","2","health point_of_interest establishment"
