"Id","Name","Lat","Lng","Price_level","Rating","Nb_Rating","Type"
"ChIJU_bvjvZt5kcRViO0DIRq_-4","148-158 Rue de la Roquette","48.8583883","2.3830882",NA,NA,NA,"route"
"ChIJ0-REifZt5kcRrBUyKa_dOOg","Institut de beauté Body'Minute","48.858219","2.382982",NA,"4.1","16","beauty_salon spa point_of_interest store establishment"
"ChIJ5ddqi_Zt5kcRS7aTjDlJ2-I","Auboiron Alice","48.858081","2.3826106",NA,NA,NA,"point_of_interest establishment"
"ChIJBQ3LJvRt5kcRhXKa3ovPk54","Clémentine Primeur Paris 11","48.8583309","2.3825105",NA,"4.5","13","grocery_or_supermarket food point_of_interest store establishment"
"ChIJAQDwi_Zt5kcR2chFDyQmpnw","FrenchyTouch","48.8582326","2.382887",NA,NA,NA,"point_of_interest establishment"
"ChIJLeY-PBJt5kcRBqtZQ8CpRDQ","Franprix","48.85798","2.3821",NA,"3.5","68","supermarket grocery_or_supermarket restaurant food point_of_interest store establishment"
"ChIJL-wL8fZt5kcRGXC5l2kKUsU","Serrurerie Jules Et Fils","48.8584305","2.3821362",NA,"4.2","30","locksmith point_of_interest establishment"
"ChIJD5ANjfZt5kcRw7CngK9f3ak","Margaretti","48.8584621","2.3829909","2","4.2","218","meal_takeaway restaurant food point_of_interest establishment"
"ChIJfZq48PZt5kcRpy7EIFCAEm4","ELPMI-Consulting","48.8583431","2.3819708",NA,NA,NA,"point_of_interest establishment"
"ChIJVVEY9fZt5kcR-sPjd1weeZ8","Fibreo","48.8580924","2.3824702",NA,NA,NA,"point_of_interest store establishment"
"ChIJHbLG8vZt5kcR3KpjSnIHwlg","Yaamby","48.8584981","2.3825371",NA,NA,NA,"general_contractor point_of_interest establishment"
"ChIJOerljPZt5kcRpS2SZzH1q8c","Cer Voltaire","48.8584015","2.3827236",NA,"4.2","19","point_of_interest establishment"
"ChIJU7h6jvZt5kcRiLmqXIKukNg","La Désimpro","48.8584621","2.3829909",NA,NA,NA,"point_of_interest establishment"
"ChIJ6Sch9vZt5kcRPtZhs8CJIJg","Marionnaud - Parfumerie & Institut","48.857983","2.3821",NA,"3","35","beauty_salon spa point_of_interest clothing_store store establishment"
"ChIJAYLJ8PZt5kcRxQ-Dmhm1uvs","Jad","48.8583431","2.3819707",NA,"3.6","9","hardware_store point_of_interest store establishment"
"ChIJJzcTi_Zt5kcRjwH1p_wZ3_E","Cdd 526","48.8581954","2.3826928",NA,NA,NA,"point_of_interest establishment"
"ChIJJzcTi_Zt5kcR1vp0QiM20xU","Le Paradis du Fruit (Office)","48.8581954","2.3826928",NA,"2","5","point_of_interest establishment"
"ChIJJzcTi_Zt5kcR2ipm7FQowgs","Sainte Hemoise 55","48.8581954","2.3826928",NA,NA,NA,"point_of_interest establishment"
"ChIJj85qi_Zt5kcRDqRfHUVafdY","Samodanova Milcent Anna","48.8581954","2.3826928",NA,NA,NA,"point_of_interest establishment"
"ChIJD7fiBh9u5kcRYJSMaMOCCwQ","Paris","48.856614","2.3522219",NA,NA,NA,"locality political"
"ChIJ5ddqi_Zt5kcRVqyRBs8INek","Milcent Philippe","48.8581954","2.3826928",NA,NA,NA,"general_contractor point_of_interest establishment"
"ChIJ5ddqi_Zt5kcRhqUzkGzPsQ0","Hvm Sci","48.8581954","2.3826928",NA,NA,NA,"accounting finance point_of_interest establishment"
"ChIJUflJivZt5kcRU3yNVgNlpC4","Aprium Pharmacie des Ecoles Roquette","48.8581691","2.3827737",NA,"3.5","12","pharmacy health point_of_interest store establishment"
"ChIJtUlC8_Zt5kcRgKK9-3IXZ38","Verger De Paris Friuts Legumes","48.8583335","2.3825089",NA,NA,NA,"point_of_interest establishment"
"ChIJTfWSi_Zt5kcRP0qKofpotAI","Cyber Café S.A.R.L","48.8582288","2.382832",NA,"2.9","13","point_of_interest establishment"
"ChIJ34-Si_Zt5kcRyKvd-7tpfS0","Syma","48.8582309","2.3828346",NA,NA,NA,"point_of_interest establishment"
"ChIJHboqjfZt5kcRYB1iL-lhgng","Maison Nouilles","48.8584004","2.3826279","1","4.5","260","restaurant food point_of_interest establishment"
"ChIJ2ZbIceVt5kcR8msorqGqyKk","MoneyGram","48.8582326","2.382887",NA,NA,NA,"finance point_of_interest establishment"
"ChIJI4fsowZt5kcRJswGDrbPxzM","Beaumet Corporation","48.8582326","2.382887",NA,NA,NA,"point_of_interest establishment"
"ChIJNRjzi_Zt5kcRKcPkHwz_khg","Dr Serge MAAREK","48.8582326","2.382887",NA,NA,NA,"dentist health point_of_interest establishment"
"ChIJgTD3i_Zt5kcRWWnSIoi7RVA","Maarek Laurent","48.8582326","2.382887",NA,NA,NA,"point_of_interest establishment"
"ChIJjRLRpoxt5kcR-RsJIqDqNOk","Boulangerie Gana Roquette","48.8582889","2.382228",NA,"4.3","48","bakery food point_of_interest store establishment"
"ChIJy7kYYPZt5kcRz9lMtCCUn-g","Melissamaximelaura1581","48.85794","2.382638",NA,NA,NA,"lawyer point_of_interest establishment"
"ChIJm3dxaoZt5kcRo0b00yXPkqk","Laura Campredon","48.8583813","2.3823225",NA,NA,NA,"health point_of_interest establishment"
"ChIJC_jd8_Zt5kcRE2vw3zURFZo","Bellion Lucie","48.8583813","2.3823225",NA,"5","1","store point_of_interest establishment"
"ChIJB7rH8_Zt5kcRjJG95vSJ0bM","Seck Seck-dispot Cyril Modou","48.8583813","2.3823225",NA,NA,NA,"point_of_interest establishment"
"ChIJB7rH8_Zt5kcR04lY7V3iQyk","Castillo Rincon German Andres","48.8583813","2.3823225",NA,NA,NA,"point_of_interest establishment"
"ChIJOerljPZt5kcRNPPIkEN6nJA","E-Ram Formations","48.8584388","2.3825997",NA,NA,NA,"point_of_interest establishment"
"ChIJp6dWjPZt5kcRv2XtnckGJc4","Yixin","48.8584112","2.3827888",NA,"2.9","8","store point_of_interest establishment"
"ChIJ9XhI8vZt5kcRHx4WlBfeyS8","Sarl Levantin Brocart Galerie","48.8584545","2.3823451",NA,NA,NA,"point_of_interest establishment"
"ChIJ4UZyjPZt5kcRcE7igpWMr-o","150 Rue De La Roquette","48.8581474","2.3830279",NA,NA,NA,"pharmacy health point_of_interest store establishment"
"ChIJqwUcjPZt5kcRT1sv8uNG_-A","Kefalas Alexia","48.8581474","2.3830279",NA,NA,NA,"point_of_interest establishment"
"ChIJAQDE8vZt5kcRkm59g3v9Lo8","Nargui World","48.8584955","2.3825356",NA,NA,NA,"point_of_interest establishment"
"ChIJNSIU_oRt5kcRJ_49pHKxzFQ","Marine Les Enfant","48.8584981","2.3825371",NA,"5","1","health point_of_interest establishment"
"ChIJ25e4VARt5kcRfmlUcUoXVR4","Elsa Galan - Psychologue & Relaxologue","48.8584981","2.3825371",NA,NA,NA,"health point_of_interest establishment"
"ChIJgzp98vZt5kcR6bPvbtEkwao","Giroux Johan","48.8585223","2.3824481",NA,NA,NA,"point_of_interest establishment"
"ChIJV4598vZt5kcRYW01RA20r4k","Guillot Christophe","48.8585223","2.3824481",NA,NA,NA,"point_of_interest establishment"
"ChIJ8-9ARadt5kcRlmwJGmZ9Wkk","Idéal Vision","48.858282","2.3830619",NA,"5","3","health point_of_interest store establishment"
"ChIJVRme8fZt5kcRIyebxNfFHZc","Immofidès","48.8584087","2.3821115",NA,"2.6","5","real_estate_agency point_of_interest establishment"
"ChIJg3VlKPRt5kcRlYOPTP2L6Jw","Greg Antoine Hairdresser Paris 11","48.8584797","2.3829006",NA,"4.2","59","hair_care point_of_interest establishment"
"ChIJU7h6jvZt5kcRk54bZ_yFKqc","La Machine À Jambon","48.8584621","2.3829909",NA,NA,NA,"point_of_interest establishment"
"ChIJUyhEE21t5kcRqUuUwZ6yrFg","Flunity Services","48.8583431","2.3819707",NA,NA,NA,"point_of_interest establishment"
"ChIJf5q48PZt5kcR_V2jffeEEAI","Dominique Cayron","48.8583431","2.3819707",NA,NA,NA,"point_of_interest establishment"
"ChIJwehf7fZt5kcRlO_8ZfwDGVI","Keycafe","48.858598","2.3825253",NA,NA,NA,"point_of_interest store establishment"
"ChIJHUY08fZt5kcRwYcLBbUKXxg","Mussino Mireille","48.858598","2.3825253",NA,NA,NA,"point_of_interest establishment"
"ChIJn-CyjfZt5kcRYIeoCNLkvg4","Thomas Appolaire","48.8585532","2.382854",NA,NA,NA,"point_of_interest establishment"
"ChIJEWeL8vZt5kcRvmnt5_C45kI","Djef Food","48.8586106","2.3824317",NA,"5","1","restaurant food point_of_interest establishment"
"ChIJM5SukvZt5kcRsqW9l8kJsbw","Pierrepaulineemma1335","48.858617","2.382638",NA,NA,NA,"school health point_of_interest establishment"
"ChIJp_RhZRxt5kcRlRP307be2kE","Kid Apt","48.8585712","2.3822199",NA,NA,NA,"lodging point_of_interest establishment"
"ChIJ__9zWPZt5kcRDyGJwMwIfMw","Distri Roquette","48.8579566","2.3819629",NA,NA,NA,"point_of_interest establishment"
