"Id","Name","Lat","Lng","Rating","Nb_Rating","Type"
"ChIJ2_PuzY1t5kcRBbEq8LErgbc","Avenue Transversale nÂ°2","48.8628316","2.3950134",NA,NA,"route"
"ChIJhQLaO3Bt5kcR9Q2pYxjwVP4","Tombe de Guillaume Apollinaire","48.8626916","2.3947337","5","1","cemetery point_of_interest establishment"
"ChIJn7ZeNoxt5kcRyaleo9RNOqA","Tombe d'Allan Kardec","48.8623405","2.3943946","4.8","39","cemetery tourist_attraction point_of_interest establishment"
"ChIJXYv0KYxt5kcRSZ8pWME3iNY","Isadora Duncan grave","48.8625029","2.3954461","4.8","6","cemetery tourist_attraction point_of_interest establishment"
"ChIJD7fiBh9u5kcRYJSMaMOCCwQ","Paris","48.856614","2.3522219",NA,NA,"locality political"
