"Id","Name","Lat","Lng","Rating","Nb_Rating","Type"
"ChIJQwX-TJZt5kcR314HI2SyAG4","35-27 Rue du Télégraphe","48.8735189","2.3992055",NA,NA,"route"
"ChIJgQA6SZZt5kcRWBpYprSCJkc","Nursery Secular Du Quartier St Fargeau","48.873715","2.3990112","4.9","7","point_of_interest establishment"
"ChIJBQFKTZZt5kcRicuQUXlmVJo","Alimentation","48.8734311","2.3993152","2","2","point_of_interest establishment"
"ChIJfZL8TJZt5kcRWyChrVK5VsE","Primary School Télégraphe","48.8735182","2.3989747","5","1","primary_school school point_of_interest establishment"
"ChIJFUIghk5t5kcR034484fQ4io","Diarra Moussa","48.8734817","2.3992924",NA,NA,"lodging point_of_interest establishment"
"ChIJD7fiBh9u5kcRYJSMaMOCCwQ","Paris","48.856614","2.3522219",NA,NA,"locality political"
