"Id","Name","Lat","Lng","Rating","Nb_Rating","Type"
"ChIJz8FxfH5y5kcRccRh2sMAJwI","Passage de Lagny","48.8502859","2.4089811",NA,NA,"route"
"ChIJqeqShX5y5kcRN1DWyNFtjWo","Compagnie théâtrale Aurore","48.850504","2.4082038","4","1","point_of_interest establishment"
"ChIJk6C6hX5y5kcRjO17tYb8wFc","Lala Architecture","48.8503933","2.4081624",NA,NA,"point_of_interest establishment"
"ChIJk6C6hX5y5kcRyINC4dRryuM","La Gaillarde Productions","48.8503933","2.4081624",NA,NA,"point_of_interest establishment"
"ChIJk6C6hX5y5kcR8pHSpwL4usY","Sarl Biba","48.8503933","2.4081624",NA,NA,"point_of_interest establishment"
"ChIJV2D637dz5kcR_7R31Lm7r0U","Agence Typic","48.8503831","2.4081651",NA,NA,"point_of_interest establishment"
"ChIJ7a6sh5Jz5kcR3coiLSZene0","Les Étoiles De Philidor","48.8503336","2.4083656",NA,NA,"point_of_interest establishment"
"ChIJD7fiBh9u5kcRYJSMaMOCCwQ","Paris","48.856614","2.3522219",NA,NA,"locality political"
