"Id","Name","Lat","Lng","Price_level","Rating","Nb_Rating","Type"
"ChIJswNltoRt5kcRvBAvy6twyss","19-17 Rue Belgrand","48.8646262","2.4057561",NA,NA,NA,"route"
"ChIJT30eDoVt5kcRO1rEzTGRd5Y","Annabel Smeed Martin","48.864943","2.4055008",NA,NA,NA,"health point_of_interest establishment"
"ChIJ6bezzIRt5kcROn6tNvzqZlY","Deli's Place","48.8650674","2.4052813",NA,"4","21","restaurant food point_of_interest establishment"
"ChIJudElM5tt5kcR_fNSn00aFWA","Huitzilin","48.8650728","2.4052269","2","4.6","228","restaurant food point_of_interest establishment"
"ChIJ6bJnsYRt5kcRwKdxglFZ3Jo","Post Office","48.864707","2.4060086",NA,"2.1","38","post_office finance point_of_interest establishment"
"ChIJH8wjyIRt5kcRPSEjJmlS-rA","pla'net webmaster","48.8644315","2.4054371",NA,NA,NA,"point_of_interest establishment"
"ChIJhw5Bz4Rt5kcRxj8_dmyYgaw","La Boulangerie du Metro","48.8644837","2.405189",NA,"4.2","32","bakery food point_of_interest store establishment"
"ChIJFQR-yIRt5kcRpy-CFxXcwHk","Franprix","48.8644147","2.405464",NA,"3","64","supermarket grocery_or_supermarket restaurant food point_of_interest store establishment"
"ChIJGQw8sYRt5kcRvqliM_wPbh4","Major'Dom","48.8646967","2.4061528",NA,"3.9","13","laundry point_of_interest establishment"
"ChIJGR1TMptt5kcR0QfBEJEdHes","Au Fournil du Village","48.8651795","2.4052668","2","3.8","54","bakery food point_of_interest store establishment"
"ChIJ2-kMyoRt5kcR5ORvTV2rdvE","Bar de la Place Edith Piaf","48.8647981","2.4055991","1","4.2","260","bar point_of_interest establishment"
"ChIJqX9ttoRt5kcRLVhSAmzXKbM","DENTIST - Dr. Meimoun Elisabeth","48.8648544","2.4055492",NA,"4","4","dentist health point_of_interest establishment"
"ChIJ3cuBsYRt5kcRB00rrJ3ieAU","Relais Pressing","48.8647019","2.4061665",NA,"1","1","laundry point_of_interest establishment"
"ChIJgT_rzIRt5kcR6PbP3FTSGsQ","Restaurant Pause Kebab","48.864986","2.4053285","1","4","69","meal_takeaway restaurant food point_of_interest establishment"
"ChIJzz8Wy4Rt5kcREpOSY4-Y2j4","Ewenczyk Evelyne","48.864943","2.4055008",NA,"3.2","16","doctor health point_of_interest establishment"
"ChIJy5iXWkZt5kcRG8IMiiBIsBU","Docteur Mikael Nizard","48.8648544","2.4055492",NA,NA,NA,"dentist health point_of_interest establishment"
"ChIJlbQ3yoRt5kcROU5-8uMiHu4","De la Py","48.8648544","2.4055492",NA,NA,NA,"dentist health point_of_interest establishment"
"ChIJqX9ttoRt5kcRBBGflD-GicY","Fournier Marie","48.8648544","2.4055492",NA,NA,NA,"point_of_interest establishment"
"ChIJv6tdyoRt5kcRLQR9YQ7QsN0","Dr Gwenaelle SAINT LEGER","48.8649236","2.4054884",NA,NA,NA,"dentist health point_of_interest establishment"
"ChIJD7fiBh9u5kcRYJSMaMOCCwQ","Paris","48.856614","2.3522219",NA,NA,NA,"locality political"
"ChIJbcAcD2Rt5kcRl2H_fRStu-Y","Dr Clémentine Canuel","48.864943","2.4055008",NA,NA,NA,"dentist health point_of_interest establishment"
"ChIJ5c9lBcRv5kcR3Mg-E_2hpaI","Arnauld DECRAENE psychothérapie adultes et enfants - coaching - Paris 20 - Gambetta","48.864943","2.4055008",NA,NA,NA,"health point_of_interest establishment"
"ChIJzz8Wy4Rt5kcRXrJKnpgiqqQ","Boisset Christine","48.864943","2.4055008",NA,"1","4","dentist health point_of_interest establishment"
"ChIJzz8Wy4Rt5kcRDHDoBBbSEP0","Nota Anne Sophie","48.864943","2.4055008",NA,"5","1","health point_of_interest establishment"
"ChIJzz8Wy4Rt5kcRa_zH6ntBCnc","Mouyal Camille","48.864943","2.4055008",NA,NA,NA,"health point_of_interest establishment"
"ChIJzz8Wy4Rt5kcRJLyykpD-X8g","Caula Catherine","48.864943","2.4055008",NA,NA,NA,"dentist health point_of_interest establishment"
"ChIJq3LTTRFt5kcRdom5frxyNkI","Statue de Edith Piaf","48.8647412","2.4053697",NA,"4.2","5","point_of_interest establishment"
"ChIJR1EyXMNt5kcRqGch50IgzxE","Crédit Mutuel","48.8649669","2.4053905",NA,"2.4","8","bank finance insurance_agency point_of_interest establishment"
"ChIJYzFtvfxt5kcRLHjFPgvAsiA","Stammbachiniu","48.8649953","2.4055077",NA,NA,NA,"store point_of_interest establishment"
"ChIJDc0ptIRt5kcRawi3Z_ph2Ro","Nicolas Belgrand","48.8647605","2.4057919","2","4.1","17","liquor_store food point_of_interest store establishment"
"ChIJIQ49Zfht5kcRzRtE-MCz4sQ","Fountain","48.8647875","2.4052196",NA,"5","1","point_of_interest establishment"
"ChIJQTS_zoRt5kcR-Pk_4xILiNY","Traiteur","48.8646598","2.4052119",NA,NA,NA,"point_of_interest establishment"
"ChIJSRIXp6lt5kcRlFxQvlbAkqM","VIRAK THAI","48.8647101","2.4059196",NA,"4","6","restaurant food point_of_interest establishment"
"ChIJBdhXyIRt5kcRlO3NtXaeBk0","Disalor","48.8645384","2.4054446",NA,NA,NA,"point_of_interest establishment"
"ChIJBdhXyIRt5kcRdrrSGaMJaSs","Atelier Showroom Boutique Associative","48.8645384","2.4054446",NA,NA,NA,"point_of_interest establishment"
"ChIJdRcZzYRt5kcRzkIYs052vng","Fontaine Wallace","48.8649585","2.4051001",NA,NA,NA,"point_of_interest establishment"
"ChIJfRBjs4Rt5kcRGYGHYYWTcfw","Thomas Valérie","48.8649194","2.4060184",NA,NA,NA,"point_of_interest establishment"
"ChIJH2c9R1ht5kcRE33CFfdaRcQ","O’cocorico","48.8650816","2.4051898",NA,"3.7","7","restaurant food point_of_interest establishment"
"ChIJr0nMz4Rt5kcRs4zvPkuxFfw","Pelleport","48.8645956","2.4050272",NA,NA,NA,"bus_station transit_station point_of_interest establishment"
"ChIJiTfY1mJt5kcRVkTNQ0HDCKw","Anath Tordjman","48.8652036","2.4053008",NA,"5","1","doctor health point_of_interest establishment"
"ChIJhw5Bz4Rt5kcRd-HkTREv7f8","Sarl Nicdan","48.8644837","2.405189",NA,NA,NA,"point_of_interest establishment"
"ChIJNywGM5tt5kcRM9QKfyiBmAs","Boulangerie Meunier","48.8651934","2.4051928",NA,"4","6","bakery food point_of_interest store establishment"
"ChIJG4QrouNt5kcRxSJ0njkgTNo","Belgrand Pressing","48.8647019","2.4061665",NA,"5","2","laundry point_of_interest establishment"
"ChIJkaNDktVt5kcR0C6fJW1OOOY","Anissa mekadim","48.8652611","2.4055941",NA,NA,NA,"lodging point_of_interest establishment"
