"Id","Name","Lat","Lng","Rating","Nb_Rating","Type"
"ChIJHc_ucpht5kcRw6H9l-2W1MU","11-1 Rue des Tourelles","48.8746052","2.4037837",NA,NA,"route"
"ChIJTwi1yPNt5kcRcpqzM5RdFFY","ELZON","48.8740843","2.4035639","5","7","electronics_store point_of_interest store establishment"
"ChIJP32tEpht5kcRKxrEgdSTFrs","Cem Couture","48.8744833","2.4036398","5","2","point_of_interest establishment"
"ChIJP32tEpht5kcRw0ib_fxHwW0","Legrand Cigdem","48.8744833","2.4036398","3","1","point_of_interest establishment"
"ChIJ___jFJht5kcR6Nf3YksZToE","ELZON","48.8740726","2.4035035",NA,NA,"point_of_interest establishment"
"ChIJMdV2FZht5kcR507Oik57eCE","Lachaume Jeremie","48.8739563","2.4035868",NA,NA,"point_of_interest establishment"
"ChIJD7fiBh9u5kcRYJSMaMOCCwQ","Paris","48.856614","2.3522219",NA,NA,"locality political"
