"Id","Name","Lat","Lng","Rating","Nb_Rating","Type"
"ChIJabmKx1xu5kcR-Fowg_JW-SQ","35 Rue du Chevalier de la Barre","48.8872464","2.3427578",NA,NA,"route"
"ChIJg8vfy1xu5kcRA1tGDNGsgHA","The Basilica of the Sacred Heart of Paris","48.8867111","2.3430302",NA,NA,"premise church place_of_worship point_of_interest establishment"
"ChIJ442GNENu5kcRGYUrvgqHw88","Sacré-Cœur","48.8867046","2.3431043","4.7","83787","tourist_attraction church place_of_worship point_of_interest establishment"
"ChIJTUPmy1xu5kcRTdJDi6nCFtI","Sacré-Cœur Basilica","48.8866951","2.3430993","4.7","23937","church tourist_attraction place_of_worship point_of_interest establishment"
"ChIJ816Va6lv5kcRPWPlU8Y8tUI","Sacré-Cœur","48.8867163","2.343092",NA,NA,"museum point_of_interest establishment"
"ChIJkbo4ulxu5kcRIZq4hiarEp0","Benedictines of the Sacre Coeur","48.8871045","2.3422975","4.7","170","point_of_interest establishment"
"ChIJD7fiBh9u5kcRYJSMaMOCCwQ","Paris","48.856614","2.3522219",NA,NA,"locality political"
