"Id","Name","Lat","Lng","Price_level","Rating","Nb_Rating","Type"
"ChIJhfKAczRu5kcRqU9Cw-qpnGk","26-32 Rue Godot de Mauroy","48.871995","2.3273118",NA,NA,NA,"route"
"ChIJn7tmdTRu5kcR0pa4HFYpdDQ","Le Basile Hôtel","48.8716076","2.3269245",NA,"4.3","127","lodging point_of_interest establishment"
"ChIJMRxgDTRu5kcRwjVFlekcNtI","TOTO'","48.8722864","2.3272723","1","4.4","233","restaurant food point_of_interest establishment"
"ChIJ4QhiejRu5kcR6fSpmlmvw40","Paris Business Office","48.8721607","2.3267378",NA,NA,NA,"real_estate_agency point_of_interest establishment"
"ChIJMRxgDTRu5kcR_kTLbNqPl8U","Twogayther","48.8722894","2.3272281",NA,"4.6","11","point_of_interest establishment"
"ChIJBYSudDRu5kcRJnKgdS-EEdw","Logement Francilien","48.8719355","2.3270375",NA,NA,NA,"real_estate_agency point_of_interest establishment"
"ChIJDySdDDRu5kcRT2FBFIMs4Dk","Association Club Le Boulanger","48.8719318","2.3274943",NA,NA,NA,"point_of_interest establishment"
"ChIJ59RqdTRu5kcR6G6G34D6xfU","Concorde Immobilier Investissement","48.8715868","2.3269509",NA,"5","1","general_contractor point_of_interest establishment"
"ChIJP_9-rTRu5kcRbi-3YES6CMU","Cabinet de Recrutement","48.872037","2.3271672",NA,"4.9","9","point_of_interest establishment"
"ChIJWYZMCzRu5kcRVJpE-7zYMww","Leaving Car Services","48.8719507","2.3274418",NA,"3","4","parking point_of_interest establishment"
"ChIJQbek9zNu5kcRAmycvFQffvk","Le café des artistes","48.8719507","2.3274418",NA,"4","1","restaurant food point_of_interest establishment"
"ChIJ4cfndDRu5kcRW5jap3aCKfI","Echo In Coach","48.8717858","2.3274252",NA,NA,NA,"point_of_interest establishment"
"ChIJWYZMCzRu5kcR2c-J56dUP2Q","Alektum Recouvrement","48.8719601","2.3274601",NA,NA,NA,"bank atm finance point_of_interest establishment"
"ChIJswcsdTRu5kcRjZgIlCBAcBM","Ker Juliette Paris","48.8718121","2.3274547",NA,"4.1","142","restaurant food point_of_interest store establishment"
"ChIJT22acTRu5kcRirDH4ftH89s","Come Prima","48.8721131","2.3272026","2","4.6","159","restaurant food point_of_interest establishment"
"ChIJl5k2cK965kcR9fMkEX2CCS0","BESSAND","48.871932","2.327494",NA,"4.9","74","point_of_interest establishment"
"ChIJWYZMCzRu5kcRI13hDAj14dA","Zervant","48.8719318","2.3274943",NA,"3.6","9","point_of_interest establishment"
"ChIJWYZMCzRu5kcRWGONs4nxon8","PeGast Madeleine","48.8719318","2.3274943",NA,"4.2","17","restaurant food point_of_interest establishment"
"ChIJkxnjcjRu5kcRQZml07haShE","La Générale des Farines","48.8719318","2.3274943",NA,NA,NA,"point_of_interest establishment"
"ChIJD7fiBh9u5kcRYJSMaMOCCwQ","Paris","48.856614","2.3522219",NA,NA,NA,"locality political"
"ChIJWYZMCzRu5kcRD8VZS_LGv9A","björka design","48.8719318","2.3274943",NA,"5","4","store furniture_store home_goods_store general_contractor point_of_interest establishment"
"ChIJV4ZMCzRu5kcRGoDA8JyxqQM","Bagatelles","48.8719318","2.3274944",NA,NA,NA,"point_of_interest establishment"
"ChIJ0bMDijNu5kcRIXvz56vvf4Y","Finantial","48.8716564","2.3271165",NA,"5","4","finance point_of_interest establishment"
"ChIJn5M7DTRu5kcRpv0ypyTIqGc","Neaeris","48.8721776","2.3271054",NA,NA,NA,"point_of_interest establishment"
"ChIJV5utizNu5kcRr0x2OrMyb7I","GB CONSEILS","48.8716917","2.3274149",NA,NA,NA,"real_estate_agency point_of_interest establishment"
"ChIJJQW6DDRu5kcRkhBt5BRwo6E","Pialet Laurent","48.8720484","2.3274718",NA,NA,NA,"doctor health point_of_interest establishment"
"ChIJpZRZdTRu5kcRWMyJC1MM5eo","Cuisine Libanaise, Épicerie Fine RANIA 75009_Paris","48.8716917","2.3274149",NA,"4","165","restaurant food point_of_interest establishment"
"ChIJr5RZdTRu5kcR4IanBHTafSg","Les Z Amis de Frigide Barjot","48.8716917","2.327415",NA,NA,NA,"point_of_interest establishment"
"ChIJmUabcTRu5kcRh-hLox1rojA","CITY-LOCKER - Opéra","48.8721558","2.3273042",NA,"3.4","54","storage point_of_interest establishment"
"ChIJmUabcTRu5kcRfCGpgaY66OY","Byraud Taylor","48.8721776","2.3271054",NA,NA,NA,"point_of_interest clothing_store store establishment"
"ChIJmUabcTRu5kcRqQ03YaAIoL8","Champerley Conseil","48.8721776","2.3271054",NA,NA,NA,"point_of_interest establishment"
"ChIJmUabcTRu5kcRayu0HawKGgM","Impedance","48.872178","2.327105",NA,NA,NA,"point_of_interest establishment"
"ChIJu4qiezRu5kcRyKwKt9V5MVw","Jisc Voyages","48.8721018","2.3267735",NA,NA,NA,"travel_agency point_of_interest establishment"
"ChIJE41MHOlv5kcRUA_5gslo7Rw","Victory Immobilier","48.8715868","2.3269509",NA,"5","1","finance real_estate_agency point_of_interest establishment"
"ChIJl51jdTRu5kcRAl6PhIl7eDk","Concorde Promotion","48.8715868","2.3269509",NA,NA,NA,"point_of_interest establishment"
"ChIJieYsYNdv5kcRprs7ZFmUmBI","Bulle de Sophrologie - Nathalie Saulnier","48.872102","2.326774",NA,"5","1","health point_of_interest establishment"
"ChIJl51jdTRu5kcRVkN1IGP3t0U","Immobiliere Pichon Fournier","48.8715868","2.3269509",NA,NA,NA,"general_contractor point_of_interest establishment"
"ChIJ6fGyijNu5kcRgiTwId1Us1E","SECOFI","48.8715596","2.3273219",NA,"5","12","accounting finance point_of_interest establishment"
"ChIJqaqueTRu5kcRhIWwMI0NAmw","Maquettes-3D.Solutions SAS","48.8718688","2.3266228",NA,NA,NA,"point_of_interest establishment"
"ChIJb1IPeTRu5kcRYXHT7vA8xME","Virginie Ferrara Psychologue Psychanalyste Paris","48.8718688","2.3266227",NA,"5","4","health point_of_interest establishment"
"ChIJ7ck9ezRu5kcRinFR9OxY0hI","Anov Executive","48.8721607","2.3267378",NA,"3.6","27","point_of_interest establishment"
"ChIJwY6VzfJo5kcRIpmjKRWcCfg","PEGAZEN","48.8715667","2.3273748",NA,NA,NA,"spa health point_of_interest establishment"
"ChIJHQliejRu5kcRKK8nUHYdTmk","SOCIETE Énergie","48.8721607","2.3267378",NA,NA,NA,"point_of_interest establishment"
"ChIJ4QhiejRu5kcRokoRVoPQ68M","Grain de Poussière","48.8721607","2.3267378",NA,NA,NA,"point_of_interest establishment"
"ChIJMRxgDTRu5kcRTiQc3C4p228","Adwise","48.8722894","2.3272281",NA,"4","4","point_of_interest establishment"
"ChIJtRaudDRu5kcRyV5QtrlHnwI","La Muse Du Chai","48.8719355","2.3270375","2","4.6","68","restaurant bar food point_of_interest establishment"
"ChIJMRxgDTRu5kcRQbaUGdr8W5M","Inferential","48.8722894","2.3272281",NA,NA,NA,"point_of_interest establishment"
"ChIJX-MsfzRu5kcRDt_pN8tKc60","Cercle Finance","48.8717326","2.3265456",NA,"3.8","4","finance point_of_interest establishment"
"ChIJmY-8GjVu5kcRkakNOQJof78","Amalto Technologies","48.8721821","2.3266923",NA,NA,NA,"finance point_of_interest establishment"
"ChIJe8XFezRu5kcRea9JUaaFwrE","L'Atelier des Sens - Haussmann","48.8720447","2.3265661",NA,"4.1","22","food point_of_interest establishment"
"ChIJaZy0eTRu5kcRSkDs_TAcUY0","Helmut Newcake Madeleine 100% Gluten Free","48.8718617","2.3265254","2","4.4","442","bakery cafe restaurant food point_of_interest store establishment"
"ChIJ4QhiejRu5kcRU8weXmwyYak","expansion asset management","48.8721821","2.3266923",NA,NA,NA,"point_of_interest establishment"
"ChIJDeWlizNu5kcRnn0WzKJd0ek","CDN Juris","48.8714882","2.3269647",NA,NA,NA,"lawyer finance point_of_interest establishment"
"ChIJK1WqizNu5kcR9zsl_Y7h9SQ","Sarl Senarc","48.8714882","2.3269647",NA,NA,NA,"point_of_interest establishment"
"ChIJ-cgTejRu5kcRCOtR1CH9uEU","Willman Paris 9","48.87211","2.326588",NA,"4.8","5","point_of_interest clothing_store store establishment"
"ChIJuTx6eDRu5kcRKUEyC7YiG1U","AGENA3000","48.8717326","2.3265457",NA,"5","3","point_of_interest establishment"
"ChIJq6qaeDRu5kcR4tCcl2W6Jy4","Florence François","48.8717326","2.3265456",NA,NA,NA,"point_of_interest establishment"
"ChIJq6qaeDRu5kcRq2vA9taN2gQ","REGIME COACHING","48.8717326","2.3265456",NA,"4","1","health point_of_interest establishment"
"ChIJ67DkczRu5kcRB1AVa0-oJkQ","INTRANSLATION SAS","48.872037","2.3271672",NA,NA,NA,"point_of_interest establishment"
"ChIJH4DPczRu5kcReb-J9xrL9QA","Projet 2521","48.8721131","2.3272026",NA,NA,NA,"point_of_interest establishment"
