"Id","Name","Lat","Lng","Rating","Nb_Rating","Type"
"ChIJNZTvnvlu5kcR3t3qW2KTCto","Boulevard Périphérique","48.9006996","2.3341858",NA,NA,"route"
"ChIJUwPyaPlu5kcR-5q5_S8ej4c","Restaurant Le Sultan","48.901173","2.3334893","3.1","106","night_club bar restaurant food point_of_interest establishment"
"ChIJG3jsCvlu5kcRigVmyPxFlo0","Porte de Montmartre","48.900409","2.3339405",NA,NA,"transit_station point_of_interest establishment"
"ChIJxfABQmRv5kcRwfBeEE0F4do","Aranzazu","48.9010175","2.3340603",NA,NA,"lodging point_of_interest establishment"
"ChIJ8YwhA0Vv5kcRS76_oCC-X9o","Onepark","48.9010215","2.3341044","2","1","parking point_of_interest establishment"
"ChIJP8R4oPlu5kcR_9QVksO1zYs","Parking Fac","48.9003711","2.3340461",NA,NA,"school point_of_interest establishment"
"ChIJZ1mbb_lu5kcR9aJ0KNcbON8","Paytweak","48.9011473","2.3333302",NA,NA,"point_of_interest establishment"
"ChIJD7fiBh9u5kcRYJSMaMOCCwQ","Paris","48.856614","2.3522219",NA,NA,"locality political"
