"Id","Name","Lat","Lng","Price_level","Rating","Nb_Rating","Type"
"ChIJr1mHaD9u5kcRMLGln4E1FlU","3-1 Rue de Châteaudun","48.875755","2.3421517",NA,NA,NA,"route"
"ChIJM2cqYj9u5kcR7bI2F8sZ490","New Hotel Lafayette","48.8763097","2.3421326",NA,"3.6","274","lodging point_of_interest establishment"
"ChIJR9eqZj9u5kcRaWFazz9EeJw","Hotel Bienvenue Paris","48.8761583","2.3421823",NA,"3.9","191","lodging bar restaurant food point_of_interest establishment"
"ChIJKZVgZj9u5kcRev2scDMbLII","ibis Paris Opéra La Fayette","48.876004","2.3419981",NA,"3.8","489","lodging point_of_interest establishment"
"ChIJScmiZj9u5kcRcBiaWugDo-E","Touring Hotel","48.876086","2.3421185",NA,"4.2","266","lodging point_of_interest establishment"
"ChIJRe3FrEBu5kcRI1Rsyi4dMFQ","Domino's Pizza","48.8758963","2.3418698","2","3.5","212","restaurant food point_of_interest establishment"
"ChIJn97XZz9u5kcRkj2Cs-dmRL8","Eeif Paris","48.8761282","2.3423802",NA,"4.4","7","point_of_interest establishment"
"ChIJqUXnZT9u5kcR0FIszzsia74","Paris Go","48.8758653","2.3423062",NA,NA,NA,"point_of_interest establishment"
"ChIJ68TyZj9u5kcRHqArh80BudI","Synagogue Buffault","48.8761282","2.3423802",NA,"4.7","38","synagogue place_of_worship point_of_interest establishment"
"ChIJmYP8ZD9u5kcRjk19QYqohK0","La Salle d'Armes – Escrime Ancienne","48.876017","2.342264",NA,"4.9","13","health point_of_interest establishment"
"ChIJr7VjYj9u5kcRvGPePciRNcA","Municipality of Paris","48.876309","2.3424636",NA,NA,NA,"primary_school school point_of_interest establishment"
"ChIJ__87Zz9u5kcRzmG1K70UaVQ","Rue Buffault 19","48.8760437","2.3419886",NA,"4.4","5","lodging point_of_interest establishment"
"ChIJmYP8ZD9u5kcRPwPUeUsXL8A","La Salle D'armes","48.875955","2.3424335",NA,NA,NA,"health point_of_interest establishment"
"ChIJmYP8ZD9u5kcRCbHERZr_nzk","Savate Boxe Francaise","48.875955","2.3424335",NA,"4.7","9","health point_of_interest establishment"
"ChIJhYP8ZD9u5kcRPkacck4rUKo","Gymnase Buffault","48.8759549","2.3424335",NA,"4.5","20","gym health point_of_interest establishment"
"ChIJoZK_ZT9u5kcRp5Q9itvyDoo","BÖWE studio","48.8758654","2.3423062",NA,NA,NA,"point_of_interest establishment"
"ChIJoZK_ZT9u5kcRqU41mSInuUs","OFFICEHOUR","48.8758654","2.3423062",NA,NA,NA,"point_of_interest establishment"
"ChIJR26EaD9u5kcRw3S7UgHwneM","Pharmadyne","48.8758654","2.3423062",NA,"5","1","health point_of_interest establishment"
"ChIJ2aeva0Ru5kcRU_5WcBNkyNo","Clevermate - Tutoring Ciblé Tuition À Domicile","48.8758653","2.3423062",NA,"4.8","38","point_of_interest establishment"
"ChIJD7fiBh9u5kcRYJSMaMOCCwQ","Paris","48.856614","2.3522219",NA,NA,NA,"locality political"
"ChIJ-2YnYD9u5kcR0TnoPagGZWk","Chez Ding 好一家","48.876415","2.3420255",NA,"4.4","14","restaurant food point_of_interest establishment"
"ChIJUSQEYj9u5kcR0qpuzU0ufuI","Chez Jouff'","48.8764654","2.3423567","1","4.6","76","bar point_of_interest establishment"
"ChIJ92r-XD9u5kcRMIiKB5SNE14","FORUM EUROPEEN DES ORCHESTRES","48.8759303","2.3417595",NA,NA,NA,"point_of_interest establishment"
"ChIJf1rTXD9u5kcRwd2GR-7yjpk","Association Française Des Orchestres","48.8759156","2.3417571",NA,NA,NA,"point_of_interest establishment"
"ChIJMZPvqTJ25kcRbf6F74xGLDI","Meillant et Bourdeleau","48.8757509","2.3420952",NA,"3","2","point_of_interest establishment"
"ChIJ6eGEYz9u5kcRA-KC1IalDI0","AACEVJ","48.8761282","2.3423802",NA,NA,NA,"point_of_interest establishment"
"ChIJk6ukZT9u5kcRrC_453ej7Po","Arbès Production","48.87588","2.3423495",NA,NA,NA,"point_of_interest establishment"
"ChIJrY44ZD9u5kcR5_eX1f6dpd0","Fencing Club De La Tour D'auvergne","48.8759765","2.3423021",NA,"5","8","health point_of_interest establishment"
"ChIJeygcXT9u5kcR7k3iI51LLOM","Bijouterie Saralinka achat Or Paris","48.8759362","2.341688",NA,"4.8","20","jewelry_store finance point_of_interest store establishment"
"ChIJiwoXXT9u5kcRB3A1hFa9slg","Bed & School","48.8758818","2.3417397",NA,NA,NA,"school point_of_interest establishment"
"ChIJrY44ZD9u5kcRi5CvLIBv8X0","Systema Salle D'armes","48.875955","2.3424335",NA,"5","2","health point_of_interest establishment"
"ChIJiaJqdz9u5kcRQFBIok2vrkk","LA TRIBUNE HUB MEDIA","48.8759575","2.3428804",NA,"1","1","point_of_interest establishment"
"ChIJg4ONnkBu5kcRA6g4z5Scr-o","Formation Delphi","48.876611","2.3421453",NA,NA,NA,"point_of_interest establishment"
"ChIJIxs_nkBu5kcRPIrbWjOBsME","AJ Musique Sarl","48.876415","2.3420255",NA,"4.9","13","electronics_store home_goods_store point_of_interest store establishment"
"ChIJB3EUYT9u5kcRthLcbrPdLw8","ホテル ビアンヴニュ","48.8761962","2.3421404",NA,NA,NA,"point_of_interest establishment"
"ChIJB3EUYT9u5kcRwdm1qhu0kPY","Le Bien Venu","48.8761962","2.3421404",NA,"4.3","55","restaurant food point_of_interest establishment"
"ChIJb4dmmiFv5kcRKxgEs5B_xIo","angļu -english","48.876086","2.3421185",NA,NA,NA,"point_of_interest establishment"
"ChIJkb_SBHNv5kcRw2uLLYvG8sY","Готель ню хотел Лафаєт","48.8762629","2.342184",NA,NA,NA,"lodging point_of_interest establishment"
"ChIJM2cqYj9u5kcRIXBRxwY0JxQ","Privilege Lafayette","48.876291","2.3421333",NA,NA,NA,"point_of_interest establishment"
"ChIJ0UXrXWxu5kcRJIsSZWIBq6M","Association Plateau 24","48.8759765","2.3423021",NA,"5","1","point_of_interest establishment"
"ChIJX1VwBPtv5kcR0-mmv0ItslY","Par Phé","48.8760437","2.3419886",NA,NA,NA,"restaurant food point_of_interest establishment"
"ChIJiWQUnkBu5kcR6AZPkLBtPek","Assurances Trattoria Italiana","48.87639","2.3422882",NA,NA,NA,"insurance_agency point_of_interest establishment"
"ChIJCT4JnUBu5kcRGmqN26PIpiM","Société Cabinet Terziyan","48.87639","2.3422882",NA,"4","5","insurance_agency point_of_interest establishment"
"ChIJqUXnZT9u5kcR32grRkYmkC0","Hotels Resa Partners","48.8758653","2.3423062",NA,"3","1","point_of_interest establishment"
"ChIJqUXnZT9u5kcRo1_o2X9z0ag","Panaction","48.8758653","2.3423062",NA,NA,NA,"point_of_interest establishment"
"ChIJqUXnZT9u5kcRckG46J6cfo4","Douce France Consultants","48.8758776","2.3424084",NA,NA,NA,"point_of_interest establishment"
"ChIJaUKzr4Jv5kcRdR1M-Cb3GIs","遇见长安 MissSUN","48.876415","2.3420255",NA,"4","40","restaurant food point_of_interest establishment"
"ChIJ-fpMjYlv5kcR3q2IsXehC_s","S. Nail Studio","48.876415","2.3420255",NA,"5","5","beauty_salon point_of_interest establishment"
"ChIJV_3kZT9u5kcR4JEuE0euPEo","Seva Technologies","48.8758471","2.342231",NA,NA,NA,"point_of_interest establishment"
"ChIJ-8Y9cXpv5kcRYZ7Wh0bqwbI","Ilios","48.8758296","2.3422455",NA,NA,NA,"restaurant food point_of_interest establishment"
"ChIJH8R5Xz9u5kcR-4_CvuoVLmQ","Restaurant Do Eat","48.8764088","2.341863",NA,"4.3","60","restaurant food point_of_interest establishment"
"ChIJH8R5Xz9u5kcR9xLpNt0ePWo","Bis Boutique Solidaire","48.8763873","2.3417166",NA,"4.4","93","point_of_interest clothing_store store establishment"
"ChIJH8R5Xz9u5kcRwLe7d53jzTo","Feddag Azeddine","48.8763873","2.3417166",NA,NA,NA,"point_of_interest establishment"
"ChIJuxceWz9u5kcRWJXaOVCxX2c","TK Discount","48.8758904","2.3417541",NA,"4","26","electronics_store home_goods_store point_of_interest store establishment"
"ChIJ92r-XD9u5kcRqOwwbgVUElg","Travels by Caroline","48.8759362","2.341688",NA,NA,NA,"travel_agency point_of_interest establishment"
"ChIJeygcXT9u5kcR0LKNCdn3200","Bonin Alain-Eric","48.8759362","2.341688",NA,NA,NA,"lawyer finance point_of_interest establishment"
"ChIJiaJqdz9u5kcRRvBkqfqlBjY","EXCELTY'S","48.8758971","2.3428102",NA,"4.3","6","point_of_interest establishment"
"ChIJq9N_nkBu5kcRwOrDaZkDdUY","Mount Everest","48.8765905","2.3421099","2","4.4","231","restaurant food point_of_interest establishment"
"ChIJBVePnkBu5kcRja2zQykvhM4","Dussarps Frederique","48.8766081","2.3422012",NA,NA,NA,"point_of_interest establishment"
