"Id","Name","Lat","Lng","Price_level","Rating","Nb_Rating","Type"
"ChIJZUMOuHhu5kcRjPgTUTPEpJA","102-104 Rue d'Aubervilliers","48.8903079","2.368415",NA,NA,NA,"route"
"ChIJQy0Ht3hu5kcROha_KjL9pV0","Aitor Ortiz","48.8904645","2.3686253",NA,"5","1","point_of_interest establishment"
"ChIJ87Nzt3hu5kcRt7QVgDfxAV0","COD – Compagnie Olivier Dubois","48.8904217","2.3686002",NA,NA,NA,"point_of_interest establishment"
"ChIJ96-5t3hu5kcR162oIknMPh0","Café Caché","48.8903027","2.3686266","2","4","162","cafe food point_of_interest establishment"
"ChIJV2UOSNJv5kcRJRaez8EnYbA","Digital Rise","48.8904217","2.3686002",NA,NA,NA,"point_of_interest establishment"
"ChIJuQU1T3pv5kcRoFSWmhPxCac","Yespark - Flandre/Aubervilliers Paris 19 - Paris","48.890105","2.368578",NA,NA,NA,"parking point_of_interest establishment"
"ChIJ64a9HNZt5kcRz-673nMtV_A","Fotoautomat au Centquatre","48.8904076","2.3686655",NA,NA,NA,"point_of_interest establishment"
"ChIJQYeBwHhu5kcRvjftoGAmPrc","Salon de coiffure Mouna Fashion NT VIP","48.8899075","2.3683463",NA,"3.3","3","store point_of_interest establishment"
"ChIJg26qwXhu5kcRebiN_D6PwtY","Riquet","48.8898751","2.3681798",NA,NA,NA,"bus_station transit_station point_of_interest establishment"
"ChIJD7fiBh9u5kcRYJSMaMOCCwQ","Paris","48.856614","2.3522219",NA,NA,NA,"locality political"
