"Id","Name","Lat","Lng","Price_level","Rating","Nb_Rating","Type"
"ChIJNxGtfQxy5kcR7l9KhSr0s7s","261-235 Rue du Faubourg Saint-Antoine","48.8498949","2.3860203",NA,NA,NA,"route"
"ChIJK4prfQty5kcRJdgIsqCGfgo","Ava & Mr Joe","48.8503191","2.3867906",NA,"4.3","47","point_of_interest store establishment"
"ChIJg4MUgAty5kcR9Nn4NDCWJgU","A.n.r.h","48.8503021","2.3859997",NA,NA,NA,"point_of_interest establishment"
"ChIJMwG-hwxy5kcRgJoy0s1hikM","Mutual Retirement Savings","48.8499936","2.3862424",NA,NA,NA,"insurance_agency health point_of_interest establishment"
"ChIJ0wu4gAty5kcRbIEENChllio","Chollet Stéphane","48.8503058","2.3858242",NA,NA,NA,"furniture_store home_goods_store point_of_interest store establishment"
"ChIJd4UvgQty5kcRLjHeEX5gSvE","JEAN CHARPENTIER SOPAGI SA","48.8505338","2.3858413",NA,"2.7","3","real_estate_agency point_of_interest establishment"
"ChIJf4jtfwxy5kcRP-ddFnEKP48","ETIENNE CHLOE COACHING & HYPNOSE","48.8503004","2.3860572",NA,NA,NA,"health point_of_interest establishment"
"ChIJhfPkgAty5kcRtghQj9zpZVY","Urban Act Architect Ecologie Urbaine","48.8505925","2.3862218",NA,NA,NA,"point_of_interest establishment"
"ChIJMduKewxy5kcRAaG2-lQvuYQ","Les Barjots","48.8500671","2.3857219","2","4.3","384","restaurant food point_of_interest establishment"
"ChIJt3s6hAxy5kcRRVbPUqSWCyo","TARATATOU","48.8499991","2.3863916",NA,"4.6","20","point_of_interest store establishment"
"ChIJOaQahgxy5kcRueKb2TjguPg","Goclic","48.849742","2.3863883",NA,"5","1","point_of_interest establishment"
"ChIJSyL-gAty5kcRDUl9wuoxSdY","Vittorio Serio","48.8505174","2.3860089",NA,NA,NA,"furniture_store home_goods_store point_of_interest store establishment"
"ChIJSyL-gAty5kcRrKqCPk0rlnA","Patrick's Green Balloon","48.850534","2.3864371","2","4.3","680","bar restaurant food point_of_interest establishment"
"ChIJ__9Dfwty5kcRJl6uQUr9DWs","Nicolas Pinon laqueur","48.8505925","2.3862218",NA,"5","1","furniture_store home_goods_store general_contractor point_of_interest store establishment"
"ChIJ0wu4gAty5kcRL6bTjEO015w","L'Art et La Manière","48.8503058","2.3858242",NA,NA,NA,"storage point_of_interest establishment"
"ChIJJd2FfQxy5kcR_ZjGryipnKc","ETNIA BARCELONA by VISIOPTICAL","48.8500204","2.3860227",NA,"5","12","health point_of_interest store establishment"
"ChIJAQCcgAxy5kcRHIWLzPb7DZM","Aca Patrimoine Et Finances","48.8501223","2.3861383",NA,NA,NA,"point_of_interest establishment"
"ChIJAQCcgAxy5kcRitNOCfEFPME","Droguerie St Antoine","48.8501223","2.3861383",NA,"4.3","31","hardware_store drugstore health point_of_interest store establishment"
"ChIJGYbtfwxy5kcRHnGE8HxapEk","Baboune Faidherbe","48.8503","2.386057",NA,NA,NA,"point_of_interest establishment"
"ChIJD7fiBh9u5kcRYJSMaMOCCwQ","Paris","48.856614","2.3522219",NA,NA,NA,"locality political"
"ChIJ01_zfgxy5kcRHfxsFc1y-LQ","Parigi Cag","48.8500474","2.3859563",NA,NA,NA,"grocery_or_supermarket food point_of_interest store establishment"
"ChIJ67UqfAxy5kcR6Dqrk4O-ZNk","Buona idea","48.8500474","2.3859563","2","4.4","135","grocery_or_supermarket restaurant food point_of_interest store establishment"
"ChIJN6rSDf9z5kcR21KnsudA6P8","UPS Access Point","48.85","2.38606",NA,NA,NA,"point_of_interest establishment"
"ChIJdzYuhwxy5kcRO5HNnJQ3-iM","Klésia Prévoyance (Carcept)","48.8499936","2.3862424",NA,NA,NA,"point_of_interest establishment"
"ChIJ__-zhgxy5kcRtOVIk-0aS4w","La Palette Peinture Saint-Antoine","48.8499991","2.3863916",NA,"4.3","15","home_goods_store point_of_interest store establishment"
"ChIJOdfMhgty5kcRUTelFvb7yfU","Docteur Bénédicte De Charnacé","48.8505501","2.3857642",NA,"4.5","8","doctor health point_of_interest establishment"
"ChIJAQBcfQty5kcRfWSRqyyeBIg","Modus Meli","48.8503452","2.3867722",NA,NA,NA,"moving_company point_of_interest establishment"
"ChIJ4yxXeAxy5kcRmcY242NYTJE","Nathalie Surzur Heim","48.8502242","2.3855762",NA,NA,NA,"point_of_interest establishment"
"ChIJuWetqJlz5kcRGs0zuToZuf4","Cuisinella Paris 11 Nation","48.8501471","2.3855644",NA,"4.8","36","furniture_store home_goods_store general_contractor point_of_interest store establishment"
"ChIJ2QfIhwxy5kcRiapgyfuzwwI","Mazazic","48.8497585","2.386026",NA,"3.4","98","restaurant food point_of_interest establishment"
"ChIJ03hehAxy5kcR5nMUTeEZ2yM","Laverie Libre Service","48.8499271","2.3866058",NA,"1","3","laundry point_of_interest establishment"
"ChIJ2QfIhwxy5kcRjXaPGUyvf-s","Institute Superieur Du Marketing","48.8497156","2.3863156",NA,"2.5","2","point_of_interest establishment"
"ChIJSyL-gAty5kcRNXvjFTzLzK8","Galati Stephane","48.850534","2.3864371",NA,NA,NA,"point_of_interest establishment"
"ChIJ1ZDtfgty5kcRtBH_yDbxGSo","Restaurant Irlandais","48.8505335","2.3864002",NA,NA,NA,"point_of_interest establishment"
"ChIJO-mrAAFz5kcRyeUCwC7mNb8","BDE de l'École W","48.8497466","2.3860972",NA,NA,NA,"point_of_interest establishment"
"ChIJhfPkgAty5kcR-d9s82Hwcyc","Les Triolets","48.8505925","2.3862218",NA,NA,NA,"restaurant food point_of_interest establishment"
"ChIJSyL-gAty5kcRs5xU18Q6Wu0","Laine Beatrice","48.8505925","2.3862218",NA,NA,NA,"point_of_interest establishment"
"ChIJSyL-gAty5kcRtVZ6cnCancA","Sacchet Ets","48.8505925","2.3862218",NA,NA,NA,"point_of_interest establishment"
"ChIJSyL-gAty5kcRURNsou6zD1M","Lee Jacques","48.8505925","2.3862218",NA,NA,NA,"furniture_store home_goods_store point_of_interest store establishment"
"ChIJK4prfQty5kcRj7NK4yChawg","K.E.E Concept Elect Ingéniérie","48.8503452","2.3867722",NA,NA,NA,"point_of_interest establishment"
"ChIJUWwFewxy5kcRNIXQl0dTerc","Faidherbe - Chaligny","48.8498647","2.3856091",NA,"4","2","bus_station transit_station point_of_interest establishment"
"ChIJvYkAQbhz5kcRAIiQdT-Q8GE","La School Media Maker","48.8497156","2.3863156",NA,NA,NA,"university point_of_interest establishment"
"ChIJreImhgxy5kcR7FeWAyK570U","Eglise Chrétienne Internationale de Paris","48.8497156","2.3863156",NA,NA,NA,"church place_of_worship point_of_interest establishment"
"ChIJreImhgxy5kcRVXo9QK3nK9Y","Le Stone","48.8497156","2.3863156",NA,NA,NA,"point_of_interest establishment"
"ChIJ9-sXzC9z5kcR0hOD-tNeRiI","Abilways Saint-Antoine","48.8497156","2.3863156",NA,NA,NA,"point_of_interest establishment"
"ChIJ_2VFUC9z5kcR6NoQn7y_mUg","Tiziana Muratori","48.8505466","2.3857553",NA,NA,NA,"health point_of_interest establishment"
