"Id","Name","Lat","Lng","Rating","Nb_Rating","Type"
"ChIJDV5vc9pt5kcRrVLbYrxeRKQ","3 Rue Pierre Reverdy","48.8854305","2.3765345",NA,NA,"route"
"ChIJj7CGaMO3zhIR0BZXQt3-UA0","Viale Olivier Claude","48.8856988","2.377108",NA,NA,"food point_of_interest establishment"
"ChIJ6yG4ndBt5kcRtA_59HeR528","AEEM DENNKO","48.8858953","2.376904",NA,NA,"point_of_interest establishment"
"ChIJiZUPetpt5kcRb9Ma7WeGCjs","Square Marcel-Mouloudji","48.8854139","2.3771593","3.9","16","park point_of_interest establishment"
"ChIJ30uWntBt5kcRGa4J_rVbnvc","Jean de la Roche","48.8860114","2.3767636",NA,NA,"point_of_interest establishment"
"ChIJzZ0Jetpt5kcRjtdnHGLlaPg","Square Marcel Mouloudji","48.885429","2.3771593",NA,NA,"park premise point_of_interest establishment"
"ChIJD7fiBh9u5kcRYJSMaMOCCwQ","Paris","48.856614","2.3522219",NA,NA,"locality political"
