"Id","Name","Lat","Lng","Price_level","Rating","Nb_Rating","Type"
"ChIJy4v-8ENu5kcRxrEPd--x0GA","53-47 Boulevard de Rochechouart","48.8822302","2.3414931",NA,NA,NA,"route"
"ChIJQZ9W8kNu5kcR88aGtnGUfr4","ibis Paris Sacré-Coeur 18ème","48.8826246","2.3415333",NA,"3.2","501","lodging point_of_interest establishment"
"ChIJI9Mr5UNu5kcRGGIcfbpxtQI","Galerie du 9ème Art","48.8819985","2.3415795",NA,"4.6","21","art_gallery point_of_interest establishment"
"ChIJVYpy8UNu5kcRON9qNmsE0wg","Sanisette","48.8823392","2.3414804",NA,"3.5","2","point_of_interest establishment"
"ChIJGQJI7kNu5kcR7VESEIlCJr0","Exchange Best Services","48.8821473","2.341649",NA,"4","26","finance point_of_interest establishment"
"ChIJK4958ENu5kcRGUF1ZWxa73g","Airsource Partners","48.882111","2.341537",NA,NA,NA,"point_of_interest establishment"
"ChIJ-9_B-kNu5kcRDR8WmqzgFtc","Editions Toth","48.8819985","2.3415795",NA,NA,NA,"point_of_interest establishment"
"ChIJ281m7UNu5kcROcSo212Jl9o","Music Bricoleur","48.8826267","2.3417423",NA,NA,NA,"electronics_store home_goods_store point_of_interest store establishment"
"ChIJeZQF-0Nu5kcR373LhArbjSo","Solis Art Conseil","48.8819002","2.3415116",NA,"5","2","art_gallery point_of_interest establishment"
"ChIJ__8P-kNu5kcR8l_ucigQWdI","Egg's Echo","48.8820569","2.3413645",NA,NA,NA,"point_of_interest establishment"
"ChIJfXul5UNu5kcRr8A4TkchCS0","Team Intelligence","48.8819891","2.3418665",NA,"5","1","point_of_interest establishment"
"ChIJ2cA3-0Nu5kcR8XcL9aBBw98","Tezenas Ambroise","48.8818593","2.3416185",NA,NA,NA,"point_of_interest establishment"
"ChIJiTJZCkRu5kcRwc6QfcUBLVg","Les Flingueurs","48.8825325","2.3409389","2","3.9","237","bar night_club point_of_interest establishment"
"ChIJtbRZ8ENu5kcRhf-m8YmDl_s","Ben's Style","48.8821111","2.3415371",NA,"4.3","68","hair_care health point_of_interest establishment"
"ChIJE9ZG8ENu5kcRgyHz0ur5QiY","Mini Supermarket","48.8821798","2.3416181",NA,NA,NA,"grocery_or_supermarket food point_of_interest store establishment"
"ChIJo1mATd5v5kcRyQO3agXtkbg","Moneyglobe Transfert d'Argent - Paris","48.8821342","2.3416539",NA,NA,NA,"finance point_of_interest establishment"
"ChIJ18rJw5lv5kcRJtkkLLRjbgE","Western Union","48.882134","2.341654",NA,NA,NA,"finance point_of_interest establishment"
"ChIJhUzbigVv5kcRupppZbY0hPo","Frédérique Laurent","48.8821111","2.3415371",NA,NA,NA,"health point_of_interest establishment"
"ChIJsyMS8UNu5kcR2MV7gJO0UYI","Public Toilet","48.8821118","2.3415667",NA,NA,NA,"point_of_interest establishment"
"ChIJD7fiBh9u5kcRYJSMaMOCCwQ","Paris","48.856614","2.3522219",NA,NA,NA,"locality political"
"ChIJ-a2-8ENu5kcRWnjPpJ-j9ak","PHONO Museum Paris","48.8821157","2.3413258",NA,"4.7","66","tourist_attraction museum point_of_interest establishment"
"ChIJ__8P-kNu5kcRfne5pNt2OaQ","Musée Du Phonographe","48.8820569","2.3413645",NA,NA,NA,"point_of_interest establishment"
"ChIJ2dU79ENu5kcRmqdsdFiS4Vg","Fadel Fouad","48.8825107","2.341233",NA,NA,NA,"doctor health point_of_interest establishment"
"ChIJEZnsUyJv5kcRuDkAT0yblTI","Point Nickel","48.8825789","2.3413752",NA,"1","1","atm bank finance point_of_interest establishment"
"ChIJ94Op7CBv5kcRbiPUe5Oj_Ew","Bollywood boulevard","48.8825876","2.3413863",NA,NA,NA,"book_store point_of_interest store establishment"
"ChIJHzCP80Nu5kcRWkQSmtVXC8k","Delice Time","48.8825876","2.3413863",NA,NA,NA,"point_of_interest establishment"
"ChIJ-9_B-kNu5kcRvOh8OrQGFWg","Galerie 9e Art","48.8819985","2.3415795",NA,NA,NA,"point_of_interest establishment"
"ChIJuwyE9ENu5kcRyTg1TU9_pPs","Bar-Tabac La Cigale","48.8825933","2.3413412",NA,"3.3","10","bar point_of_interest establishment"
"ChIJQdY79ENu5kcRZpc_9n62F6o","Chase Peter","48.88254","2.3412101",NA,NA,NA,"point_of_interest establishment"
"ChIJe8c370Nu5kcRkPiOmXxPiB8","Bardaux Clement Gabriel","48.8821505","2.3419809",NA,NA,NA,"point_of_interest establishment"
"ChIJ281m7UNu5kcRRh8ncjHr-RQ","Fmrenobat","48.8826267","2.3417423",NA,"1","3","point_of_interest establishment"
"ChIJr6xl8kNu5kcR55lPWSn46-s","Lefevre Vanessa Marie Sabine","48.8826267","2.3417423",NA,NA,NA,"point_of_interest establishment"
"ChIJAQBM-kNu5kcRY-vObXg8WtA","KOENIG & CO","48.8819573","2.3414222",NA,NA,NA,"point_of_interest establishment"
"ChIJV2EG-0Nu5kcRdwgE-C3OdsI","Michel Fabrice","48.8819573","2.3414222",NA,NA,NA,"point_of_interest establishment"
"ChIJPdR99kNu5kcR1FBAEAFuOnw","Kintaro","48.882521","2.34104",NA,"4.6","242","restaurant food point_of_interest establishment"
"ChIJfXul5UNu5kcRSbx4z1QByJY","Time2B Consulting","48.8819891","2.3418665",NA,NA,NA,"point_of_interest establishment"
"ChIJfXul5UNu5kcRHPYDdKZTm2s","Departamento Paris","48.8819891","2.3418665",NA,NA,NA,"lodging point_of_interest establishment"
"ChIJWScB-0Nu5kcR066uYVT0VTs","Dreamyflat - Moulin rouge","48.88192","2.341496",NA,NA,NA,"lodging point_of_interest establishment"
"ChIJWScB-0Nu5kcRjdj-pToT_PA","Dreamyflat - Moulin rouge","48.88192","2.341496",NA,NA,NA,"lodging point_of_interest establishment"
"ChIJfXul5UNu5kcRHGStPvsjBpU","Groupe H2h","48.8819691","2.3418757",NA,"5","2","point_of_interest establishment"
"ChIJ__9T7UNu5kcRr6zd4whqq6Q","Nouvelle Saison","48.8826984","2.341747",NA,NA,NA,"point_of_interest establishment"
"ChIJ2WM97UNu5kcRVPAAnYAg7QI","Little Orient","48.8826984","2.341747",NA,"4.7","38","restaurant food point_of_interest establishment"
"ChIJI7N79UNu5kcRa-pMf66cqHo","Paris Metro","48.8826012","2.3410465",NA,"4","1","point_of_interest establishment"
"ChIJV9F99kNu5kcRt0WAOan6380","Veney Marie-Claude","48.8826012","2.3410465",NA,NA,NA,"point_of_interest establishment"
"ChIJPdR99kNu5kcRXzRVIXSSaNg","Perez Paul","48.8826012","2.3410465",NA,NA,NA,"point_of_interest establishment"
"ChIJ8agY-ENu5kcRih_lXH7vJ2U","Stella Artois","48.8820407","2.3409764",NA,NA,NA,"point_of_interest establishment"
"ChIJMwtU60Nu5kcRyo_wAwBjRYg","Jin Yi Fa","48.8826779","2.3419519",NA,"3.8","4","bar restaurant food point_of_interest establishment"
