"Id","Name","Lat","Lng","Price_level","Rating","Nb_Rating","Type"
"ChIJ9evtHfht5kcRQptr61lKVhM","48-52 Rue Basfroi","48.856418","2.3781596",NA,NA,NA,"route"
"ChIJV2gJ-fdt5kcRlULUeTPZijo","Tropicalement Vôtre","48.855991","2.378381",NA,"5","6","travel_agency point_of_interest establishment"
"ChIJ9Xy7uwhy5kcRNCecJK7upBU","Retrogame Shop","48.8559384","2.3784427",NA,"4.4","176","point_of_interest store establishment"
"ChIJA4QdIvht5kcRdCNfJxHBkiM","La Fée Verte","48.856745","2.3780055","2","4","705","restaurant cafe bar food point_of_interest establishment"
"ChIJxZ-aHQhy5kcRUydbQfUm_Oo","Fils & Laines","48.8562062","2.3781469",NA,"4.8","87","point_of_interest store establishment"
"ChIJ8RxI9vdt5kcRihWn-gwfIQ0","Le Medusa","48.856381","2.378356","2","4.6","125","bar point_of_interest establishment"
"ChIJS6t1vWdy5kcRbEyGzmzoRfI","Smedley SYMPHOR","48.85613","2.378228",NA,NA,NA,"physiotherapist health point_of_interest establishment"
"ChIJC5mK9_dt5kcRZ4F6RCvsnjY","Cabinet de Santé Fécamp","48.8560344","2.3781261",NA,NA,NA,"point_of_interest establishment"
"ChIJ0VK78Pdt5kcRUbptcRLH1KQ","Régionale Cardiologie Ile de France","48.8561379","2.3786025",NA,NA,NA,"point_of_interest establishment"
"ChIJbX2jHvht5kcRCRErrZpM5ko","Allo Assistance Motos","48.8565441","2.3778149",NA,"2","4","car_repair point_of_interest store establishment"
"ChIJleNRyghv5kcRj3DI3WFH3Qo","little.s.boxes","48.855938","2.378443",NA,NA,NA,"general_contractor point_of_interest establishment"
"ChIJ0VK78Pdt5kcRSjOZI_sP88M","Bioclinic - Laboratoire de Biologie Médicale Ledru-Rollin","48.856178","2.3788001",NA,"2.3","41","health point_of_interest establishment"
"ChIJbUsF-Pdt5kcRdKmnt9Ka3HE","Infirmière à domicile à Paris 11","48.8560825","2.3782258",NA,NA,NA,"health point_of_interest establishment"
"ChIJWecr-Pdt5kcRHGQGUs8FNOw","Cabinet de Kinésithérapie","48.8562062","2.3781469",NA,"4.6","7","physiotherapist health point_of_interest establishment"
"ChIJHTJB-vdt5kcRzMhaMKVce6k","Ageria","48.8560598","2.3786319",NA,NA,NA,"health point_of_interest establishment"
"ChIJndFXGPht5kcR3vO_hv-pmWA","Opticien Alain Afflelou","48.8566488","2.3777857",NA,"4.1","15","health point_of_interest store establishment"
"ChIJf0dz8Pdt5kcR-xeddiwff54","Lucile Leber","48.856178","2.3788001",NA,NA,NA,"point_of_interest establishment"
"ChIJf0dz8Pdt5kcR21T1efivXFY","Thomas Nowak","48.856178","2.3788001",NA,NA,NA,"point_of_interest establishment"
"ChIJndFXGPht5kcRH4xqvblovWk","Optic Roquette","48.8566594","2.3777622",NA,NA,NA,"health point_of_interest store establishment"
"ChIJD7fiBh9u5kcRYJSMaMOCCwQ","Paris","48.856614","2.3522219",NA,NA,NA,"locality political"
"ChIJia4F8Pdt5kcRqtQ1F_c-nOM","Assyag Patrick","48.8561379","2.3786025",NA,"4","12","doctor health point_of_interest establishment"
"ChIJyyyj8fdt5kcRZ4hTi376Nto","Mutuelle Mieux-Etre","48.8563796","2.378918",NA,"1.5","34","point_of_interest establishment"
"ChIJba_1Hvht5kcRAvqTOuJYQgc","Americano","48.8566125","2.3780854",NA,"4.5","6","meal_takeaway restaurant food point_of_interest establishment"
"ChIJO03M9_dt5kcRLA7C8sahy7g","Bensalem Youcef","48.8563589","2.378296",NA,NA,NA,"bar point_of_interest establishment"
"ChIJz0YE-fdt5kcRjhLldajO2PA","Ile Maurice Conseil Voyage","48.8560283","2.3783931",NA,NA,NA,"travel_agency point_of_interest establishment"
"ChIJbX2jHvht5kcRUM-tnklACzI","Laurida Diffusion","48.8566292","2.3780825",NA,NA,NA,"point_of_interest establishment"
"ChIJR_2knGFt5kcRfTSlIDHjoRI","WHEELOVE BIKE","48.8563194","2.3783272",NA,"4.8","5","bicycle_store point_of_interest store establishment"
"ChIJXR_M9_dt5kcRBdXLDgudxvo","Bastille Restauration","48.8563589","2.378296",NA,NA,NA,"point_of_interest establishment"
"ChIJ8RxI9vdt5kcRwWzI85QtCMM","L'institut","48.8563798","2.3783152",NA,"3.6","43","bar restaurant food point_of_interest establishment"
"ChIJ03UF03Nt5kcRko8xp8MzE8M","Tristan Hiller","48.856207","2.378146",NA,NA,NA,"point_of_interest establishment"
"ChIJfdqLX05t5kcRDAm6BEQRBOc","Yespark - Basfroi/Bastille - Paris","48.856182","2.378234",NA,NA,NA,"parking point_of_interest establishment"
"ChIJg1ayHfht5kcRvSeC0t-17d0","Allscreens Distribution","48.8563743","2.3780409",NA,"1","1","point_of_interest establishment"
"ChIJn_23aFlt5kcR9QIjgFdYgkc","Repas Santé Végétalien Parisien Pernera","48.8563743","2.3780409",NA,NA,NA,"restaurant food point_of_interest establishment"
"ChIJC5mK9_dt5kcRvHCBVdUk64Q","Arnaud LAGARRIGUE","48.856155","2.3781736",NA,"5","1","health point_of_interest establishment"
"ChIJi2D-Hfht5kcR5afLIAvaF9o","Jardin De Lilya","48.8564713","2.3781963",NA,NA,NA,"point_of_interest establishment"
"ChIJCQUm049t5kcRm2c14OWQl50","parkiong","48.8563042","2.378484",NA,NA,NA,"lodging point_of_interest establishment"
"ChIJCTMh9_dt5kcRp6dIi5ZAbVM","Haziza Mike","48.8563042","2.378484",NA,"5","1","point_of_interest establishment"
"ChIJnQV39_dt5kcRHApXMmRerrc","Bucher Claire","48.8563042","2.378484",NA,NA,NA,"point_of_interest establishment"
"ChIJXR_M9_dt5kcRPBRivCL1rEY","Vincent Bucau","48.8561299","2.3782279",NA,NA,NA,"physiotherapist health point_of_interest establishment"
"ChIJvTLr9fdt5kcRuEk-wHAr6bM","L'Attache","48.8565133","2.3781639",NA,"4.5","79","restaurant food point_of_interest establishment"
"ChIJzbTPE81t5kcRJHexEIniDsU","Hélène Frère","48.8560825","2.3782258",NA,"5","1","doctor health point_of_interest establishment"
"ChIJeQWRoVB35kcR-iUXlouD4B0","Hiller Tristan Ostéopathe","48.8560825","2.3782258",NA,"5","9","health point_of_interest establishment"
"ChIJJekCohRt5kcRmtSVL-RbnOA","MEHAREE","48.8560825","2.3782258",NA,"4","1","store point_of_interest establishment"
"ChIJC5mK9_dt5kcRGcUB0AYWk_Q","BlogBoxe (Journal en temps réel)","48.8560825","2.3782258",NA,NA,NA,"point_of_interest establishment"
"ChIJ2arbbsFt5kcRDn44-GUHGHc","Répad IdF - Réseau des Psychologues à Domicile (formation & supervision)","48.8560825","2.3782258",NA,"4.3","3","health point_of_interest establishment"
"ChIJLeQr-Pdt5kcR3y4x78j5c3I","Ben Soussan Jacques","48.8560825","2.3782258",NA,NA,NA,"dentist health point_of_interest establishment"
"ChIJZQl4orBt5kcRQ5-EOErJ_9c","AVOCATERIA Bastille - Pancakes and Drinks","48.8565569","2.3782941",NA,"5","4","restaurant food point_of_interest establishment"
"ChIJu4ZCczpt5kcRyX9VYa0jjtA","AVOCATERIA BASTILLE","48.8565569","2.3782941",NA,NA,NA,"restaurant food point_of_interest establishment"
"ChIJYTlnkv1t5kcRCRMYO7I03wE","Petit Nuage Paris","48.8564745","2.3779003",NA,"5","29","restaurant food point_of_interest establishment"
"ChIJC5mK9_dt5kcRqtL81UI9nf4","Amélie BIDEAU","48.8560344","2.3781261",NA,NA,NA,"health point_of_interest establishment"
"ChIJC5mK9_dt5kcR08GDZDbgKPI","Symphor Gonçalves","48.8560344","2.3781261",NA,NA,NA,"health point_of_interest establishment"
"ChIJJa-9IPxx5kcRlkkMdEi6nO4","Les Associations Libres - Consultations Psychothérapeutiques","48.8560344","2.3781261",NA,"3","1","health point_of_interest establishment"
"ChIJ__8zHvht5kcRLQpMHeRrimQ","Ma Lucia","48.856585","2.3781021",NA,"4.8","208","meal_takeaway restaurant food point_of_interest establishment"
"ChIJ89GvriNt5kcR9FB1Elom5w0","koch!","48.856619","2.3781595",NA,"4.7","29","meal_delivery restaurant food point_of_interest establishment"
"ChIJTV_qHvht5kcR9kIw3-Aw4PY","Le Petit Grenier","48.8565757","2.3779341",NA,NA,NA,"point_of_interest establishment"
"ChIJHTJB-vdt5kcRmjj_qEMSqZI","La Vie Claire","48.8560633","2.3785863",NA,"4","52","grocery_or_supermarket food point_of_interest store establishment"
"ChIJdcyqH_ht5kcRiWgDa57RNqk","Le Carladez","48.8566416","2.3780584",NA,NA,NA,"point_of_interest establishment"
"ChIJEc9FGfht5kcRW0_6ddXQnko","La Fabrique À Gaufres","48.8565441","2.3778149",NA,NA,NA,"point_of_interest establishment"
"ChIJu0lBOXpt5kcRRoO2XM4QLBI","Simplicia","48.85606","2.378632",NA,NA,NA,"point_of_interest establishment"
"ChIJf0dz8Pdt5kcRPYcV5Niohwc","Association de Cardiologie - Ile de France","48.856178","2.3788001",NA,NA,NA,"point_of_interest establishment"
