"Id","Name","Lat","Lng","Price_level","Rating","Nb_Rating","Type"
"ChIJ-9AYr-Zt5kcRTFE1hDw1Gdk","94-98 Rue du Faubourg du Temple","48.8711541","2.3743702",NA,NA,NA,"route"
"ChIJa367oOZt5kcRe573dM7b5i0","LMA","48.8707802","2.374929",NA,NA,NA,"point_of_interest establishment"
"ChIJneNbeg1u5kcRrxW5dfWjCh0","Super Temple","48.8711336","2.3746939",NA,"2","1","food point_of_interest store establishment"
"ChIJUS5FruZt5kcROOpmOpHOZf8","Aremedia","48.8711837","2.3743016",NA,NA,NA,"health point_of_interest establishment"
"ChIJ0Qlwr-Zt5kcRWqvojJlgPYw","Centre d'orthodontie de Paris","48.8711137","2.3745805",NA,"2.7","62","dentist health point_of_interest establishment"
"ChIJES-LaRVu5kcRdQF4BoMKLR0","Association Les'Arts","48.8711837","2.3743016",NA,NA,NA,"point_of_interest establishment"
"ChIJMbpjruZt5kcRyAxbIAAnO38","New Telecom Chaofeng","48.8711768","2.3741927",NA,"1","2","point_of_interest store establishment"
"ChIJM89oN9Ft5kcRtEILkI2kT-M","Franprix","48.8712329","2.3743034",NA,"3.2","10","supermarket grocery_or_supermarket restaurant food point_of_interest store establishment"
"ChIJkcGksuZt5kcR1nO8rQ_AZZY","Vidéo Kills","48.8711362","2.3741252",NA,"5","1","point_of_interest establishment"
"ChIJkRxvoeZt5kcR8ivCs1ljR0Y","Nadalutti Federica","48.8709013","2.3751587",NA,NA,NA,"point_of_interest establishment"
"ChIJlTyQsOZt5kcRo5IlKz3k3rA","Centre Action Sociale Ville Paris","48.8713349","2.374701",NA,NA,NA,"health point_of_interest establishment"
"ChIJycHXouZt5kcR44aryCDp5hE","Fifi","48.8713114","2.3750703",NA,"4.1","19","point_of_interest clothing_store store establishment"
"ChIJg7pMpeZt5kcRY8xS4d8fj6g","OSE – Œuvre de Secours aux Enfants","48.8713078","2.374626",NA,"3.6","18","point_of_interest establishment"
"ChIJJUtPu-Zt5kcRmdmWrIB-QwQ","Eric CHANTELAUZE • Comédien • Voix off • Auteur • Parolier • Chanteur • Metteur en scène • Réalisateur","48.871376","2.374825",NA,NA,NA,"electronics_store home_goods_store point_of_interest store establishment"
"ChIJ74Nzq-Zt5kcRkuiE-xIBPow","Les Dunes","48.8709038","2.374066","1","4.3","174","restaurant food point_of_interest establishment"
"ChIJYQPCruZt5kcRKS-Iw7-xdRY","The William Company","48.8710144","2.374388",NA,NA,NA,"point_of_interest establishment"
"ChIJCddgr-Zt5kcRsVZmZQiVYic","Centre Prophylaxie Dentaire Infantile","48.8711102","2.3745062",NA,NA,NA,"dentist health point_of_interest establishment"
"ChIJCddgr-Zt5kcRfdDcu0c7DTY","Nacim Guemar","48.8711207","2.374498",NA,NA,NA,"point_of_interest establishment"
"ChIJi7kNpOZt5kcRXClK-2v-fZE","Cafe Beleville","48.8710911","2.3748308",NA,NA,NA,"cafe food point_of_interest establishment"
"ChIJD7fiBh9u5kcRYJSMaMOCCwQ","Paris","48.856614","2.3522219",NA,NA,NA,"locality political"
"ChIJk6E8r-Zt5kcRp7n_sC-xwl8","Loona","48.8710952","2.3743888",NA,"4.4","8","store point_of_interest establishment"
"ChIJF-rNruZt5kcRVyhFB3qiyqw","Tdb","48.871053","2.374287",NA,NA,NA,"point_of_interest establishment"
"ChIJCUdipOZt5kcRy3_3KCa_rUY","Voyez Vous Opticien belleville 11ème","48.871177","2.3748141",NA,"5","1","health point_of_interest store establishment"
"ChIJ8b8Io-Zt5kcRON2HIfRZg8M","HBA Délices d'orient","48.871177","2.3748141",NA,"3.9","51","restaurant bakery food point_of_interest store establishment"
"ChIJS4TKruZt5kcRXD36bxe3k_o","Pacha Kebab","48.8710462","2.3742497",NA,"4.1","40","restaurant food point_of_interest store establishment"
"ChIJ3xP0qOZt5kcRsy26zfRpI7g","Boucherie Pivert AVS","48.8710194","2.3742081",NA,"4.9","15","food point_of_interest store establishment"
"ChIJw6SVoOZt5kcRSjunuRFAdB4","15 Rue Jules Verne","48.8707758","2.3749357",NA,NA,NA,"point_of_interest establishment"
"ChIJN5i8oOZt5kcR3JjsOygVB70","Thibau David","48.8707758","2.3749357",NA,NA,NA,"point_of_interest establishment"
"ChIJN5i8oOZt5kcRL-IZtusq-30","Vivant Elsa","48.8707758","2.3749357",NA,NA,NA,"point_of_interest establishment"
"ChIJJXn3ruZt5kcR0oWpJ2Hba0s","New Style 2","48.8711837","2.3743016",NA,"1.5","2","point_of_interest establishment"
"ChIJUS5FruZt5kcR8RPoXzCEWGE","Belleville Alimentaire","48.8711837","2.3743016",NA,"3.3","3","supermarket grocery_or_supermarket food point_of_interest store establishment"
"ChIJI8jzruZt5kcRBTTQlyrmT5U","Internity Telephonie - Multimedia","48.8711648","2.3742366",NA,NA,NA,"point_of_interest store establishment"
"ChIJuVvAr-Zt5kcRLpvdkN3vufM","Pluricite","48.8712768","2.3744336",NA,NA,NA,"point_of_interest establishment"
"ChIJuVvAr-Zt5kcR2cGTqDRWoUY","Poussin Academy","48.8712768","2.3744336",NA,NA,NA,"point_of_interest establishment"
"ChIJ-TElzQhu5kcR9vYkk6fvzx0","Poussin Communication","48.8712768","2.3744336",NA,"5","1","point_of_interest establishment"
"ChIJ7UuVr-Zt5kcRNUUIGO2cXjI","Guerithault Yves","48.8712768","2.3744336",NA,NA,NA,"point_of_interest establishment"
"ChIJAQCEruZt5kcRu_5nr88yt0I","Top Delice","48.8711768","2.3741927",NA,"3","2","point_of_interest establishment"
"ChIJc4OZzqpt5kcRzTSZ28kHn9s","Sweet Days Conseil - Paris","48.8711362","2.3741252",NA,NA,NA,"point_of_interest establishment"
"ChIJQ046rOZt5kcRHTRUj0AntU8","Jdp Music","48.8711362","2.3741252",NA,NA,NA,"electronics_store home_goods_store point_of_interest store establishment"
"ChIJQ046rOZt5kcRq0xoU3Eq03Q","Genaco","48.8711362","2.3741252",NA,NA,NA,"point_of_interest establishment"
"ChIJKTL4oeZt5kcRqhEbM95DjoI","JAMO-Jobcoaching et emploi accompagné","48.8710104","2.3751711",NA,NA,NA,"point_of_interest establishment"
"ChIJycHXouZt5kcR2nZ6lVAsYf0","Inamm II","48.8712742","2.3749462",NA,NA,NA,"point_of_interest establishment"
"ChIJE-4Hq-Zt5kcR6Agdmrf-9LU","Miss Lola","48.870909","2.3739735",NA,NA,NA,"store point_of_interest establishment"
"ChIJJUtPu-Zt5kcRnFBJ9WBxGtg","Faubourg Telecom","48.871376","2.374825",NA,NA,NA,"point_of_interest establishment"
"ChIJJUtPu-Zt5kcRk-vxwoJQZBw","Moneyglobe Transfert d'Argent - Paris","48.871376","2.374825",NA,NA,NA,"finance point_of_interest establishment"
"ChIJ2Rhhehht5kcRVOoKh6OmAQE","Bar le faubourg","48.871376","2.374825",NA,"3.6","18","bar liquor_store restaurant food point_of_interest store establishment"
"ChIJVw5Qu-Zt5kcR0esk8TPenHU","Ben Rabah Abdelaziz","48.871376","2.374825",NA,"3.7","6","bakery food point_of_interest store establishment"
"ChIJ2zE8VeFt5kcRorc2HrCtKf8","Africa Antilles Asia SARL","48.8708899","2.3739215",NA,"4.2","138","book_store grocery_or_supermarket food point_of_interest store establishment"
"ChIJtWtqBORt5kcROj2rxjuuXWs","Collectif la Voûte Nomade","48.870526","2.3744349",NA,NA,NA,"point_of_interest establishment"
"ChIJBR-dGORt5kcRGsPgMFyvu5A","Square Jules Verne","48.8701409","2.3750885",NA,NA,NA,"park premise point_of_interest establishment"
