"Id","Name","Lat","Lng","Price_level","Rating","Nb_Rating","Type"
"ChIJjUwm8A5u5kcR8UEJmo9bZGk","19-1 Rue de Lancry","48.8692457","2.3602871",NA,NA,NA,"route"
"ChIJP_-G-w5u5kcRz85TVXXftu0","Excelsior Republique","48.8687939","2.3600904",NA,"3.1","224","lodging point_of_interest establishment"
"ChIJ5bwxqOpt5kcRVyFm-QZaaq8","Louise Paris","48.8692047","2.3603465",NA,"3.9","17","shoe_store point_of_interest clothing_store store establishment"
"ChIJR_Vm-g5u5kcRpP_T-c3IbF0","Marion & Marion Eurl","48.869107","2.3599999",NA,NA,NA,"point_of_interest establishment"
"ChIJ6QN88A5u5kcRSPL7JM-5c_A","Liard Finance","48.869153","2.3601479",NA,NA,NA,"point_of_interest establishment"
"ChIJvbkE-w5u5kcR_VbMmQf7NVM","Trackbusters","48.8689454","2.3602061",NA,NA,NA,"point_of_interest establishment"
"ChIJi6BA5Q5u5kcRacF2M4yvlK4","Atelier Cosy Pixel","48.8690411","2.3603507",NA,"4.8","6","point_of_interest establishment"
"ChIJZUHe-g5u5kcRwdKX01SNJKE","La Petite Rose des Sables","48.8689454","2.3602061","1","4.6","272","bar restaurant food point_of_interest establishment"
"ChIJIV00-w5u5kcREKaPo6WRGaw","Logfret","48.8689158","2.3602092",NA,"2","1","point_of_interest establishment"
"ChIJ_W335Q5u5kcRKGdV7NAyMZs","Sarl Tricobel","48.869215","2.3604922",NA,"1.7","3","point_of_interest establishment"
"ChIJG-xOrIp65kcRJThP2PiqT48","Yellow Window Design","48.8687503","2.3600386",NA,"5","1","point_of_interest establishment"
"ChIJAQD84w5u5kcRppE6HnWED5s","Christophe Ichou","48.8687802","2.3605879",NA,NA,NA,"point_of_interest establishment"
"ChIJAQD84w5u5kcR2JJgJDw1nx0","Dr Isabelle Gasquet","48.8687802","2.3605879",NA,"4","2","doctor health point_of_interest establishment"
"ChIJvWI__A5u5kcRAIuMV52pUH4","Didier Zozio architecte","48.8687029","2.3599954",NA,NA,NA,"point_of_interest establishment"
"ChIJ0yHP_g5u5kcRWHXM0sJpSgw","School","48.868786","2.359792",NA,NA,NA,"school point_of_interest establishment"
"ChIJdfHC7w5u5kcRxmdtYjoV_MY","Mila Interim","48.8692047","2.3603465",NA,NA,NA,"point_of_interest establishment"
"ChIJdfHC7w5u5kcRLPaRI8E0bkw","Wombat","48.8692047","2.3603465",NA,NA,NA,"point_of_interest establishment"
"ChIJVw9L7g5u5kcRVnU7uDhGHw0","Maison Chateigner","48.8692843","2.3604019",NA,NA,NA,"point_of_interest clothing_store store establishment"
"ChIJR_Vm-g5u5kcR1RfPDku7YPs","ParisVélopostale","48.869107","2.3599999",NA,"4.4","7","point_of_interest establishment"
"ChIJD7fiBh9u5kcRYJSMaMOCCwQ","Paris","48.856614","2.3522219",NA,NA,NA,"locality political"
"ChIJnZFI7g5u5kcRSyxnq5s_VFg","Thanx God I'm a V.I.P.","48.8692843","2.3604019",NA,"4.5","129","point_of_interest clothing_store store establishment"
"ChIJBy7f-Axu5kcRuANnzNR29BQ","Edatis","48.8686732","2.3600516",NA,"1","2","point_of_interest establishment"
"ChIJwTDd_A5u5kcRghluUg84KbA","Guimi House","48.8686039","2.3601449","2","4.1","385","restaurant food point_of_interest establishment"
"ChIJi6BA5Q5u5kcRcSEetg4EnoI","Qui Vive !","48.8690411","2.3603507",NA,NA,NA,"point_of_interest establishment"
"ChIJi6BA5Q5u5kcRlg-3HZ-odTs","Brogi Piero","48.8690411","2.3603507",NA,NA,NA,"point_of_interest store establishment"
"ChIJs8f57w5u5kcRO0hK1XAjEG0","Elxir","48.8691327","2.3603267",NA,NA,NA,"point_of_interest establishment"
"ChIJh1B08A5u5kcRiTr60T6F2b8","Indian Textile Et Handicrafts","48.869153","2.3601479",NA,"5","1","point_of_interest store establishment"
"ChIJgXHI8RZv5kcRAIdAxdt2C8A","Dreamin","48.8689454","2.3602061",NA,NA,NA,"point_of_interest establishment"
"ChIJsQxU1vtv5kcR8Shp01NhU6Q","Cibleclic - Uzerly","48.8689454","2.3602061",NA,"5","1","point_of_interest establishment"
"ChIJvbkE-w5u5kcRoXBXqn8ApKo","Darshan","48.8689454","2.3602061",NA,"5","2","point_of_interest establishment"
"ChIJdfHC7w5u5kcR-3jfbUdJX5o","Media Target","48.8692047","2.3603465",NA,NA,NA,"point_of_interest establishment"
"ChIJdfHC7w5u5kcRJ3I908RyZL0","VALUEC Conseil","48.8692047","2.3603465",NA,NA,NA,"point_of_interest establishment"
"ChIJdfHC7w5u5kcRsISmn2xckks","POEM","48.8692047","2.3603465",NA,NA,NA,"point_of_interest establishment"
"ChIJPYeBhFpv5kcRDWAqr5ii_Oc","RC Alimentation generale","48.8692086","2.3601646",NA,"3","2","grocery_or_supermarket food point_of_interest store establishment"
"ChIJW7iu55Rv5kcRjLEECC_6p50","ASG Courtage - République - Courtier en crédit immobilier","48.869107","2.3599999",NA,NA,NA,"finance point_of_interest establishment"
"ChIJ__8L-g5u5kcRwU5_C_ErgtA","Bio Dégustation","48.869107","2.3599999","2","4.6","49","restaurant food point_of_interest establishment"
"ChIJF9A38A5u5kcRCwkjTcLrRSE","Sarl Abima","48.869248","2.3602119",NA,NA,NA,"point_of_interest establishment"
"ChIJ_UDn7w5u5kcRwzo73cWRv6E","Federat Nat Blesse Impot Guerr","48.869215","2.3604922",NA,NA,NA,"point_of_interest establishment"
"ChIJY1gI7w5u5kcRA9WQcp1_bRo","FEDERATION NATIONALE","48.8692262","2.3604942",NA,NA,NA,"point_of_interest establishment"
"ChIJq6qu8Q5u5kcRh8f4Gyosv8E","Rp Productions","48.8693007","2.3601478",NA,NA,NA,"point_of_interest establishment"
"ChIJTWdITfdv5kcRy8xVwuH-DRA","Société Lanbou (SA)","48.8688048","2.3600921",NA,NA,NA,"lodging point_of_interest establishment"
"ChIJQ0J4H6dv5kcRT9h8hH6p-bc","BOULANGERIE LA GOURMANDISE PARIS","48.8688539","2.3598689",NA,"4.2","29","bakery food point_of_interest store establishment"
"ChIJizpx8Q5u5kcRAeiKYcsQ_u8","De Minteguiaga Guezala Marta-volga","48.869387","2.360108",NA,NA,NA,"point_of_interest establishment"
"ChIJv6ZH_A5u5kcRBQiLbVYZi94","O PRESSING","48.8688214","2.3598884",NA,"4","3","laundry point_of_interest establishment"
"ChIJN1OFIQ9u5kcR2gDbOlrwc4g","回收瓶子箱","48.8687802","2.3605879",NA,NA,NA,"point_of_interest establishment"
"ChIJY3oy4g5u5kcRJ8471ZqBMoE","Barrere Yann","48.8687802","2.3605879",NA,NA,NA,"doctor health point_of_interest establishment"
"ChIJsXJY7A5u5kcR2HOeXbtPpu8","Imcp","48.869423","2.360541",NA,"2.3","3","school point_of_interest establishment"
"ChIJZ3HT8w5u5kcRf3m93PJ0d-Y","French Chinese Basketball Association","48.869462","2.36013",NA,NA,NA,"point_of_interest establishment"
"ChIJoxaOnvNv5kcRa-OWcBwWHyc","Gymnase Jean Verdier","48.869462","2.36013",NA,"3.5","8","gym health point_of_interest establishment"
"ChIJVQo3s_xt5kcRcnx0v_f9DOQ","Beauvois Catherine","48.869462","2.36013",NA,NA,NA,"point_of_interest establishment"
"ChIJ-Zff7A5u5kcRfaDJFJHr_T0","LNE France Holding SAS","48.869462","2.36013",NA,NA,NA,"finance point_of_interest establishment"
"ChIJ-Zff7A5u5kcRM88oSdLWF58","Mouvement National des Chômeurs et Précaires","48.869462","2.36013",NA,"5","7","point_of_interest establishment"
"ChIJvWI__A5u5kcR7jF54f0-qEY","Egide CLB","48.8686732","2.3600516",NA,"5","1","accounting finance point_of_interest establishment"
"ChIJvWI__A5u5kcR_km-dggBHT8","Han Shi Fang","48.8686425","2.3599669","2","4","329","bar restaurant food point_of_interest establishment"
"ChIJAwAk_Q5u5kcR6vODhUD-bbI","Adrien Marolleau","48.8686312","2.3601801",NA,NA,NA,"point_of_interest establishment"
"ChIJfUa6_Q5u5kcRtsLIlRqDa7E","Letz Pierre","48.8686312","2.36018",NA,"5","1","point_of_interest establishment"
"ChIJCcUw_A5u5kcRz8qg0uygfLQ","Kronos","48.8686468","2.3600493",NA,NA,NA,"point_of_interest establishment"
"ChIJZWKT_g5u5kcRffwmSainJdA","La Semaine Du Son","48.868717","2.359821",NA,NA,NA,"point_of_interest establishment"
"ChIJt8rd9G9v5kcRW45kPxsCxYc","Happy Hebrew Spiritual Singers","48.868717","2.359821",NA,NA,NA,"point_of_interest establishment"
"ChIJhaHOVw5u5kcRdBMP_8vbkw0","PARALLEL Motion Design","48.8691452","2.3595805",NA,"5","2","point_of_interest establishment"
