"Id","Name","Lat","Lng","Price_level","Rating","Nb_Rating","Type"
"ChIJa490as9t5kcRGGQdO4jQKcs","145 Avenue Jean Jaurès","48.886691","2.3849594",NA,NA,NA,"route"
"ChIJe_ULE89t5kcR8K4E8GAkE4g","Association Pour Le Logement Des","48.8870564","2.3845834",NA,NA,NA,"point_of_interest establishment"
"ChIJJ6Br9zJu5kcRX3MJtlwhRxI","ca","48.886908","2.384868",NA,"5","2","point_of_interest establishment"
"ChIJD6qS3zJs5kcRgYwT_iv7M6k","La Géode","48.8868189","2.3846514",NA,"3.7","7","restaurant food point_of_interest establishment"
"ChIJjWiAQM9t5kcRBpmvtTLw2CI","AIKIDO PARIS Maison de Aikido (dojo Kikentai)","48.8868602","2.3851655",NA,"5","1","health point_of_interest establishment"
"ChIJV7hrEc9t5kcR5nNGwryfDNg","Capolo Nettoyage","48.8873454","2.3844504",NA,NA,NA,"laundry point_of_interest establishment"
"ChIJmfrtbc9t5kcRYlQxtYAGOAE","Doc'Biker","48.88666","2.3843868",NA,"4","111","car_repair point_of_interest establishment"
"ChIJ93u0bc9t5kcReU8xAzmIABM","Detroit Media","48.8866882","2.3843105",NA,NA,NA,"point_of_interest establishment"
"ChIJaYdwucVt5kcRO7Yh5BAJIKY","Salon Léa","48.8867005","2.3848915",NA,"2.4","29","beauty_salon hair_care point_of_interest establishment"
"ChIJAQCQbc9t5kcRq5OdDBSKKRM","Business City","48.8866882","2.3843105",NA,NA,NA,"point_of_interest establishment"
"ChIJY7Wsa89t5kcRhGyC7k55NvY","PRO IMAGE SERVICE","48.886925","2.3852322",NA,"4.8","51","point_of_interest establishment"
"ChIJO4ZcbM9t5kcREmEk2IAelqM","F.r.c.m.b","48.8869089","2.3846913",NA,NA,NA,"point_of_interest establishment"
"ChIJe_ULE89t5kcR7cZ-HwEuX_c","Fibrany","48.8870181","2.3845411",NA,NA,NA,"point_of_interest establishment"
"ChIJ8W9rrIVt5kcRc1nZ1xSbp4k","La Ferme du Rail","48.8869076","2.3848683",NA,"5","1","point_of_interest establishment"
"ChIJZ_rmbM9t5kcRXJ5wm7GmjNM","Big Corner","48.8868189","2.3846514","2","4.1","623","restaurant food point_of_interest establishment"
"ChIJy7lrEc9t5kcR05R4Ki3Kt_o","Nadlane Immobilier","48.8872592","2.3845644",NA,NA,NA,"real_estate_agency point_of_interest establishment"
"ChIJm8KHGs9t5kcRFBx1CjBmdak","Ourcq - Jean Jaurès","48.8873027","2.3845875",NA,"5","1","bus_station transit_station point_of_interest establishment"
"ChIJp5MO7f1t5kcRuqGPtKipex0","Peintre de paris","48.8868602","2.3851655",NA,NA,NA,"point_of_interest establishment"
"ChIJ08SKGytt5kcRxvMOuLC3-Gs","Voyant médium marabout paris","48.8866858","2.3845861",NA,NA,NA,"point_of_interest establishment"
"ChIJD7fiBh9u5kcRYJSMaMOCCwQ","Paris","48.856614","2.3522219",NA,NA,NA,"locality political"
"ChIJQTLMG89t5kcRwKQKfwzQuWM","Ourcq - Jean Jaurès","48.8873609","2.3847281",NA,"3.7","3","bus_station transit_station point_of_interest establishment"
"ChIJX4hpPs9t5kcRpuezdKxA1vs","Eva Chal Chalom Eva","48.886925","2.3852322",NA,"4","1","clothing_store point_of_interest store establishment"
"ChIJX4hpPs9t5kcRNij2BOb6F70","Layouni Yssameddine","48.886925","2.3852322",NA,NA,NA,"point_of_interest establishment"
"ChIJY7Wsa89t5kcRFq5BP9mpurQ","Maillard Thibaut","48.886925","2.3852322",NA,NA,NA,"point_of_interest establishment"
"ChIJvX7Tw-tt5kcRZPlSrtMjotg","Nice Car","48.8866882","2.3843105",NA,NA,NA,"car_rental point_of_interest establishment"
"ChIJYxQ3j1Zt5kcRwTYB63OXD2M","Express Domiciliation Paris - Domiciliation entreprise, domiciliation commerciale","48.8866882","2.3843105",NA,"5","3","point_of_interest establishment"
"ChIJ71YIcs9t5kcRN048f7crniQ","Optical Direct","48.8866882","2.3843105",NA,"4.4","13","health point_of_interest store establishment"
"ChIJY7Wsa89t5kcRxTVeiHg-MII","Salome","48.8869242","2.3853594",NA,"3.5","20","clothing_store point_of_interest store establishment"
