"Id","Name","Lat","Lng","Price_level","Rating","Nb_Rating","Type"
"ChIJcdSvqzdu5kcRrsiJ_4S1As4","70-76 Rue de Provence","48.8742867","2.3321122",NA,NA,NA,"route"
"ChIJeUobqzdu5kcRnh74L0-r76A","Hôtel Opéra d'Antin","48.8742293","2.332012",NA,"3.7","107","lodging point_of_interest establishment"
"ChIJq-Rzqzdu5kcRO6VaLwhIrHI","Hôtel Antin-Trinité","48.87437","2.332037",NA,"3.6","251","lodging point_of_interest establishment"
"ChIJ0Tzsvf1v5kcRxPI-afOXBpE","Zagtoon","48.8743624","2.3315125",NA,"4.8","21","point_of_interest establishment"
"ChIJZ2IdrTdu5kcRfvyJYJkZtvs","Le Dahlia","48.8745728","2.332134","1","4","59","restaurant bar food point_of_interest establishment"
"ChIJO8fxDTdu5kcRIaVf0S_9cxo","Le Vizir","48.8744214","2.3325951",NA,"3.6","11","point_of_interest store establishment"
"ChIJnX9Jqzdu5kcRSDD-cbU9Aoo","K&S (大家乐）","48.8743444","2.3317716",NA,"3.4","38","restaurant food point_of_interest establishment"
"ChIJn_68qzdu5kcRUgaRSX3oJis","Degrif Des Stocks","48.8743241","2.3321262",NA,"4.2","10","clothing_store point_of_interest store establishment"
"ChIJszASqjdu5kcRr0WZf8kLrEg","Eurovetrocap France","48.874145","2.3321636",NA,"3.8","4","point_of_interest establishment"
"ChIJuSQ6qDdu5kcRkSqQV4J6nf8","Monop'Daily","48.8741589","2.3323735",NA,"3.9","35","convenience_store food point_of_interest store establishment"
"ChIJuSQ6qDdu5kcRKkpd3sjMQxY","Degueldre et Cie","48.8741797","2.3324655",NA,NA,NA,"point_of_interest establishment"
"ChIJxxkISjhu5kcRpsFISe9TBRA","Emissive Sarl","48.8741797","2.3324655",NA,"5","3","point_of_interest establishment"
"ChIJTfIjrDdu5kcRvYBuJUbeU2A","Hotel Paris","48.8745078","2.3322369",NA,NA,NA,"lodging point_of_interest establishment"
"ChIJ3fcveDhu5kcRViXmCmX8l3Q","YumiBao","48.8745078","2.3322369",NA,"3.8","50","restaurant food point_of_interest establishment"
"ChIJw8BMrzdu5kcRmOideY_aFMM","Planete Optic","48.874409","2.3325468",NA,"4.8","17","health point_of_interest store establishment"
"ChIJ6W2FGMJl5kcRdAphEabVlTk","Secur-one","48.874409","2.332547",NA,NA,NA,"point_of_interest establishment"
"ChIJaWtGUzZu5kcRXS9ov0-G0mU","Caldelari Hairdresser Visagiste","48.8745357","2.3319206",NA,"4.6","132","hair_care point_of_interest establishment"
"ChIJ0yNNUjZu5kcR2pWobc3qw-o","Tante-Juliette.Fr","48.8745494","2.3317677",NA,NA,NA,"food point_of_interest establishment"
"ChIJXV7CVTZu5kcRp4pxCKUF0ak","Starbucks","48.8741937","2.3315907","2","3.8","24","cafe bakery restaurant food point_of_interest store establishment"
"ChIJD7fiBh9u5kcRYJSMaMOCCwQ","Paris","48.856614","2.3522219",NA,NA,NA,"locality political"
"ChIJA_P-UjZu5kcRdjV9cK4IYEQ","La Gourmand'In","48.87459","2.331759",NA,"4.3","20","restaurant food point_of_interest establishment"
"ChIJcRDTrzdu5kcRv_tHHeQPodM","Organis Internationale Opera Concert","48.8747051","2.3323016",NA,NA,NA,"point_of_interest establishment"
"ChIJcRDTrzdu5kcR2-W1HrUHVco","Buro Rent location de mobilier de bureau","48.8747051","2.3323016",NA,"5","1","point_of_interest establishment"
"ChIJw8BMrzdu5kcRm36eVQ-gUJo","Sagesse Active","48.874409","2.3325468",NA,NA,NA,"point_of_interest establishment"
"ChIJNct4dDZu5kcRyIOKia4XG1Q","BODA","48.8746783","2.3319289",NA,NA,NA,"point_of_interest establishment"
"ChIJW5H-rTdu5kcRgRBhBpD6f-k","Sabine Devieilhe","48.8747051","2.3323016",NA,NA,NA,"point_of_interest establishment"
"ChIJW5H-rTdu5kcRGxHrDX1hTuA","ELISABETE MATOS","48.8747051","2.3323016",NA,NA,NA,"point_of_interest establishment"
"ChIJW5H-rTdu5kcR-q0UUIsIj5Y","marie karall","48.8747051","2.3323016",NA,NA,NA,"point_of_interest establishment"
"ChIJVQq4zDdu5kcR5G_ncP4ezKY","Morgan","48.8747094","2.3322651",NA,"4.1","23","clothing_store point_of_interest store establishment"
"ChIJW5H-rTdu5kcRNoq6kx7eXPs","Fabienne Conrad","48.8747094","2.3322651",NA,"4.8","5","point_of_interest establishment"
"ChIJuwFmrTdu5kcRK43DLHX5rbA","American Body Art","48.8747171","2.3320601",NA,"4.6","305","point_of_interest store establishment"
"ChIJkXpRrzdu5kcRY8D-Njp24v0","Gitec Chaussée d'Antin","48.874409","2.3325468",NA,NA,NA,"point_of_interest establishment"
"ChIJPwGDMrJv5kcRCbF-l053oCM","Promold","48.8743529","2.3314804",NA,NA,NA,"point_of_interest establishment"
"ChIJJ1zC5jdu5kcR-Kh98jwP_Mw","Avène","48.874409","2.3325468",NA,NA,NA,"point_of_interest establishment"
"ChIJbZGFBTVu5kcR11Biq5SfIec","Improvalue","48.8743529","2.3314804",NA,"5","3","point_of_interest establishment"
"ChIJW5H-rTdu5kcRRq-oOi5dgqs","Marion Grange Soprano","48.8747094","2.3322651",NA,NA,NA,"point_of_interest establishment"
"ChIJW5H-rTdu5kcRPDnD0pnvmNU","Christopher Franklin","48.8747094","2.3322651",NA,NA,NA,"bar point_of_interest establishment"
"ChIJa64kqjdu5kcRGWm36uKXNG0","Parispack","48.8741979","2.3321957",NA,NA,NA,"point_of_interest establishment"
"ChIJE9wuj2lv5kcRJ_U59kycW9Y","Diageo France","48.8741979","2.3321957",NA,NA,NA,"point_of_interest establishment"
"ChIJLfSZqTdu5kcRaYvwez6cYt0","Cariatides","48.874217","2.3323061",NA,NA,NA,"point_of_interest establishment"
"ChIJMwpAqTdu5kcRbfzO9Fuv788","雅香园","48.8743345","2.3323364",NA,"3.7","3","restaurant food point_of_interest establishment"
"ChIJ5RliqTdu5kcRbA19SkAgyps","Mi-Va-Mi","48.8743345","2.3323364",NA,"3.2","14","restaurant food point_of_interest establishment"
"ChIJQQCQqzdu5kcRJhAAr4KVos8","Pomme de Pain","48.8743345","2.3323364","2","3.8","16","meal_delivery cafe restaurant food point_of_interest establishment"
"ChIJiUXFbrdv5kcR-Z89vzE_-40","Optique De Paris","48.8743697","2.3320372",NA,"5","11","health point_of_interest store establishment"
"ChIJJ_JFkUBv5kcRoSlonpMmQs0","Mayer Prezioso","48.8741797","2.3324655",NA,NA,NA,"lawyer point_of_interest establishment"
"ChIJRardARFu5kcRb4Dq1EmsIqQ","Cabinet Romain OMER, Divorce Lawyer","48.8741797","2.3324655",NA,"3.7","1192","lawyer point_of_interest establishment"
"ChIJuSQ6qDdu5kcR5jhbBqddO3k","Télégraphique","48.8741488","2.3324607",NA,"1","1","point_of_interest establishment"
"ChIJTfIjrDdu5kcR1KDn771XJ5o","Ins Style Studio Opéra","48.8745078","2.3322369",NA,NA,NA,"point_of_interest establishment"
"ChIJH-VArDdu5kcR9uvS3Vd9OHQ","Traiteur Jia Hao","48.8745078","2.3322369",NA,"3.3","4","restaurant food point_of_interest establishment"
"ChIJxZHeUjZu5kcRlrAmU0eT4gI","Shiki Sushis","48.874495","2.332048",NA,"4.5","102","restaurant food point_of_interest establishment"
"ChIJkQaxrTdu5kcRyziLG3hkjnE","La Mie Dinette","48.8744952","2.3320476",NA,"4.3","19","meal_takeaway restaurant food point_of_interest establishment"
"ChIJkc_qpzdu5kcRdcGEbqJq6qw","André","48.8741814","2.3325221",NA,"2.7","17","shoe_store point_of_interest store establishment"
"ChIJvwec6BDsC0ERC9T4khSIhXc","Optical Service 75009 PARIS 9","48.874349","2.331816",NA,"4.9","40","health point_of_interest store establishment"
"ChIJ3csmrTdu5kcRjd0NZYZHuNk","Fuji Sushi Bar","48.8745297","2.3321145",NA,"3.3","3","restaurant food point_of_interest establishment"
"ChIJvZNrrzdu5kcR9d1J5TjXZoE","Gigi chaussures","48.8745279","2.332309",NA,"4.6","9","shoe_store point_of_interest store establishment"
"ChIJebeSVDZu5kcRobkT9aFZY9E","Fsvk","48.8743444","2.3317716",NA,"4","1","point_of_interest establishment"
"ChIJt9e45Xhv5kcRrlTpcJfYQC4","Active Wisdom Coaching","48.874409","2.3325468",NA,"5","5","point_of_interest establishment"
"ChIJJT2d2_Rt5kcRUNCS8f8tekI","Valérie Ballonad","48.874409","2.3325468",NA,"5","1","health point_of_interest establishment"
"ChIJXd4trNJv5kcRu069BYEJ-YE","AgJc atelier","48.874409","2.3325468",NA,NA,NA,"jewelry_store point_of_interest store establishment"
"ChIJPdG8FxFv5kcRUwCkak_UOmY","Maison Pradier Grands Magasins","48.874409","2.3325468","2","2.9","15","restaurant bakery food point_of_interest store establishment"
