"Id","Name","Lat","Lng","Price_level","Rating","Nb_Rating","Type"
"ChIJA3YYaIht5kcRmNT1vx8IvHA","15-5 Rue des Orteaux","48.8569101","2.3993808",NA,NA,NA,"route"
"ChIJ10IFt4lt5kcRz5Mo4FVG0tc","Dolladille Franck","48.8570208","2.3999895",NA,"5","4","doctor health point_of_interest establishment"
"ChIJSTUOYYht5kcRnWlc1CGzXdQ","vip holidays france","48.8573534","2.3997135",NA,NA,NA,"point_of_interest establishment"
"ChIJwWoze4ht5kcRBUvPGQ6R7GE","A Table","48.8570941","2.3998764","1","4.3","233","restaurant food point_of_interest establishment"
"ChIJ6w8MYYht5kcRbra-F68iTus","VIP Driver France","48.8574315","2.3996353",NA,NA,NA,"travel_agency point_of_interest establishment"
"ChIJ6w8MYYht5kcRuC3VEb35dhA","Home Paris Home","48.8574315","2.3996353",NA,"5","1","lodging point_of_interest establishment"
"ChIJ7Q8MYYht5kcRdYT9xkFD9s4","Ceefia","48.8574315","2.3996352",NA,NA,NA,"point_of_interest establishment"
"ChIJ7Q8MYYht5kcRxeS5sPGCywA","IEEFC","48.8574315","2.3996352",NA,NA,NA,"point_of_interest establishment"
"ChIJgzRTb4ht5kcRvRUt7cVmfyY","Virginie Leconte","48.8569801","2.3996659",NA,"4.7","3","doctor health point_of_interest establishment"
"ChIJY05oYoht5kcRZqiyJ4Odwmc","Léa Baert","48.8575339","2.3998733",NA,NA,NA,"point_of_interest establishment"
"ChIJY05oYoht5kcRrAfgBFULUGk","Ella Perdereau","48.8575539","2.3998824",NA,NA,NA,"point_of_interest establishment"
"ChIJf3-Zioht5kcRD3tcQqbVnv8","Nakano Sushi","48.8575534","2.3995546","2","4.1","193","meal_takeaway restaurant food point_of_interest establishment"
"ChIJNcc5Xoht5kcR46ZsY8eXbmg","Abreu Pablo","48.8573242","2.3992275",NA,NA,NA,"point_of_interest establishment"
"ChIJhTbnZoht5kcRHw3wSiml0Zw","Compagnie Art Me Up","48.8572131","2.3995713",NA,NA,NA,"point_of_interest establishment"
"ChIJn-45Xoht5kcR-3J969Ik5fc","Paris Coiffure","48.8573554","2.3991557",NA,"4.8","18","hair_care point_of_interest establishment"
"ChIJNcc5Xoht5kcRohkLxNYLI_I","L'Abribus.","48.85742","2.399335","1","4.2","632","restaurant cafe bar food point_of_interest establishment"
"ChIJo6T1YYht5kcRil5EpKP_9MI","panampanama","48.8575418","2.3997445",NA,NA,NA,"point_of_interest establishment"
"ChIJK-27fYht5kcRoqNS9yKaNmM","ITAL LION association 1901","48.8574948","2.4003355",NA,NA,NA,"point_of_interest establishment"
"ChIJJ3ebXoht5kcRi2nittsXpaE","luc pays","48.8573288","2.3991521",NA,NA,NA,"point_of_interest establishment"
"ChIJD7fiBh9u5kcRYJSMaMOCCwQ","Paris","48.856614","2.3522219",NA,NA,NA,"locality political"
"ChIJJ3ebXoht5kcR8r4z0uswJzM","Edouard FOGEL","48.8573288","2.3991521",NA,NA,NA,"point_of_interest establishment"
"ChIJj0agZENt5kcR_tGyjAMpExo","Orianne","48.8571654","2.3997436",NA,NA,NA,"lodging point_of_interest establishment"
"ChIJtx09ZIht5kcRxOGMS8ETttA","Susi","48.8571592","2.3998293",NA,NA,NA,"finance point_of_interest establishment"
"ChIJtx09ZIht5kcRVQXvmt5lu6E","Sarl Susi Chibane Hacene","48.8571592","2.3998293",NA,NA,NA,"finance point_of_interest establishment"
"ChIJ_R6QZoht5kcRQ6q0d5ULZBs","Dreamyflat - Cosy flat","48.857178","2.399672",NA,NA,NA,"lodging point_of_interest establishment"
"ChIJ_R6QZoht5kcRYAayqWZcqBs","Dreamyflat - Cosy flat","48.857178","2.399672",NA,NA,NA,"lodging point_of_interest establishment"
"ChIJmxmJZoht5kcRDdmtfNdyFEM","Cabinet infirmier 107 rue de la Reunion","48.857149","2.399605",NA,"4.3","11","health point_of_interest establishment"
"ChIJyymmZYht5kcRjNuP-vNju5Y","Unilogis","48.8570941","2.3998764",NA,NA,NA,"point_of_interest establishment"
"ChIJyymmZYht5kcRbo0J5fmP5Fk","Chauffagiste Paris Service","48.8570941","2.3998764",NA,"5","15","general_contractor point_of_interest establishment"
"ChIJwWoze4ht5kcRZEPgR_OweA8","NAZ Restauration","48.8570941","2.3998764",NA,NA,NA,"restaurant food point_of_interest establishment"
"ChIJy9ApZ4ht5kcRqR7G2ivkrRg","C. Remond","48.8572704","2.3995513",NA,NA,NA,"point_of_interest establishment"
"ChIJO2vcZYht5kcRlww-XfsYO2g","Artisasn Au Nette","48.8570734","2.3997395",NA,NA,NA,"point_of_interest establishment"
"ChIJyZZbEght5kcRjB73PpoMg-Y","Renovation Paris Service : appartement , maison , locaux commerciaux","48.8571598","2.3995653",NA,"5","14","general_contractor point_of_interest establishment"
"ChIJVVX5Zoht5kcReY0SOOaHN8w","Nathalie Bonnal","48.8571598","2.3995653",NA,NA,NA,"point_of_interest establishment"
"ChIJY_EXCWVt5kcRR032EjxEdDM","Anne Sonnier et Nathalie Bonnal","48.8571598","2.3995653",NA,NA,NA,"health point_of_interest establishment"
"ChIJq5goOeJt5kcREzp2xYbWVcc","Myrtille Rener","48.8571598","2.3995653",NA,NA,NA,"health point_of_interest establishment"
"ChIJOTntZoht5kcRbedeOwSHHmU","Iplanet","48.8571598","2.3995653",NA,NA,NA,"point_of_interest store establishment"
"ChIJmxmJZoht5kcRO7Fucq_CJ5g","Colardelle Françoise","48.8571598","2.3995653",NA,"4","9","doctor health point_of_interest establishment"
"ChIJhTbnZoht5kcRWENi8Ln6T-o","Gidwin","48.8572017","2.3994935",NA,NA,NA,"point_of_interest establishment"
"ChIJ7Q8MYYht5kcRiTUC_DNNDMQ","Soulat Emmanuelle","48.8574315","2.3996352",NA,NA,NA,"point_of_interest establishment"
"ChIJ7Q8MYYht5kcRDR8QpygSEkQ","PAJ - Laboratoire d'intervention et de recherche","48.8574315","2.3996352",NA,NA,NA,"point_of_interest establishment"
"ChIJAQDXeoht5kcRXYNNUCoqVyA","All Service","48.8571192","2.4001004",NA,NA,NA,"general_contractor point_of_interest establishment"
"ChIJzyS3Aw1t5kcRMsAcRWZK3R0","Les delices de Samira","48.8569989","2.3996691",NA,"5","1","bakery restaurant food point_of_interest store establishment"
"ChIJj9bYeoht5kcRQUCfcwb2-8c","Plombier Paris Service","48.8571193","2.4001318",NA,"4.9","124","plumber point_of_interest establishment"
"ChIJR2RfZYht5kcRvrVZ4z96bQU","Gromb Alain","48.8571193","2.4001318",NA,NA,NA,"point_of_interest establishment"
"ChIJm9-GSfFt5kcRNKCFbi3tM5g","Megan VALENCIA","48.8569796","2.3996597",NA,NA,NA,"doctor health point_of_interest establishment"
"ChIJZ8qlaIht5kcRpW4bztGlFP0","Podologue Pédicure","48.8569568","2.3996479",NA,NA,NA,"atm finance point_of_interest establishment"
"ChIJY05oYoht5kcR4ThHudIfMgA","Suprême Bon Ton","48.8575339","2.3998733",NA,NA,NA,"point_of_interest establishment"
"ChIJ1zCZYoht5kcRc72AfUjyUg4","FLORIAN MACHEFERT","48.8575418","2.3997445",NA,NA,NA,"point_of_interest establishment"
"ChIJxbCWYoht5kcR_9jaWYPLz20","Baert Francis Michel Oscar","48.8575418","2.3997445",NA,NA,NA,"point_of_interest establishment"
"ChIJ948wfYht5kcRqMP4mOdnKTE","Henry Colline Sarah","48.8574691","2.4001467",NA,NA,NA,"point_of_interest establishment"
"ChIJSYedioht5kcRuVbH_MQUnLc","Marniquet Lehmann Sarl","48.8575534","2.3995546",NA,NA,NA,"point_of_interest establishment"
"ChIJMS35YYht5kcRBi0CijaOTNA","Orvane","48.8575887","2.3997422",NA,NA,NA,"point_of_interest establishment"
"ChIJVybuYYht5kcR4cKi1queOIA","Serge Le Poulennec - Atelier 35","48.8575887","2.3997422",NA,"5","1","point_of_interest establishment"
"ChIJndubYoht5kcRz1Nvezmz-E4","studio leitner","48.8575773","2.3999942",NA,NA,NA,"point_of_interest establishment"
"ChIJNcc5Xoht5kcRFunygRBgMBc","Rouard Dominique","48.8573242","2.3992275",NA,"4.4","17","doctor health point_of_interest establishment"
"ChIJCzYRcIht5kcRvtDeQAKxEVQ","Dynastie Services","48.8569138","2.4001102",NA,NA,NA,"point_of_interest establishment"
"ChIJCzYRcIht5kcRoCT8VxfX0no","Aynes Negafa","48.8569138","2.4001102",NA,NA,NA,"point_of_interest establishment"
"ChIJD9xeXoht5kcRAxq9_t2S7nI","De Fil En Aiguille Retouche","48.857391","2.3992351",NA,"3","2","store point_of_interest establishment"
"ChIJp8R4Woht5kcRIK9f2YQuTxo","La Réunion","48.857404","2.3992",NA,NA,NA,"transit_station point_of_interest establishment"
