"Id","Name","Lat","Lng","Price_level","Rating","Nb_Rating","Type"
"ChIJ2zOszWdu5kcRmHtd99XHQ1o","Boulevard Barbès","48.8870842","2.3496359",NA,NA,NA,"route"
"ChIJxTBKOmZu5kcR-qRn_o3U1u0","Atlas","48.8872293","2.3506474",NA,"4.2","5","food point_of_interest store establishment"
"ChIJAxndOWZu5kcR1E0Y4xcGhGA","Dia","48.8873712","2.350592",NA,"3","2","supermarket grocery_or_supermarket food point_of_interest store establishment"
"ChIJhx4HOmZu5kcRsDfblRl4Uzw","Poissonnerie du Chateau Rouge","48.8872417","2.3504311",NA,"3.8","42","food point_of_interest establishment"
"ChIJGV7qMmZu5kcRUsRsWk_65Vo","Mimoun","48.8870492","2.3499139",NA,NA,NA,"point_of_interest establishment"
"ChIJYV9mM2Zu5kcRosfdfxTiThA","KFC Paris Barbès","48.8871555","2.349961","2","3","1006","restaurant food point_of_interest establishment"
"ChIJy68t02du5kcRCBo43KviCuk","Bigo","48.8867986","2.3498009",NA,"3.8","4","point_of_interest store establishment"
"ChIJcX9Um2hu5kcRSRpOQizsAzM","Megawax","48.886944","2.3507683",NA,"1","1","clothing_store point_of_interest store establishment"
"ChIJF10vKWZu5kcRVgdUcNRvE70","Centre Hp 25 Revolution","48.8865874","2.3502827",NA,"4.5","4","store point_of_interest establishment"
"ChIJ7XxsL2Zu5kcRyXlNwp77fPE","Editions AMI-AMI","48.886735","2.3504217",NA,NA,NA,"point_of_interest establishment"
"ChIJybsIy2du5kcRohjijJR8VhA","Pharmacy Château Rouge","48.8873655","2.3500065",NA,"3.3","16","pharmacy health point_of_interest store establishment"
"ChIJbXKnPGZu5kcRG7w-OLIgnOI","Guimond Alexandre","48.8870015","2.3507615",NA,NA,NA,"point_of_interest establishment"
"ChIJoVNhPGZu5kcRpK7Zoqnfytk","Grand Hôtel Barbès","48.8870514","2.3508096",NA,"3.4","7","lodging point_of_interest establishment"
"ChIJG4NFJGZu5kcRnup_ZwjKSyM","Guiloufi Abdessalem","48.886803","2.3505327",NA,"1","1","point_of_interest establishment"
"ChIJs-IGN2Zu5kcRYydlqQdCTqM","Dejean Boucherie","48.8873334","2.3503653",NA,"3.3","6","food point_of_interest store establishment"
"ChIJwSpbLWZu5kcRZ_yX4trHG44","Dia Electronic","48.8869216","2.3498651",NA,NA,NA,"point_of_interest establishment"
"ChIJx6IW7Xxv5kcRGerC4hy1LMI","gao mobile","48.8869216","2.3498651",NA,NA,NA,"point_of_interest store establishment"
"ChIJZfbXzGdu5kcRDzVfO_P9VJU","Sneackup","48.8871039","2.3498313",NA,NA,NA,"point_of_interest establishment"
"ChIJAQCQLmZu5kcRkwCh04Y9h8I","SRAB FILMS","48.8867573","2.3501918",NA,NA,NA,"point_of_interest establishment"
"ChIJD7fiBh9u5kcRYJSMaMOCCwQ","Paris","48.856614","2.3522219",NA,NA,NA,"locality political"
"ChIJR5duQLJv5kcR_nIwNbtwrOU","SeraphinDerfalet","48.8867573","2.3501918",NA,NA,NA,"point_of_interest establishment"
"ChIJr9PG02du5kcRoRz_opiBxJs","Roy Tara","48.8867738","2.350347",NA,"3.7","3","point_of_interest store establishment"
"ChIJr9PG02du5kcR3jpag7T5V9s","Pradal Christophe","48.8867738","2.350347",NA,NA,NA,"point_of_interest establishment"
"ChIJiybGzGdu5kcRVXsMW1lAlCo","Amar Frères Butchers","48.8872","2.3499149",NA,"4","2","food point_of_interest store establishment"
"ChIJewa60mdu5kcRTLvCypv5t9o","Étoile de Tunis","48.8869628","2.3498001",NA,"3.8","25","restaurant bar food point_of_interest establishment"
"ChIJEcYnN2Zu5kcRPLXKtficnF8","Dastroy Isabelle","48.8872819","2.3502359",NA,NA,NA,"point_of_interest establishment"
"ChIJEcYnN2Zu5kcRl5Y39gb76wM","Philibert Francoise","48.8872819","2.3502359",NA,NA,NA,"physiotherapist health point_of_interest establishment"
"ChIJCU7JMGZu5kcRpgdUvbGe5cg","Sophixa","48.8872417","2.3504311",NA,NA,NA,"point_of_interest establishment"
"ChIJsRYKM2Zu5kcRlAxVXyeWjv0","Chirurgien Dentiste Raphael Bellity","48.8872445","2.3499399",NA,"1","1","dentist health point_of_interest establishment"
"ChIJsRYKM2Zu5kcRKYMW3ULh3TQ","Lambert Benoit","48.8872445","2.3499399",NA,NA,NA,"point_of_interest establishment"
"ChIJ2dh9caBv5kcReikHLknm9Og","Haouzi Guy","48.8872542","2.3499472",NA,NA,NA,"dentist health point_of_interest establishment"
"ChIJVVVhM2Zu5kcRXIEjb_gJI_o","Studio 20+100","48.8872542","2.3499472",NA,NA,NA,"point_of_interest establishment"
"ChIJta-HLGZu5kcRTbxl8MGoJ8s","SAMIA COSMETIQUES","48.8867428","2.3499805",NA,"4","1","point_of_interest store establishment"
"ChIJbaGd0mdu5kcRx9fvTI9x8aA","Château Rouge","48.8869585","2.349693",NA,"3.8","6","transit_station point_of_interest establishment"
"ChIJSSTr7u5v5kcRGzDxjzZbZOY","Au Fournil de Myrha","48.886803","2.3505327",NA,"2.7","3","bakery food point_of_interest store establishment"
"ChIJN0mQJWZu5kcRfFMQ2c9h5Nw","Ricci Serge","48.886803","2.3505327",NA,NA,NA,"point_of_interest establishment"
"ChIJFcC3GgZv5kcRmNo_AYyWYK4","Charles François Aimé Oziouls Toulouse","48.886735","2.3504217",NA,NA,NA,"electronics_store home_goods_store point_of_interest store establishment"
"ChIJF4anLmZu5kcRo4see0W-A4s","El Djamal","48.8866872","2.3501431",NA,"2.5","2","point_of_interest establishment"
"ChIJmxUo02du5kcRZKPodQJoo0s","Nataniel","48.8867986","2.3498009",NA,NA,NA,"point_of_interest establishment"
"ChIJMUyPJWZu5kcR5yOCeaLGvWM","Meftahi A.S","48.8867562","2.3505257",NA,NA,NA,"point_of_interest establishment"
"ChIJP6JHuPVv5kcRJmzXHgCOq90","Western Union","48.886677","2.350028",NA,NA,NA,"finance point_of_interest establishment"
"ChIJeWODzmdu5kcR9vbZjrrUrnI","Château Rouge","48.8871846","2.3497171",NA,"3.2","94","subway_station transit_station point_of_interest establishment"
"ChIJq0H0NGZu5kcRo_wZvKFG5RY","Poissonnerie Les Embruns SARL","48.8873655","2.3500065",NA,"3.5","4","food point_of_interest establishment"
"ChIJVVU5O2Zu5kcRoKEFuJBblhE","Boucherie Barbès","48.8870015","2.3507615",NA,NA,NA,"point_of_interest establishment"
"ChIJxTBKOmZu5kcRHYZcgTQ-LJE","La Maison des Affaires SARL","48.8872322","2.3506554",NA,"5","1","hardware_store point_of_interest store establishment"
"ChIJj2VMZ2hu5kcRrBNGyl4HXu0","Karamoko Mariam","48.8867485","2.3497835",NA,NA,NA,"health point_of_interest establishment"
"ChIJq4K4JGZu5kcRAz_idOdk_j8","Congo Miss","48.8868967","2.3507378",NA,NA,NA,"point_of_interest establishment"
"ChIJbe4102du5kcRxpbwEH4z9Ps","Ultra Phone","48.8867315","2.349792",NA,NA,NA,"point_of_interest store establishment"
"ChIJCXH-JGZu5kcRUTPy3nhjEYc","Discount Exotic","48.8868045","2.3506866",NA,NA,NA,"point_of_interest establishment"
"ChIJAaDlJGZu5kcRuNwR7BPnAZA","Fanama Boutique","48.8868352","2.3507202",NA,NA,NA,"point_of_interest establishment"
"ChIJSzOxLGZu5kcRpMjlOWrPwyk","Etoile D Orient","48.8867058","2.349821",NA,NA,NA,"point_of_interest establishment"
"ChIJtdVXNGZu5kcRTYyznt0EEzE","Le fournil de Paris","48.8873993","2.3500258",NA,"4","1","bakery food point_of_interest store establishment"
"ChIJFQFgKWZu5kcRQ3SMrHYE0lA","Fly Communication","48.8865679","2.3500711",NA,"5","9","finance point_of_interest establishment"
"ChIJY1WwKGZu5kcRGs4q-PGuj0E","City-Pharma","48.8866044","2.3504319",NA,"4.5","2","point_of_interest establishment"
"ChIJY1WwKGZu5kcRs9Tnene_Xe4","Pharmacie Myrha","48.8866044","2.3504319",NA,"5","3","pharmacy health point_of_interest store establishment"
"ChIJge1EKGZu5kcRlST2NNPutzI","Sitbon Jean-Luc","48.8866044","2.3504319",NA,NA,NA,"pharmacy health point_of_interest store establishment"
"ChIJe1_JKGZu5kcRwESq8wbakpk","Afri Phone","48.886604","2.350432",NA,"4.8","44","point_of_interest store establishment"
"ChIJT-XQKGZu5kcRlMsNfRKD-nI","Cm Exotique","48.8865863","2.3503576",NA,NA,NA,"point_of_interest establishment"
"ChIJbeSrNWZu5kcRaClbw8xDpcg","Pomi","48.8874475","2.3500474",NA,NA,NA,"point_of_interest establishment"
"ChIJ3eGPO2Zu5kcR8TXCWLBps6g","Café Social Dejean","48.8871417","2.3508392",NA,NA,NA,"cafe food point_of_interest establishment"
