"Id","Name","Lat","Lng","Rating","Nb_Rating","Type"
"ChIJIwo80RJu5kcR6saPX4shnrE","Square Alban Satragne","48.8757476","2.3549626",NA,NA,"route"
"ChIJ653g-mxu5kcRI0YhhV7gbaI","Parking Indigo Paris Alban Satragne-Magenta","48.8754154","2.3547393","2.6","76","parking point_of_interest establishment"
"ChIJbUkuKhNu5kcR6Cb8uRDNx48","Le Pari's des Faubourgs","48.8755777","2.3542754","4.6","16","point_of_interest establishment"
"ChIJ8868rUFu5kcR88z143WRmoQ","Ateliers de Propreté","48.8757249","2.3548204",NA,NA,"local_government_office point_of_interest establishment"
"ChIJY9x1pcRv5kcRkwSFf87IjNY","Recuerdos de Casa San Lázaro","48.8756202","2.3547112",NA,NA,"point_of_interest establishment"
"ChIJ5-K1ljlv5kcRs4mps1UjZnY","Nursery School Léon Schwartzenberg","48.8759471","2.3540478",NA,NA,"school point_of_interest establishment"
"ChIJz0kb0BJu5kcRQVVYV0Xzwwg","Square","48.8755612","2.3551697",NA,NA,"park point_of_interest establishment"
"ChIJ5T71zxJu5kcRih5Bwwo6KZg","Square Alban Satragne","48.8756","2.3551123",NA,NA,"park town_square premise point_of_interest establishment"
"ChIJD7fiBh9u5kcRYJSMaMOCCwQ","Paris","48.856614","2.3522219",NA,NA,"locality political"
