"Id","Name","Lat","Lng","Price_level","Rating","Nb_Rating","Type"
"ChIJK0V3r4Ft5kcR2sVKflkZX34","137-129 Boulevard Davout","48.8579615","2.4097232",NA,NA,NA,"route"
"ChIJuSfgq4Ft5kcRs4OLDD3ht_s","Sejours & Affaires Paris","48.8576584","2.40958",NA,"4.3","228","lodging point_of_interest establishment"
"ChIJh-EcqIFt5kcRqlE_W7YTUtI","actes des colloques de l aidelf","48.8579936","2.4092982",NA,NA,NA,"point_of_interest establishment"
"ChIJT0lnD4Ft5kcRZ7jSAf_jvfQ","étude Elfe","48.8580695","2.4088491",NA,NA,NA,"point_of_interest establishment"
"ChIJZYHaroFt5kcR_cC91snWPGM","ALDI","48.857719","2.409535","1","3.8","645","supermarket bakery grocery_or_supermarket liquor_store food point_of_interest store establishment"
"ChIJ_06dBYFt5kcRtf1YaDpv0SI","Centre Population Et Développement (CEPED","48.8580695","2.4088491",NA,NA,NA,"point_of_interest establishment"
"ChIJ_yBn_oBt5kcRGZae3jUJYjw","Olivier Bocquet","48.8572835","2.4089522",NA,NA,NA,"point_of_interest establishment"
"ChIJD7fiBh9u5kcRYJSMaMOCCwQ","Paris","48.856614","2.3522219",NA,NA,NA,"locality political"
