"Id","Name","Lat","Lng","Price_level","Rating","Nb_Rating","Type"
"ChIJ4dXdzZZt5kcR5OQfjaNEZ5Y","144-166 Rue de Ménilmontant","48.8705256","2.3982358",NA,NA,NA,"route"
"ChIJ_eKrTJFt5kcR-Lb21QJob_k","VTC ASSOCIATION OF FRANCE","48.8702286","2.3972877",NA,"3.7","6","point_of_interest establishment"
"ChIJw-KrTJFt5kcRc7kjpvlm8Jk","Municipality of Paris","48.8702284","2.3972874",NA,NA,NA,"point_of_interest establishment"
"ChIJjY8otZZt5kcRTACjVW1-0AQ","Nursery School Mairie De Paris","48.8700755","2.3970516",NA,"5","1","point_of_interest establishment"
"ChIJJZIpSpFt5kcRJZMcDaIsFu8","Anne France, sculpteur","48.8699349","2.3974827",NA,NA,NA,"point_of_interest establishment"
"ChIJGUWiypZt5kcRH1m0HrLpwQE","Benoît Castel","48.870337","2.3980907","2","4.2","423","bakery food point_of_interest store establishment"
"ChIJrxH8QoZt5kcRPpnaToyAclc","Arnouxmtouillet","48.8699349","2.3974827",NA,NA,NA,"point_of_interest establishment"
"ChIJ6T8aSpFt5kcR_YKFpHWBKFY","Bitton Romain","48.8700811","2.3973954",NA,NA,NA,"point_of_interest establishment"
"ChIJPfD2Tblt5kcR-lvZXKdMna8","Lycee Rabelais","48.8701574","2.3973752",NA,NA,NA,"school point_of_interest establishment"
"ChIJjY8otZZt5kcRvP3qCrQzglQ","Le Pommier","48.8702419","2.397754",NA,"4","4","food point_of_interest establishment"
"ChIJ46wiv-Rt5kcRhgz9hAN79qs","Fruits et Légumes - Primeur","48.8702559","2.3977771",NA,NA,NA,"grocery_or_supermarket food point_of_interest store establishment"
"ChIJaSGKt9Bt5kcRZu0EqWdEZhQ","AMAP des Hauts de Belleville","48.8702559","2.3977771",NA,NA,NA,"point_of_interest establishment"
"ChIJa3zz1hNt5kcRySPVezx46Mo","Les Gueules de Bois - Espace associatif","48.8702728","2.3978257",NA,NA,NA,"point_of_interest establishment"
"ChIJBZ9xTZFt5kcRzMkf4-aOlSA","San Super Marche","48.8701263","2.397007",NA,"2","2","supermarket grocery_or_supermarket food point_of_interest store establishment"
"ChIJaam-MZFt5kcRbIEU7uRR2cU","Pierre-Seghers Garden","48.8698167","2.3982181",NA,"3.6","9","park point_of_interest establishment"
"ChIJc9hLrZZt5kcRbKiQXv4kBkY","Mobri","48.8702666","2.3970243",NA,"5","5","restaurant food point_of_interest establishment"
"ChIJD7fiBh9u5kcRYJSMaMOCCwQ","Paris","48.856614","2.3522219",NA,NA,NA,"locality political"
