"Id","Name","Lat","Lng","Price_level","Rating","Nb_Rating","Type"
"ChIJwzzs-cRt5kcRrEqXWqTrTFs","4 Rue Manin","48.8825653","2.3829258",NA,NA,NA,"route"
"ChIJZwtAotpt5kcRPZOIusdzRDM","Mairie du 19e arrondissement de Paris","48.8829193","2.3819825",NA,"3.7","96","local_government_office point_of_interest establishment"
"ChIJLfQ65cRt5kcR-nqSynEEYzI","Psychologue Paris 19eme Cabinet Cauvin","48.8827938","2.3827051",NA,NA,NA,"health point_of_interest establishment"
"ChIJ39Mg48Rt5kcRseAMKIH4ipY","Maison BURY","48.8829792","2.38248",NA,"4.1","14","bakery food point_of_interest store establishment"
"ChIJwx2D_cRt5kcRHGn1rkcNakY","Cabinet jmh","48.8831231","2.3825814",NA,NA,NA,"point_of_interest establishment"
"ChIJVVVR_cRt5kcRa9M3z2ssO2E","Trajectoires","48.8831231","2.3825814",NA,NA,NA,"point_of_interest establishment"
"ChIJ4xoGTbht5kcRtjU0_XKvauQ","Caisse des Ecoles du 19ème","48.88288","2.3819672",NA,"4","4","point_of_interest establishment"
"ChIJ2fk2_sRt5kcRPHx56KVbE78","POP STARTUP","48.883065","2.383052",NA,"5","2","point_of_interest establishment"
"ChIJG1on6MRt5kcR9imNEAN40BY","Kaskad Café","48.8826831","2.3829333","2","4.1","382","cafe bar restaurant food point_of_interest establishment"
"ChIJ5cXL-MRt5kcRgO4gHd9OrOY","Débrouille compagnie","48.8828005","2.3831341",NA,NA,NA,"point_of_interest establishment"
"ChIJR4vU4sRt5kcRKE_0ccEh-nE","Sushi Tokyo","48.8830591","2.3825979","1","4.2","83","restaurant food point_of_interest establishment"
"ChIJx3p4-8Rt5kcRGKzblEugwqU","Belib' Charging Station","48.8827566","2.3825814",NA,"1","2","point_of_interest establishment"
"ChIJx3p4-8Rt5kcRAeukz90WoG4","Marchewka","48.8827938","2.3827051",NA,NA,NA,"point_of_interest establishment"
"ChIJ6x7G-8Rt5kcRJJeyWxnFFvw","La Cascade","48.8827062","2.3828057",NA,NA,NA,"point_of_interest establishment"
"ChIJD3I048Rt5kcRWHzbJiQ4faM","Boulangerie Pâtisserie des Buttes Chaumont","48.8829792","2.38248",NA,"2.1","13","bakery food point_of_interest store establishment"
"ChIJ0WG3wsRt5kcR7cbZxBvConA","Hattab Serge","48.882723","2.3828996",NA,NA,NA,"point_of_interest establishment"
"ChIJxSPR4sRt5kcR69rumrUI_xI","Boulangerie Meynadier","48.8830105","2.3825185",NA,NA,NA,"bakery food point_of_interest store establishment"
"ChIJIXkt_MRt5kcRtJyvMobR-sE","Immeuble art nouveau","48.8829705","2.3828561",NA,"3","1","point_of_interest establishment"
"ChIJM1Qp_MRt5kcR7mR127lupuQ","Dragon en pierre","48.882959","2.3828766",NA,NA,NA,"point_of_interest establishment"
"ChIJD7fiBh9u5kcRYJSMaMOCCwQ","Paris","48.856614","2.3522219",NA,NA,NA,"locality political"
"ChIJv3bD78Rt5kcRsQdbsd3itTI","Armand Carrel - Mairie du 19e","48.882421","2.3824465",NA,NA,NA,"transit_station point_of_interest establishment"
"ChIJP-xD_sRt5kcRVps9VC6QimY","Dr Virginie CASPARD","48.882991","2.3829721",NA,"4.1","44","veterinary_care point_of_interest establishment"
"ChIJFbL2_sRt5kcRXUBWI6UmURw","JULIEU NELLY","48.8828174","2.3831102",NA,NA,NA,"doctor health point_of_interest establishment"
"ChIJQeMdVsRt5kcRm7G1faqm1mU","Allouche Bisraor Alexandra","48.8827971","2.3831258",NA,"4.7","10","dentist health point_of_interest establishment"
"ChIJQeMdVsRt5kcRmPYAJwNPnnI","Vialacre Andrée","48.8827971","2.3831258",NA,NA,NA,"point_of_interest establishment"
"ChIJQeMdVsRt5kcRSTTNs55w3cM","Maksym Jean Pierre","48.8827971","2.3831258",NA,NA,NA,"point_of_interest establishment"
"ChIJG9UuLVVt5kcRuCkFUV2mkAU","POMPES FUNÈBRES DE FRANCE - Paris 19","48.883146","2.382655",NA,"4.8","8","funeral_home point_of_interest establishment"
"ChIJeU0Dlgpy5kcRomRVNXE5QOs","Ambulances Sainte Catherine 75","48.8831462","2.3826559",NA,"3.6","9","health point_of_interest establishment"
"ChIJ3fuCy0Jt5kcRKf-3B3Wl5vQ","Reclaim Finance ONG","48.8828005","2.3831341",NA,"5","3","point_of_interest establishment"
"ChIJv74X78Rt5kcRD8xOZt3QIMA","Armand Carrel - Mairie du 19e","48.8824543","2.3822163",NA,"5","3","bus_station transit_station point_of_interest establishment"
"ChIJv15n8MRt5kcRc4PSI5e_O7o","Armand Carrel - Mairie du 19e","48.8823933","2.3826827",NA,"4","1","transit_station point_of_interest establishment"
"ChIJTfGerbnB9EcRo1cZ9bLNeK0","Hôpital","48.8828129","2.3831376",NA,NA,NA,"doctor health point_of_interest establishment"
"ChIJ14Po4MRt5kcRWoroAXXcQw8","Sarl Leconte","48.8829304","2.3819706",NA,NA,NA,"point_of_interest establishment"
"ChIJf_c2_sRt5kcRLZY1E-NNSTw","CERESA FILMS","48.8830649","2.3830521",NA,NA,NA,"point_of_interest establishment"
