"Id","Name","Lat","Lng","Rating","Nb_Rating","Type"
"ChIJD7fiBh9u5kcRYJSMaMOCCwQ","Paris","48.856614","2.3522219",NA,NA,"locality political"
"ChIJpc0QHYBu5kcRttMexjnATv4","Verre & Image","48.8967505","2.3684794","2.8","4","point_of_interest establishment"
"ChIJo90EcCVs5kcRzUEQXcUMHvQ","T&K EUROPE","48.8966524","2.3684677","5","3","point_of_interest establishment"
"ChIJIXp9HYBu5kcRUGrEZBty948","Magneta SAS","48.896881","2.368518",NA,NA,"point_of_interest establishment"
"ChIJOeU4F4Bu5kcRVfe43pMrXMk","Adhesif Fleuret","48.8966136","2.3676987","3","2","point_of_interest store establishment"
"ChIJx5t0Ig5v5kcRHr1AiP8Dt_k","德客高朋 Groupal","48.8965781","2.3685667",NA,NA,"point_of_interest establishment"
"ChIJZamWt2Bu5kcRYBuUaMOCCwU","18th arrondissement of Paris","48.8915856","2.3495999",NA,NA,"sublocality_level_1 sublocality political"
