"Id","Name","Lat","Lng","Price_level","Rating","Nb_Rating","Type"
"ChIJex3a0dZt5kcRNAayIBzXV4g","66-72 Avenue de Flandre","48.8889495","2.3748261",NA,NA,NA,"route"
"ChIJuY4UydZt5kcRkDOxWpnppQQ","Picard","48.889307","2.3743794",NA,"4.1","87","food point_of_interest store establishment"
"ChIJn5rI0NZt5kcR1aNZEYWYCs0","Traiteur Chêne","48.8887497","2.3748226",NA,"5","3","food point_of_interest establishment"
"ChIJ4_X63NZt5kcRSJ8M_6-kGJU","Organ Technol Appre Promotion Educatio","48.8888299","2.3748514",NA,NA,NA,"health point_of_interest establishment"
"ChIJ2Qiy0tZt5kcRgX0M4gcULts","Domino's Pizza Paris 19 - Flandre","48.8889302","2.3749955","2","3.6","148","restaurant food point_of_interest establishment"
"ChIJv9m30dZt5kcR-En6g0aRqtU","Boutique Orange Gdt Flandre - Paris 19","48.8888061","2.3749754",NA,"3.6","146","point_of_interest store establishment"
"ChIJh4kJ0dZt5kcRoq0Ycrajr7Y","André","48.8886296","2.3746217",NA,"3.1","29","shoe_store point_of_interest store establishment"
"ChIJ8_XDxdZt5kcR0PiaEWA8EeM","Crytea Netware","48.8892354","2.374517",NA,"5","5","point_of_interest establishment"
"ChIJ8_XDxdZt5kcRbbqA5tvujpQ","NetPlay BlackStream","48.8892354","2.374517",NA,"5","1","point_of_interest establishment"
"ChIJY7SOzdZt5kcRe389WxXVGcY","Casino supermarché","48.8891402","2.3742416",NA,"3.3","707","supermarket grocery_or_supermarket food point_of_interest store establishment"
"ChIJ99u02dZt5kcRJsvYwHPosmM","Presse","48.8884945","2.3744743",NA,"3","1","point_of_interest store establishment"
"ChIJxaJey9Zt5kcRJOcLZeAfZuA","Ixoria Assurance","48.8889194","2.3752855",NA,"2.3","8","insurance_agency real_estate_agency point_of_interest establishment"
"ChIJfzAF0tZt5kcRcxadUrXtwhg","Mode Plus","48.888464","2.3745183",NA,"4","1","point_of_interest clothing_store store establishment"
"ChIJ2Qiy0tZt5kcR44enDP0286Q","eSpace architecture","48.8889194","2.3752855",NA,NA,NA,"point_of_interest establishment"
"ChIJSz0e0dZt5kcR_M4Refnr1dg","Maison Maaned Boulangerie Patisserie","48.8887476","2.3747672","2","4.1","71","bakery food point_of_interest store establishment"
"ChIJoe3e0NZt5kcR5-XHykFTwFA","Sarl Saray","48.8887222","2.374744",NA,NA,NA,"point_of_interest establishment"
"ChIJz-G8zdZt5kcRJ11swtfUd04","Akdeniz","48.8887176","2.3747384","1","4.1","92","restaurant food point_of_interest establishment"
"ChIJ58eb0dZt5kcR4lZQVNUXPFk","Indivision Dieppedalle","48.8888092","2.3749601",NA,NA,NA,"real_estate_agency point_of_interest establishment"
"ChIJhYp9xdZt5kcRugzQGrH7YRc","A@B","48.8890944","2.3743373",NA,NA,NA,"point_of_interest establishment"
"ChIJD7fiBh9u5kcRYJSMaMOCCwQ","Paris","48.856614","2.3522219",NA,NA,NA,"locality political"
"ChIJiy5Xw9Zt5kcRru6FpH2gkQY","Noir & Rouge","48.8890127","2.374236",NA,NA,NA,"point_of_interest establishment"
"ChIJjyxO19Zt5kcRLRKb9-pkI6Y","Kop Media","48.8886296","2.3746217",NA,NA,NA,"point_of_interest establishment"
"ChIJa3KrwxJt5kcRELhhWZVS-BE","UPS Access Point","48.88898","2.37507",NA,NA,NA,"point_of_interest establishment"
"ChIJ2Qiy0tZt5kcRUBkwc-8UMV8","Assurances","48.8889791","2.375073",NA,NA,NA,"point_of_interest establishment"
"ChIJuY4UydZt5kcRVcOGKih1XP0","McDonald's","48.889307","2.3743794","1","3.3","953","restaurant food point_of_interest establishment"
"ChIJ2Qiy0tZt5kcRYDwiNLqqGC8","37 Express","48.8890308","2.3751572",NA,"3.2","15","point_of_interest establishment"
"ChIJxaJey9Zt5kcRYJKlGuzINQY","Monge Thierry","48.888942","2.3751961",NA,NA,NA,"point_of_interest establishment"
"ChIJfew70dZt5kcRy3W09RvDFDM","Riquet","48.8885519","2.3744354",NA,"4","3","bus_station transit_station point_of_interest establishment"
"ChIJa_h5xdZt5kcRJjDnywC6KNU","Aman Whadjah","48.8893115","2.3746129",NA,NA,NA,"point_of_interest establishment"
"ChIJCWK3Rtht5kcRuZuv_sn02rI","Toilette Publique","48.8887851","2.3740483",NA,"3","1","point_of_interest establishment"
"ChIJIYuo09Zt5kcRAX_Ma1zz0JE","Jagot Cyril","48.8887455","2.3751796",NA,NA,NA,"point_of_interest establishment"
"ChIJqUUVxtZt5kcR1wDqZjkFZpw","SFR","48.889307","2.3743794",NA,"3.1","77","point_of_interest store establishment"
"ChIJKQJZ39Zt5kcRABiF40CoC8o","Aux Viandes de Flandre.","48.8884601","2.3745614",NA,"5","6","food point_of_interest store establishment"
"ChIJq6q6w9Zt5kcRqX7eS4Kl6Jg","Immobiliere 3 F","48.8891802","2.3741384",NA,NA,NA,"point_of_interest establishment"
"ChIJodNU3gFt5kcRvvoWbuK6yY0","s a immobilier","48.8891802","2.3741384",NA,NA,NA,"point_of_interest establishment"
"ChIJO8KL3dZt5kcRkkR4cSKW0Xs","Los ""Órganos de Flandes""","48.8891802","2.3741384",NA,NA,NA,"lodging point_of_interest establishment"
"ChIJbx6fxtZt5kcR-Zh2hejfWL8","陈氏商场","48.889307","2.3743794",NA,"4.5","6","supermarket grocery_or_supermarket food point_of_interest store establishment"
"ChIJbx6fxtZt5kcR6gcv3z-r7XE","OPEN ASSURANCES PARIS","48.889307","2.3743794",NA,"3","2","insurance_agency point_of_interest establishment"
"ChIJPfSMV5tt5kcRaIAt3AEIJ1g","Toilettes Publiques","48.8886315","2.3741379",NA,NA,NA,"point_of_interest establishment"
"ChIJ2Qiy0tZt5kcRJyDRweZXrcE","Opticalevy","48.8889194","2.3752855",NA,NA,NA,"point_of_interest establishment"
"ChIJj_w3wJ9t5kcReI8f5HRGklA","GLASSGOW WINDOWS","48.8889194","2.3752855",NA,"5","2","point_of_interest establishment"
"ChIJ2Qiy0tZt5kcROwuUV_Bt2k0","Vapeco","48.8889194","2.3752855",NA,NA,NA,"point_of_interest establishment"
"ChIJ2Qiy0tZt5kcRLC0Tim_ehf0","R.s.c","48.8889194","2.3752855",NA,NA,NA,"point_of_interest establishment"
"ChIJ2Qiy0tZt5kcRIfG7LwDVQp0","Vap Co","48.8889194","2.3752855",NA,NA,NA,"point_of_interest establishment"
"ChIJJwmy0tZt5kcRLvz3BKmFZ2U","Ze boîte","48.8889194","2.3752856",NA,"5","1","point_of_interest establishment"
"ChIJuw6y0tZt5kcROfSGpw0Wykc","37Express巴黎19区Crimée门店","48.888919","2.375286",NA,"5","1","point_of_interest establishment"
"ChIJqUUVxtZt5kcR_4FLTu-dw34","Tony RAAD, Cabinet de Kinésithérapie.","48.8893653","2.374553",NA,"3.7","3","health point_of_interest establishment"
"ChIJd_Kd2dZt5kcRTfDKvkpuq_4","Délicatesse Exotique","48.8884601","2.3745614",NA,"3.8","5","restaurant food point_of_interest establishment"
"ChIJKQJZ39Zt5kcR1l7vXyfizzA","Sarl Huang","48.8884601","2.3745614",NA,NA,NA,"restaurant food point_of_interest establishment"
