"Id","Name","Lat","Lng","Rating","Nb_Rating","Type"
"ChIJbYnptaRt5kcRGhAIu-8ZDTM","Boulevard Périphérique","48.8813493","2.4030857",NA,NA,"route"
"ChIJc3IWyKRt5kcRlDbWQc427a8","Les Marronniers","48.8816312","2.4030314",NA,NA,"transit_station point_of_interest establishment"
"ChIJk_W0fMQow0cRTrPS-mXLgUw","Mtop","48.8822206","2.4024728",NA,NA,"store furniture_store home_goods_store point_of_interest establishment"
"ChIJ8YA4JIBt5kcR0ALFxUFgz5Q","Private Middle School Saint Joseph","48.8820852","2.4032001","5","2","school point_of_interest establishment"
"ChIJfyzaLLtt5kcRl23b7Pq5L_g","Mairie du Pré-Saint-Gervais","48.882162","2.402227",NA,NA,"transit_station point_of_interest establishment"
"ChIJD7fiBh9u5kcRYJSMaMOCCwQ","Paris","48.856614","2.3522219",NA,NA,"locality political"
