"Id","Name","Lat","Lng","Rating","Nb_Rating","Type","Price_level"
"ChIJf9QJkJFt5kcRMCXlNqFIQKw","269-259 Rue des Pyrénées","48.8671077","2.3967612",NA,NA,"route",NA
"ChIJZ220vZFt5kcRGF0Z_gPHGaA","Beauty Body'Minute","48.8668176","2.3975821","4.1","56","beauty_salon point_of_interest store establishment",NA
"ChIJPR9ulZFt5kcRR5n9RWiNeLE","Editions Non Lieu","48.866669","2.3973279",NA,NA,"point_of_interest establishment",NA
"ChIJ9YvyjpFt5kcR0EPszVa-of4","Maroquinerie Voyage","48.8668136","2.3968181","5","1","point_of_interest store establishment",NA
"ChIJfToFkpFt5kcRb7Vwb-uw7BQ","Docteur Sabrina Soltani","48.8667651","2.396703","2","8","dentist health point_of_interest establishment",NA
"ChIJPSKbkpFt5kcRUMf1Gg_N5aU","Solemnes","48.866597","2.3966791",NA,NA,"health point_of_interest establishment",NA
"ChIJd-LV6pFt5kcRdxZvq1Yqqqs","Les Mutuelles de Paris","48.8663901","2.3970682",NA,NA,"insurance_agency health point_of_interest establishment",NA
"ChIJYZWl8pFt5kcRNVnSErgVjS8","SPITELEC","48.8666241","2.3965401",NA,NA,"electrician point_of_interest establishment",NA
"ChIJ98aE2_Rt5kcRHuiM90SCKy0","WCP","48.8666241","2.3965401",NA,NA,"point_of_interest establishment",NA
"ChIJ_8yk8pFt5kcR710-DgolNmM","PRODICIEL","48.8665002","2.3965905",NA,NA,"point_of_interest establishment",NA
"ChIJnWWPlZFt5kcR2TEinBuPR3s","Association Benjamin Fondane","48.866669","2.3973279",NA,NA,"point_of_interest establishment",NA
"ChIJN5fLkpFt5kcRslwzhi1ebKQ","U Express et drive","48.8664","2.3968641","3.2","257","supermarket grocery_or_supermarket food point_of_interest store establishment",NA
"ChIJaepzMo5t5kcRIrso8zHlLBo","Laloum Michèle","48.8670138","2.3970367","1","2","doctor real_estate_agency health point_of_interest establishment",NA
"ChIJP4Pfv5Ft5kcRhOnnVBY50bo","Coriolis Telecom","48.8665991","2.3973353","3.9","35","point_of_interest store establishment",NA
"ChIJ885q65Ft5kcR0qX-6D2uIoE","InfoPrint Services Paris 20","48.8663901","2.3970682","5","3","electronics_store point_of_interest store establishment",NA
"ChIJB-n0vZFt5kcRGMQbGseupww","Isabelle Et Valérie Ganachaud","48.8668566","2.3973878",NA,NA,"point_of_interest establishment",NA
"ChIJ5fFR7ZFt5kcRCL8N19emiGU","MonsieurCom","48.8663332","2.3968123",NA,NA,"point_of_interest establishment",NA
"ChIJi7lzl5Ft5kcRKMyd6owtpPw","Europa","48.8670338","2.3971731","5","1","point_of_interest establishment",NA
"ChIJiQyNvZFt5kcRI3kDtCzx_JQ","Laverie Lav'Club Orfila","48.8668989","2.3974694","3.5","15","laundry point_of_interest establishment",NA
"ChIJD7fiBh9u5kcRYJSMaMOCCwQ","Paris","48.856614","2.3522219",NA,NA,"locality political",NA
"ChIJ-ZY8lZFt5kcRhWMd0grX_3Q","Gastronomie du Terroir","48.8665991","2.3973353","2.7","3","food point_of_interest store establishment",NA
"ChIJOYoBv5Ft5kcR5Yb-ILnYjhk","BAA Béatrice Aoun Architecte","48.8666169","2.3975504","5","2","point_of_interest establishment",NA
"ChIJGVhG7JFt5kcRN_CEc4M4BQo","EUROCOM PUB","48.8662564","2.3968495",NA,NA,"point_of_interest establishment",NA
"ChIJ-6hgSpVt5kcRJt0VwBG_Nuw","Agence Punk","48.8665341","2.3966588","4","2","point_of_interest establishment",NA
"ChIJ1Vm8UO9t5kcR4INrtyj6gRs","Soba - South Belleville Architecture","48.8663396","2.3968194","5","3","point_of_interest establishment",NA
"ChIJyfpClJFt5kcRGCjRNJEQ4fw","La Flûte Gana","48.8668461","2.3972184","3.5","141","bakery food point_of_interest store establishment","3"
"ChIJWWt-kZFt5kcRPA_FhvrcieI","Boccara Victor","48.8667651","2.396703","3.7","12","doctor health point_of_interest establishment",NA
"ChIJGV14wJFt5kcRe0HM_GfRCHQ","Dres","48.866458","2.3974911",NA,NA,"doctor health point_of_interest establishment",NA
"ChIJRW6JmpFt5kcRugsqs-lDtR4","Nourissat Patrice","48.8671228","2.3971539",NA,NA,"general_contractor point_of_interest establishment",NA
"ChIJ-ZY8lZFt5kcRs6HnMt-1F1Y","Anger Pascal","48.8665991","2.3973353","5","20","health point_of_interest establishment",NA
"ChIJTbLBwJFt5kcRT7dYE-S_iPc","Chocolats De Neuville Paris Pyrénées","48.866447","2.3974925","4.6","32","food point_of_interest store establishment",NA
"ChIJPR9ulZFt5kcRLb1vV2Q7xWg","Nicolas Pyrénées","48.866669","2.3973279","4.1","20","liquor_store food point_of_interest store establishment","2"
"ChIJyfpClJFt5kcRUe3xPPDSQf8","Picard","48.8668781","2.3972187","4.4","60","food point_of_interest store establishment",NA
"ChIJWWt-kZFt5kcRl-bLUI1snRA","Docteur Claire Maury","48.866765","2.396703","3","2","dentist health point_of_interest establishment",NA
"ChIJd2-4k5Ft5kcRYT2lG5Fty28","Chocolatier Glacier","48.8667122","2.3968853",NA,NA,"point_of_interest establishment",NA
"ChIJNfmDk5Ft5kcRFCinxYfQmZM","Vapostore","48.8666534","2.3969809",NA,NA,"point_of_interest establishment",NA
"ChIJNfmDk5Ft5kcRbBEEsspLVoY","Vapostore Gambetta","48.8666534","2.3969809","4.7","94","point_of_interest store establishment",NA
"ChIJL8pkkZFt5kcRnC6-ZTtRXPI","Cabinet Dentaire","48.8667548","2.39681",NA,NA,"dentist health point_of_interest establishment",NA
"ChIJw7AvJoRt5kcRLH-LKC3GDfQ","Mona Lisait","48.8668136","2.3968181","4.6","49","book_store point_of_interest store establishment",NA
"ChIJfToFkpFt5kcRN7yENLVVH1g","Les fromages de Gambetta","48.8668136","2.3968181","4.8","45","food point_of_interest store establishment",NA
"ChIJPfyAjZFt5kcRcHbplb06nBE","Crêpes Salades","48.8666262","2.3967268","4.8","382","restaurant food point_of_interest store establishment","1"
"ChIJfToFkpFt5kcRxKosr2QR1TM","Natural City","48.8667651","2.396703","5","4","food health point_of_interest store establishment",NA
"ChIJWWt-kZFt5kcRfRG_aOLuE_I","Winkler Patricia","48.8667651","2.396703","2.5","11","doctor health point_of_interest establishment",NA
"ChIJD3YHwpFt5kcRJuardJbfEuQ","First Optic","48.8665348","2.3969918","3.1","20","health point_of_interest store establishment",NA
"ChIJtYVjjZFt5kcRuKVLs66vMvQ","Stolar Daniel","48.8666241","2.3965401",NA,NA,"real_estate_agency point_of_interest establishment",NA
"ChIJBwE165Ft5kcRGXxPb0qOO98","Eovi Mcd mutuelle","48.866466","2.3970867",NA,NA,"insurance_agency health point_of_interest establishment",NA
"ChIJXZgykJFt5kcRMtVS_wj32xI","Vog coiffure paris - pyrénées","48.8669641","2.3967009","4.1","41","beauty_salon hair_care health point_of_interest establishment",NA
"ChIJAda4kZFt5kcRlZiz0mz_KbM","Le Teinturier","48.866937","2.396654","4.5","22","laundry point_of_interest clothing_store store establishment",NA
"ChIJPR9ulZFt5kcRGweDXBY0IhA","Robin Daniel","48.8666853","2.3973808",NA,NA,"point_of_interest establishment",NA
"ChIJ885q65Ft5kcRCBqQxY69jQU","Poli Amandine","48.8663901","2.3970682",NA,NA,"point_of_interest establishment",NA
"ChIJq6r_7JFt5kcRonOtVX088P4","Groupe Endf","48.8663811","2.3967515",NA,NA,"point_of_interest establishment",NA
"ChIJ5c40l5Ft5kcRGRfv2T04P2A","Dr Nawal Amar","48.8670138","2.3970367","3.7","29","doctor health point_of_interest establishment",NA
"ChIJi7lzl5Ft5kcRQceEV34rx4k","Carrefour City","48.8670059","2.3971","3.1","57","supermarket bakery grocery_or_supermarket restaurant food point_of_interest store establishment",NA
"ChIJTadEzfBt5kcRBRwtFvyxOCQ","ENDF Climatisation","48.8663396","2.3968194",NA,NA,"general_contractor point_of_interest establishment",NA
"ChIJI1hG7JFt5kcRjzHLaN9sY7c","Plugin Records","48.8663397","2.3967987","5","1","electronics_store home_goods_store point_of_interest store establishment",NA
"ChIJ412M6pFt5kcRenEPYEtxgKc","Biofutur Paris rue des Pyrénées - Laboratoire d'Analyses de Biologie Médicale","48.8663215","2.3972044","4.1","25","health point_of_interest establishment",NA
"ChIJiW_dvZFt5kcR61A4xSR89s4","Enez Conseil","48.8668144","2.3974604",NA,NA,"point_of_interest establishment",NA
"ChIJYxRtt4Ft5kcRmywWmuAUA6Q","Emiliomtouillet","48.8670834","2.3970006",NA,NA,"point_of_interest establishment",NA
"ChIJKWaJmpFt5kcRd4gbb-puHr8","Boucherie centrale du XXeme","48.8670834","2.3970006","4","1","food point_of_interest store establishment",NA
"ChIJPaTgj5Ft5kcRyqE166mfObQ","Pereira Andre","48.8670181","2.3965397",NA,NA,"point_of_interest establishment",NA
