"Id","Name","Lat","Lng","Rating","Nb_Rating","Type"
"ChIJHyvjk9Vt5kcRhAsgSht_bT0","8-16 Rue Raymond Radiguet","48.8924992","2.370981",NA,NA,"route"
"ChIJhb9vhNVt5kcR8V7-qWR_DYg","Better Call Adama","48.8931067","2.3705019","5","1","point_of_interest establishment"
"ChIJ_5eGgH9u5kcRB4OIMPIMss0","Association CONCORDIA - Délégation régionale Île-de-France","48.8931067","2.3705019","5","1","point_of_interest establishment"
"ChIJhb9vhNVt5kcRPW13rfzjATU","Korhom","48.8931067","2.3705019","5","1","point_of_interest establishment"
"ChIJj79vhNVt5kcRqLR2yGBAAJ4","Association Kolone","48.8931067","2.370502","4.3","9","point_of_interest establishment"
"ChIJ84T6fH9u5kcRD1nIKUcbe2c","G.l.s","48.8929767","2.3697951",NA,NA,"point_of_interest establishment"
"ChIJH-Kj6QZv5kcRxsqakfnOrU8","Kad Alu","48.8930225","2.3698276",NA,NA,"lawyer point_of_interest establishment"
"ChIJwTnWCmVv5kcRdKRRUw--_mM","Collectif GFR","48.8930225","2.3698276","4","1","point_of_interest establishment"
"ChIJD7fiBh9u5kcRYJSMaMOCCwQ","Paris","48.856614","2.3522219",NA,NA,"locality political"
