"Id","Name","Lat","Lng","Price_level","Rating","Nb_Rating","Type"
"ChIJKdAer-Rt5kcRjYDOTd6fkOA","99-83 Avenue Parmentier","48.8661855","2.3738547",NA,NA,NA,"route"
"ChIJd8d3Sftt5kcRcjB73bG12JE","The Full Sun","48.8655863","2.3744892","2","4","660","cafe bar restaurant food point_of_interest establishment"
"ChIJozfqsuRt5kcRuV2IEYMxUWI","Laforet Parmentier agences immobilières paris 11 (Vente, location, gestion)","48.865902","2.37434",NA,"4.9","121","real_estate_agency point_of_interest establishment"
"ChIJxaxJVPtt5kcR4HtTW-5eBKo","La Maison Du Convertible - Paris République","48.8656141","2.3736424",NA,"3.9","160","furniture_store home_goods_store point_of_interest store establishment"
"ChIJozThTPtt5kcRdyuB6azELNE","Brigade Des Sapeurs-Pompiers De Paris-CIS Parmentier","48.8659624","2.3738623",NA,"4","9","fire_station point_of_interest establishment"
"ChIJozfqsuRt5kcRSnviqDQRePk","ID Fun Sushi.","48.8660431","2.3742511","2","4","53","restaurant food point_of_interest establishment"
"ChIJAUAMTftt5kcRJp939QiAGYo","Association Analyse Freudienne","48.865618","2.373806",NA,NA,NA,"health point_of_interest establishment"
"ChIJAUAMTftt5kcRdau-Fue3F0g","Dr. Levy Robert","48.8656178","2.3738061",NA,NA,NA,"health point_of_interest establishment"
"ChIJszGxVPtt5kcRwEXJfhde5ZM","Covalens","48.8656803","2.3740952",NA,NA,NA,"finance point_of_interest establishment"
"ChIJrzaTruRt5kcRfY8pRTMti5A","Immo Mandat","48.8659426","2.3742821",NA,NA,NA,"real_estate_agency point_of_interest establishment"
"ChIJrzaTruRt5kcRUt1LJaJjx74","Amo Agence Massis Opera","48.8659426","2.3742821",NA,NA,NA,"point_of_interest establishment"
"ChIJjxx8e0du5kcREAbcaOjSzPg","Autier Jean Philippe","48.8656906","2.3744739",NA,NA,NA,"lawyer point_of_interest establishment"
"ChIJH8HzreRt5kcRf3IBJmbc8Y8","La Gouttière","48.866096","2.374182",NA,"4.3","231","restaurant bar food point_of_interest establishment"
"ChIJk9MLLOdy5kcR8UCda-00ns4","Cattp République","48.8656127","2.3737886",NA,"5","1","hospital health point_of_interest establishment"
"ChIJd8d3Sftt5kcR58u5rkChPVg","Buret Frédéric","48.8657272","2.3743879",NA,NA,NA,"lawyer finance point_of_interest establishment"
"ChIJbVTOtORt5kcRvxUA7PAexDM","Esca","48.8659426","2.3742821",NA,NA,NA,"accounting finance point_of_interest establishment"
"ChIJcYCAuJ1t5kcRSSehZT67WEE","NATURALIA","48.865609","2.373908",NA,"1","1","supermarket grocery_or_supermarket food point_of_interest store establishment"
"ChIJeUaHh7pt5kcRR7O0MgGJyYg","Photo Histoire","48.8656178","2.3738061",NA,NA,NA,"point_of_interest establishment"
"ChIJKXj5axBl5kcR_1VmJI1Ytrg","Café De Paris","48.8656178","2.3738061",NA,NA,NA,"cafe food point_of_interest establishment"
"ChIJD7fiBh9u5kcRYJSMaMOCCwQ","Paris","48.856614","2.3522219",NA,NA,NA,"locality political"
"ChIJQYcVU_tt5kcRHBqqNrKQSzo","GREPFA FRANCE","48.8656178","2.3738061",NA,NA,NA,"point_of_interest establishment"
"ChIJAUAMTftt5kcRxMsDYa0QaPw","République Photo","48.8656178","2.3738061",NA,NA,NA,"health point_of_interest store establishment"
"ChIJA4G_svxt5kcRocGKTjTlzkk","CMP République","48.8656002","2.3737847",NA,"1.6","7","health point_of_interest establishment"
"ChIJo9eYVPtt5kcRUZNCRboQJ1g","The American Conservatory of Paris","48.8656113","2.3736807",NA,NA,NA,"point_of_interest establishment"
"ChIJxaxJVPtt5kcRe0Yp3CrEcoA","Cothenet Philippe","48.8656113","2.3736807",NA,"4.7","3","home_goods_store point_of_interest store establishment"
"ChIJF61JVPtt5kcR3P2vxhKrEhg","Berenguer Maria","48.865821","2.3735028",NA,NA,NA,"point_of_interest establishment"
"ChIJEac9AXVt5kcRp2rTNqidJuo","Infinitea","48.8659426","2.3742821",NA,"4.9","54","cafe restaurant food point_of_interest establishment"
"ChIJd29as-Rt5kcRZvBTITJ9IJ8","Patita Com (cybercafe)","48.8657272","2.3743879",NA,"4.2","18","finance point_of_interest store establishment"
"ChIJsd5CP31t5kcRURsUuNvfrck","Cholleton Christophe","48.8657272","2.3743879",NA,NA,NA,"point_of_interest establishment"
"ChIJd8d3Sftt5kcR6nQCIkr8Qjc","Lacrampe Catherine","48.8657272","2.3743879",NA,NA,NA,"point_of_interest establishment"
"ChIJfYonayxt5kcRTTNBGYaxyEE","Western Union","48.865727","2.374388",NA,NA,NA,"finance point_of_interest establishment"
"ChIJxaxJVPtt5kcR_aY3gvxJULs","L.m.r","48.865629","2.3734662",NA,NA,NA,"real_estate_agency point_of_interest establishment"
"ChIJrzaTruRt5kcRutXgF5raXKI","Chaplain Morgane","48.8660876","2.3738615",NA,NA,NA,"point_of_interest establishment"
"ChIJnwJCVftt5kcRYI9ijPXRAew","Cartes Postales Vieux Papiers","48.8656281","2.3734207",NA,NA,NA,"point_of_interest establishment"
"ChIJ15wqQbRt5kcRV829qsVDu4Y","Numero Studio","48.8655863","2.3744892",NA,NA,NA,"point_of_interest establishment"
"ChIJBX9sS_tt5kcRCMmi6kuqOFQ","Mididouze","48.8655863","2.3744892",NA,NA,NA,"health point_of_interest establishment"
"ChIJEanZtORt5kcRUnngwXnJtG8","Club-Acces","48.8657292","2.3745811",NA,"5","1","point_of_interest store establishment"
"ChIJ8c7lteNt5kcRtisvTX6BRjI","First Optic","48.8661924","2.3740484",NA,"2.5","15","health point_of_interest store establishment"
"ChIJSRmytuRt5kcRzsV7btyA-qQ","Montravel Santé","48.8660412","2.3744647",NA,NA,NA,"point_of_interest establishment"
