"Id","Name","Lat","Lng","Rating","Nb_Rating","Type"
"ChIJNYkPN5Ft5kcR0Qxm5pZNluE","16-30 Rue Hélène Jakubowicz","48.8697632","2.397809",NA,NA,"route"
"ChIJoXT9NpFt5kcRS7Qii1-V75k","Ellili Chokri","48.8695082","2.3983537",NA,NA,"point_of_interest establishment"
"ChIJ7Z6SJZFt5kcRK6WU3xuO_a8","Atelier de mosaïque - Isabelle Le Poul Noubissié","48.8695516","2.398562",NA,NA,"point_of_interest establishment"
"ChIJaam-MZFt5kcRbIEU7uRR2cU","Pierre-Seghers Garden","48.8698167","2.3982181","3.6","9","park point_of_interest establishment"
"ChIJP_eaPJFt5kcRnW5TOL7QSlc","Bati-Mous","48.8692531","2.3981574",NA,NA,"point_of_interest establishment"
"ChIJ76mYPJFt5kcR8HDI2Qc_xT4","Philippe Roux","48.8692531","2.3981574",NA,NA,"point_of_interest establishment"
"ChIJ5VVOIpFt5kcRBsksphBfFeM","De Forcade Hubert","48.8690994","2.3984904",NA,NA,"point_of_interest establishment"
"ChIJD7fiBh9u5kcRYJSMaMOCCwQ","Paris","48.856614","2.3522219",NA,NA,"locality political"
