"Id","Name","Lat","Lng","Rating","Nb_Rating","Type"
"ChIJf5Bh84tu5kcRPzgm5Aettls","Boulevard Périphérique","48.9010717","2.3525051",NA,NA,"route"
"ChIJGzZyGQxv5kcRyGM3qOb7cZ8","lisaa university","48.9006406","2.3523229",NA,NA,"school point_of_interest establishment"
"ChIJ6_GI7Itu5kcRgOE5D2yL3fo","Student Residence Studéa Jean Cocteau","48.9006406","2.3523229","2.8","50","lodging point_of_interest establishment"
"ChIJfZdUk4tu5kcRxZvLP3jc8Mg","G-Widgets","48.9004671","2.3523362","1","1","electronics_store point_of_interest store establishment"
"ChIJkd6mjotu5kcRNRfr3EjmpAU","Ben Ahmed Ghanderi","48.9005404","2.3519584",NA,NA,"point_of_interest establishment"
"ChIJD7fiBh9u5kcRYJSMaMOCCwQ","Paris","48.856614","2.3522219",NA,NA,"locality political"
