"Id","Name","Lat","Lng","Price_level","Rating","Nb_Rating","Type"
"ChIJs6mIggly5kcRvjmGhVs3YFM","37-27 Rue Faidherbe","48.8529615","2.3829563",NA,NA,NA,"route"
"ChIJC9HLgAly5kcRU2iTxARJDSw","Le Pure Café","48.853289","2.383442","2","4.4","657","cafe restaurant food point_of_interest store establishment"
"ChIJrxjYggly5kcRwj-iNSKU2mM","Post Office","48.8530627","2.38272",NA,"2.8","56","post_office finance point_of_interest establishment"
"ChIJrxjYggly5kcRf-wb-RIQg7w","Opus Certum","48.8530955","2.3830928",NA,"3.9","11","point_of_interest establishment"
"ChIJUyBIgQly5kcReza4yEHXuxo","Les Belles Plants","48.8531413","2.3832206",NA,"4.7","65","hair_care point_of_interest establishment"
"ChIJ4RcjKwpy5kcRpcza8qOJE-U","Karine Winszman Astrologie et coaching","48.8529373","2.3836608",NA,NA,NA,"point_of_interest establishment"
"ChIJnV5CDQly5kcRJdH5bmbiU6I","Dina Mortagne","48.8527965","2.3829112",NA,NA,NA,"point_of_interest establishment"
"ChIJtXCdgwly5kcRKQkfUd5lRsE","Debabeche Mayssa","48.8531864","2.3830375",NA,"5","4","doctor health point_of_interest establishment"
"ChIJ4RcjKwpy5kcRdwAsCCqMEls","Dutemple Bruno","48.8529373","2.3836608",NA,NA,NA,"health point_of_interest establishment"
"ChIJPQHPKgpy5kcRGJ1vV9tZw-k","PrepFinance","48.8529459","2.3836734",NA,NA,NA,"point_of_interest establishment"
"ChIJZZBlgwly5kcRKOXZDHEcMBI","Refuge BD","48.8532641","2.3828993",NA,"4.7","55","book_store point_of_interest store establishment"
"ChIJjxQEeAly5kcRS9X14MFeZio","Les Petits Matins","48.8529055","2.3827692",NA,NA,NA,"point_of_interest establishment"
"ChIJW1F5hgly5kcRDvh16jE493M","Franprix","48.85336","2.38322",NA,"2.9","26","supermarket grocery_or_supermarket restaurant food point_of_interest store establishment"
"ChIJWRSx1Aty5kcRPFt_ttKu1kA","Casa Valenciana Paris","48.8528781","2.3838279",NA,"4.4","14","point_of_interest establishment"
"ChIJmzFbNcRv5kcROHytPlisnJE","Novellini France","48.852987","2.382644",NA,"2.5","11","point_of_interest establishment"
"ChIJE3mY1Qty5kcRg0whncnXkbI","Firematel","48.8526354","2.3834715",NA,NA,NA,"point_of_interest establishment"
"ChIJF_f2nQly5kcRngMoF3RgJl0","Golder Associates Sarl","48.8529868","2.3826442",NA,NA,NA,"point_of_interest establishment"
"ChIJVVWZnQly5kcRMx3ZpU8jQ_o","Redsen","48.8529868","2.3826442",NA,NA,NA,"point_of_interest establishment"
"ChIJGTjwhAly5kcRQ_TR-2wqZMs","Bar à iode - Charonne","48.8534021","2.3830285",NA,"4.4","150","restaurant food point_of_interest establishment"
"ChIJD7fiBh9u5kcRYJSMaMOCCwQ","Paris","48.856614","2.3522219",NA,NA,NA,"locality political"
"ChIJ7-TxKwpy5kcR7D4zeTC8Ovg","GOAL France","48.853161","2.3838691",NA,NA,NA,"point_of_interest establishment"
"ChIJA_VLeAly5kcRy9DZOvpEh5g","Meichler Gisèle","48.8527408","2.3827543",NA,NA,NA,"point_of_interest establishment"
"ChIJVVUBggly5kcRN8mxZ8AVL44","Office notarial","48.8529366","2.3831673",NA,NA,NA,"finance point_of_interest establishment"
"ChIJ7WA2ggly5kcR30N7K4d-EZI","Anticipbtp","48.853051","2.3831211",NA,NA,NA,"point_of_interest establishment"
"ChIJRTMUKgpy5kcRWbIuUqGZCQ4","Stéphanie Lacroix Architecte DPLG","48.8531716","2.3836461",NA,NA,NA,"point_of_interest establishment"
"ChIJVe4Sgwly5kcRpsg1y6lg3KQ","ARTHURIMMO H3M","48.8530955","2.3830928",NA,"4.1","24","real_estate_agency finance point_of_interest establishment"
"ChIJ7-TxKwpy5kcRWVTuEIgwxmg","Accueil psychanalytique","48.8531577","2.3838889",NA,NA,NA,"point_of_interest establishment"
"ChIJ7Ukifwly5kcROXAPeTBYdMs","Le Parti du thé","48.852791","2.383249",NA,"4.8","89","grocery_or_supermarket food point_of_interest store establishment"
"ChIJxUlQhgly5kcR7NPiqeC86CU","CAPA","48.8534213","2.3833698",NA,NA,NA,"point_of_interest establishment"
"ChIJw-YLGgpy5kcRKZcb4BeDuvM","Recup'Hair","48.8526354","2.3834715",NA,"4.4","32","beauty_salon hair_care point_of_interest establishment"
"ChIJAbrxfgly5kcRvSrdlKhmSnY","Amapola Fleuriste","48.8526354","2.3834715",NA,"4.9","31","florist point_of_interest store establishment"
"ChIJG1_8gwly5kcR5NhgWrb48f8","POINT DE VENTE","48.853202","2.383196",NA,"4.5","46","real_estate_agency point_of_interest establishment"
"ChIJqZ2Gggly5kcR1kkfWWPSINg","Charonne - Chanzy","48.852947","2.382993",NA,NA,NA,"transit_station point_of_interest establishment"
"ChIJawJ1g89z5kcROeTf3jaff3U","Fanfest hotel","48.8529732","2.3831658",NA,NA,NA,"lodging point_of_interest establishment"
"ChIJtYmrgQly5kcRDExW7QPZQ3Y","Zipcar","48.853051","2.3833602",NA,NA,NA,"car_rental point_of_interest establishment"
"ChIJtYmrgQly5kcRhtL4iR7CHZY","Wudarski Pierre-Marie","48.853051","2.3833602",NA,NA,NA,"electronics_store home_goods_store point_of_interest store establishment"
"ChIJtYmrgQly5kcR8Qa0RywANrU","Charonne (11e) - R Jean Macé","48.8530854","2.38335",NA,NA,NA,"car_rental point_of_interest establishment"
"ChIJAUX1Rptz5kcRFU43AP7rKmg","MIAM!","48.8529366","2.3831673",NA,NA,NA,"restaurant food point_of_interest establishment"
"ChIJT8E24vRz5kcRRRSK9wUFC6E","B.GREEN concept store","48.8529366","2.3831673",NA,"5","8","florist home_goods_store general_contractor point_of_interest store establishment"
"ChIJtyYBggly5kcRBBnqi_HmjE0","Moyez Jade","48.8529366","2.3831673",NA,NA,NA,"point_of_interest establishment"
"ChIJ7WA2ggly5kcRCUiz7Xw03jc","PALLOME SAS","48.853051","2.3831211",NA,NA,NA,"point_of_interest establishment"
"ChIJxb9kgQly5kcRrnnOSrtLme4","Ovalum","48.853117","2.3832314",NA,NA,NA,"point_of_interest establishment"
"ChIJx6c-gQly5kcRbskBA22wsvo","Hilburn Fisher Gillian","48.853117","2.3832314",NA,NA,NA,"point_of_interest establishment"
"ChIJu-qPKgpy5kcRuy7hnQB3PmA","Cours D'allemand - Tout Niveau","48.8529965","2.3834922",NA,"3","1","point_of_interest establishment"
"ChIJudd-eeRz5kcRt-Js2P8ARUk","Mast'","48.853105","2.3830354",NA,"4.9","17","restaurant food point_of_interest establishment"
"ChIJxb9kgQly5kcRFHEJ0P5oRGo","Les Pénates","48.8532066","2.3832211",NA,"5","9","home_goods_store point_of_interest store establishment"
"ChIJIcKDggly5kcRWyS6LDfDebs","Agendar Eole","48.8529282","2.3829532",NA,NA,NA,"point_of_interest establishment"
"ChIJq7YY_bdz5kcRXGo0RYTImaQ","HANS CHEVIGNY","48.8527564","2.3832534",NA,NA,NA,"jewelry_store point_of_interest store establishment"
"ChIJPQHPKgpy5kcRFB0gv-lfgbw","parekl","48.8529373","2.3836608",NA,NA,NA,"point_of_interest establishment"
"ChIJ4RcjKwpy5kcRS2d3AM4m3sM","Cluse Michèle","48.8529373","2.3836608",NA,NA,NA,"health point_of_interest establishment"
"ChIJK5aD1gly5kcRDEXi2PkhDzU","Dreadluxe Dreadlocks Salon","48.8531716","2.3836461",NA,"4.6","150","beauty_salon hair_care point_of_interest establishment"
"ChIJs9JqKgpy5kcR9bJ90exiTbU","Ahtune Michel","48.8531716","2.3836461",NA,"5","2","lawyer point_of_interest establishment"
"ChIJJzg5hwly5kcRsDBjA6hTNNQ","Manifeste011","48.853282","2.3834659",NA,"4.8","64","clothing_store point_of_interest store establishment"
"ChIJOXfySqdz5kcR_8cD8WiHqRE","L'Antichambre persane","48.8529978","2.3837285",NA,NA,NA,"home_goods_store point_of_interest store establishment"
"ChIJI8-ghAly5kcRC_Bbg5wE6hs","Paris Est Real Estate - Agence immobilière de luxe à Paris","48.8532436","2.3829343",NA,"5","1","real_estate_agency point_of_interest establishment"
"ChIJIc-ghAly5kcReC-p1Km9Zzs","Appartis'immo","48.8532429","2.3829315",NA,NA,NA,"point_of_interest establishment"
"ChIJ9To6eAly5kcR59M5iUfmvQk","Constructions Mecaniques","48.8528117","2.3828897",NA,NA,NA,"point_of_interest establishment"
"ChIJBVxQ4J1z5kcRS1-iNAI7oWs","DINÈS Paris","48.8529055","2.3827692",NA,NA,NA,"general_contractor point_of_interest establishment"
"ChIJjxQEeAly5kcRQJN_Bgsla4Y","Tardien Jacob Gregoire","48.8529055","2.3827692",NA,NA,NA,"point_of_interest establishment"
"ChIJP9dzdwly5kcRHl_FQ-wT71g","Vincent Desevre","48.8527639","2.382868",NA,NA,NA,"health point_of_interest establishment"
