"Id","Name","Lat","Lng","Price_level","Rating","Nb_Rating","Type"
"ChIJlTqj6HFu5kcRRCsbJLLo0-Q","192-212 Rue du Faubourg Saint-Denis","48.8820813","2.3585684",NA,NA,NA,"route"
"ChIJzbvk6HFu5kcRGjYjRkv47eM","Asi Boucherie","48.8823955","2.3584554",NA,NA,NA,"food point_of_interest store establishment"
"ChIJL_1ownFu5kcRPz0_7TZOiQU","Vs Compagnie","48.8824097","2.3588907",NA,NA,NA,"grocery_or_supermarket food point_of_interest store establishment"
"ChIJ1c746XFu5kcR9r4JWDAe1_Q","Hot Breads Paris","48.8823449","2.3588642","2","4","75","bakery food point_of_interest store establishment"
"ChIJz75S_HFu5kcRa0mo4hO84Bk","Restaurant Shalini","48.8822553","2.3588416",NA,"4.1","113","restaurant food point_of_interest establishment"
"ChIJnb4ownFu5kcROkFVXPqo5iQ","Institut de beauté Gooday","48.8824756","2.3589425",NA,"3.7","35","beauty_salon point_of_interest establishment"
"ChIJFb1DwXFu5kcRf6j3CYxqrpU","Maison Coucou","48.8826138","2.3590189",NA,NA,NA,"point_of_interest establishment"
"ChIJUX2B5nFu5kcRzVr3k4_qsAg","Handsome Boys","48.8820778","2.3583536",NA,"1","2","point_of_interest establishment"
"ChIJK1G_w3Fu5kcRRGyXwvPuE5k","SP Traders","48.8826185","2.3587216",NA,"4.3","6","grocery_or_supermarket food point_of_interest store establishment"
"ChIJ2UR5w3Fu5kcRThwvIeKBqT0","Taï Chi Chuan Paris","48.8826642","2.3587569",NA,NA,NA,"health point_of_interest establishment"
"ChIJzbvk6HFu5kcRuWD1bAjRjhw","Beauty Queen","48.882267","2.3585214",NA,"3.1","174","beauty_salon hair_care spa point_of_interest establishment"
"ChIJryPZwnFu5kcRZLNWVP8ytNM","VS.CO","48.8827749","2.3588267",NA,"4","1246","grocery_or_supermarket food point_of_interest store establishment"
"ChIJfT9KwnFu5kcRwbc4f9gIwoE","Cail - Demarquay","48.882513","2.358845",NA,NA,NA,"transit_station point_of_interest establishment"
"ChIJlwJpwnFu5kcR9XdN6W4AxmA","Eva Travels Sarl","48.8823974","2.3589265",NA,"3.4","15","travel_agency point_of_interest establishment"
"ChIJ1xTHL6Vv5kcRg5cBNwdOT10","Appartement paris","48.8823032","2.3588786",NA,NA,NA,"lodging point_of_interest establishment"
"ChIJafyB0G5L9EcRCQ5ICC_cV_Q","Patricia REGE - Psychologue","48.8823032","2.3588786",NA,NA,NA,"health point_of_interest establishment"
"ChIJ04UjwnFu5kcRHNkpGb7KLBw","Thuillier Denis","48.8823032","2.3588786",NA,"5","1","point_of_interest establishment"
"ChIJ04UjwnFu5kcRCoNQ2f2adYU","Navas Michel","48.8823032","2.3588786",NA,"5","1","point_of_interest establishment"
"ChIJwc8ZwnFu5kcRd8WCcwMtd6A","Foehn’x RH","48.8823035","2.3588919",NA,NA,NA,"point_of_interest establishment"
"ChIJD7fiBh9u5kcRYJSMaMOCCwQ","Paris","48.856614","2.3522219",NA,NA,NA,"locality political"
"ChIJw88ZwnFu5kcRKR-rh6Ar2vc","Meryam Télésecrétariat","48.8824331","2.3589043",NA,"5","4","point_of_interest establishment"
"ChIJsek9NsJv5kcRt8v6j8TzFvU","Atelier Rosy Lee","48.882267","2.3585214",NA,NA,NA,"point_of_interest clothing_store store establishment"
"ChIJiy7F53Fu5kcRRJlci7egR9w","G.r.a.j.a.r.","48.882267","2.3585214",NA,NA,NA,"point_of_interest establishment"
"ChIJuRfj6HFu5kcRlY7fqF6HxNE","Connect Chemicals France S.A.R.L.","48.8824176","2.3584904",NA,NA,NA,"point_of_interest establishment"
"ChIJzbvk6HFu5kcRENNzMJ-oAC8","Exo Océan","48.8823955","2.3584554",NA,NA,NA,"food point_of_interest establishment"
"ChIJzbvk6HFu5kcRUsrV_3qUNnw","Takigawa Chartier Rira Lila","48.8823955","2.3584554",NA,NA,NA,"point_of_interest establishment"
"ChIJb5tvwXFu5kcR7GVMeRdRl3E","Griselhubert Liliane","48.8825625","2.3590752",NA,NA,NA,"point_of_interest establishment"
"ChIJb5tvwXFu5kcR8bP0i2Z-dZY","Back Martyn John","48.8825625","2.3590752",NA,NA,NA,"point_of_interest establishment"
"ChIJmwvrw3Fu5kcRHjMZWgMbvK8","Mounier Sabine","48.8825625","2.3590752",NA,NA,NA,"point_of_interest establishment"
"ChIJbb1DwXFu5kcROkCEv4dXfzs","Joachim Salinger","48.8826177","2.3590061",NA,NA,NA,"point_of_interest establishment"
"ChIJlWOvlR9v5kcRwIsgc3iZQZY","KeyNest","48.8826215","2.3590225",NA,NA,NA,"point_of_interest store establishment"
"ChIJ8S1BwXFu5kcRR0hKZzdb6z0","Les Economiques","48.8826215","2.3590225",NA,NA,NA,"point_of_interest establishment"
"ChIJt0DBwnFu5kcRAX7aNWJOYI8","Cail - Demarquay","48.8826604","2.3588236",NA,NA,NA,"bus_station transit_station point_of_interest establishment"
"ChIJZbQu_3Fu5kcRqH18K6Hn6cQ","Sri Mahall","48.8826922","2.3587706",NA,"3.5","2","convenience_store grocery_or_supermarket food point_of_interest store establishment"
"ChIJUX2B5nFu5kcRyzBDfK8wPes","Super Meeple","48.8820778","2.3583536",NA,NA,NA,"point_of_interest establishment"
"ChIJtdnOyXFu5kcRljP7LaMnE2U","Shaae Cash & Carry","48.8820778","2.3583536",NA,"3.8","11","grocery_or_supermarket food point_of_interest store establishment"
