"Id","Name","Lat","Lng","Price_level","Rating","Nb_Rating","Type"
"ChIJo6gj9-Nt5kcRWHGeyy2Rq70","175-163 Rue Jean-Pierre Timbaud","48.8699926","2.3734277",NA,NA,NA,"route"
"ChIJ4Tf2-eNt5kcRfhXq3bNJlQ8","Stop Affaires Meubles","48.8701482","2.3735132",NA,"2.9","28","furniture_store home_goods_store point_of_interest store establishment"
"ChIJ5f42lPZt5kcR3fW-88CYWaU","Mr Bricolage","48.8699125","2.3732738",NA,"3.5","201","home_goods_store point_of_interest store establishment"
"ChIJG0PQ--Nt5kcRkFpT2FNs0dk","Selectour - TLM Voyages","48.8702978","2.3733434",NA,"5","6","travel_agency car_rental real_estate_agency point_of_interest establishment"
"ChIJ0eNA5ONt5kcRCA6Td3GllQE","Restaurant Firat","48.8703451","2.3728162","1","4.5","106","restaurant food point_of_interest establishment"
"ChIJX5Wk5ONt5kcRTUl88qa1i9o","La Seni","48.8703272","2.3734183",NA,"3.3","4","point_of_interest establishment"
"ChIJkf4X9uNt5kcRdQe25FvRni0","Chessboard","48.8698408","2.3736779","1","4.1","34","bar point_of_interest establishment"
"ChIJJ1tWHWlt5kcRZE27GkfVkiw","Bricorama","48.8699644","2.3732601",NA,NA,NA,"home_goods_store point_of_interest store establishment"
"ChIJV47e18Ft5kcR2IHQsq2Ekao","Réception Monoprix","48.8699125","2.3732738",NA,NA,NA,"supermarket grocery_or_supermarket food point_of_interest store establishment"
"ChIJbQbL4cZt5kcRe27dQHYf46Y","Exclusive Private chef Paris","48.8699951","2.3728295",NA,NA,NA,"food point_of_interest establishment"
"ChIJkSLT5ONt5kcRnTOclSJ_VA4","Bere Bene","48.8697819","2.3731529",NA,"5","1","point_of_interest establishment"
"ChIJB5xF8uNt5kcRCsHR65ypQDs","Suits Mark","48.8697819","2.3731529",NA,NA,NA,"point_of_interest establishment"
"ChIJnU9_r_tt5kcReNIgYQc96Uw","H2O Pharma","48.8700617","2.3728113",NA,"5","1","point_of_interest establishment"
"ChIJmbAh3_1t5kcRbPCjTzNR5dE","Nicolas Godon","48.8699941","2.3727849",NA,NA,NA,"point_of_interest establishment"
"ChIJL3Gs9-Nt5kcRAqjJXN7vg_0","Aarush Cash & Carry","48.8699634","2.3735652",NA,NA,NA,"point_of_interest establishment"
"ChIJSXKx--Nt5kcReDDEVOBEUsA","Hommes Palace Coiffure Hommes","48.8702948","2.3732749",NA,"5","1","hair_care point_of_interest establishment"
"ChIJMZVD_Y5t5kcR1aaeymmPn-E","Square Saint-Maur","48.8700848","2.3726995",NA,NA,NA,"park point_of_interest establishment"
"ChIJ3VizLi5t5kcRgPRaGh4IvlM","Flexa Shop - Mezzaline Paris 11e","48.8698864","2.3736355",NA,"5","6","furniture_store home_goods_store point_of_interest store establishment"
"ChIJ__8g9ONt5kcRiPErbNcsI5Q","Laverie St.Maur","48.8697487","2.3734821",NA,"3.1","7","laundry point_of_interest establishment"
"ChIJD7fiBh9u5kcRYJSMaMOCCwQ","Paris","48.856614","2.3522219",NA,NA,NA,"locality political"
"ChIJh6jq9uNt5kcREtMX8Fvlvzc","Ben Aissa Mhenni","48.8697487","2.3734821",NA,NA,NA,"finance point_of_interest establishment"
"ChIJh6jq9uNt5kcRue9cO0_B7Ho","Jacquin Olivier","48.8697487","2.3734821",NA,NA,NA,"point_of_interest establishment"
"ChIJw3B89uNt5kcR9QVzWq7X8Mk","Miconnet Arnaud","48.8697487","2.3734821",NA,NA,NA,"point_of_interest establishment"
"ChIJzSbq5ONt5kcR9GiSaOLBQnc","Gold Royal Beauty","48.8703376","2.3729507",NA,"4","4","point_of_interest establishment"
"ChIJ9akPe8Vt5kcR8qqhK9iHt_Y","New Thaï House","48.8698536","2.3737389",NA,"5","3","restaurant food point_of_interest establishment"
"ChIJ-d-355Vt5kcRQqQVIYIVP2w","New Thaï House","48.8698536","2.3737389",NA,"4.8","17","restaurant food point_of_interest establishment"
"ChIJ1w-ncQ5t5kcRkKRqeh_74B4","Sushi","48.8698536","2.3737389",NA,NA,NA,"restaurant food point_of_interest establishment"
"ChIJq-FikYVt5kcRdEPlA5e-GKg","JOYT Connect 2 - Tempo - Wari","48.8704317","2.3731476",NA,NA,NA,"finance point_of_interest establishment"
"ChIJk4XFjQFt5kcRuTR6FGGEol8","Bobby’s Hot Dogs","48.8698953","2.3738372",NA,"4.8","32","restaurant food point_of_interest establishment"
"ChIJVQKX_ONt5kcRNVcnL1RGAAY","Gotti Rossella","48.8704795","2.3731583",NA,NA,NA,"general_contractor point_of_interest establishment"
"ChIJSfco_eNt5kcRfD2yrL2fiTM","Au Val de Loire","48.8704795","2.3731583",NA,"3.9","39","general_contractor point_of_interest establishment"
