"Id","Name","Lat","Lng","Rating","Nb_Rating","Type"
"ChIJ3THhXcxt5kcRSPTV1mk_uOM","3-1 Quai de la Gironde","48.8928713","2.3853949",NA,NA,"route"
"ChIJgwyKD9Jt5kcR2ldybyciW_M","Bains Douches","48.8930466","2.3852873",NA,NA,"point_of_interest establishment"
"ChIJDf9WXsxt5kcRoPt0IMRd7C0","APSAP VP - Plongée","48.8929066","2.3852474","5","1","point_of_interest establishment"
"ChIJDadE98xt5kcRMqYZiKinLLQ","Débonnaire Florent","48.8934264","2.3848805",NA,NA,"point_of_interest establishment"
"ChIJDadE98xt5kcRYkAkyvW9aZE","Lukasz Batiment","48.8934264","2.3848805",NA,NA,"general_contractor point_of_interest establishment"
"ChIJD7fiBh9u5kcRYJSMaMOCCwQ","Paris","48.856614","2.3522219",NA,NA,"locality political"
