"Id","Name","Lat","Lng","Price_level","Rating","Nb_Rating","Type"
"ChIJ5QH4XNBt5kcRC7FT_VlwTn4","68-100 Quai de la Loire","48.8872016","2.3784914",NA,NA,NA,"route"
"ChIJz4H9q9Ft5kcRUGqDv9ILCmI","Holiday Inn Express Paris - Canal de la Villette","48.8882985","2.3784733",NA,"4.2","975","lodging point_of_interest establishment"
"ChIJTamvrtFt5kcRCbhEUa_yOKY","La Criée La Villette","48.8882033","2.3784794","2","3.8","619","restaurant meal_takeaway food point_of_interest establishment"
"ChIJnW10B9pt5kcRTBy_pk1TkFc","Paname Brewing Company","48.8878671","2.378988","2","4.3","3700","bar restaurant food point_of_interest establishment"
"ChIJzf4OazRz5kcRjjdAkWBupgU","Fac-Habitat Résidence Quai de la Loire","48.8877931","2.3793093",NA,"4.1","30","real_estate_agency lodging point_of_interest establishment"
"ChIJfSFjMdBt5kcRDJJC_ADt-OQ","Our Company Ltd.","48.8878547","2.3794273",NA,NA,NA,"point_of_interest establishment"
"ChIJTWLgSdBt5kcROywW5knZ98c","Cité Internationale Universitaire de Paris","48.8878547","2.3794273",NA,"3.8","4","lodging point_of_interest establishment"
"ChIJadq1lr9t5kcReOlpx9jtXAo","portraits-poetiques.fr","48.8878774","2.3792179",NA,NA,NA,"point_of_interest establishment"
"ChIJTWLgSdBt5kcRe8unGldRYBU","Collectif 1.0.3","48.8878547","2.3794273",NA,NA,NA,"point_of_interest establishment"
"ChIJwxgIFuZt5kcRMMx_xRHeu9Y","La Maison De La Plage","48.8878774","2.3792179",NA,"3","2","point_of_interest establishment"
"ChIJs37cUNht5kcRou4zIxkYYfI","Base nautique de la Villette","48.8877326","2.3790716",NA,"3.3","47","point_of_interest establishment"
"ChIJkwRuSdBt5kcRy23jFPpmAC4","Valerie Archeno","48.8878774","2.3792179",NA,NA,NA,"point_of_interest establishment"
"ChIJkwRuSdBt5kcR2VtAR7EHPiQ","Ojoboca","48.8878774","2.3792179",NA,NA,NA,"point_of_interest establishment"
"ChIJTWLgSdBt5kcRmZ7MYl4t-t4","Charlotte Champion","48.8878547","2.3794273",NA,NA,NA,"point_of_interest establishment"
"ChIJl_gZXO5t5kcR-vclpfOHUxE","LesDebouchonneurs.fr","48.8878306","2.3794256",NA,NA,NA,"liquor_store point_of_interest store establishment"
"ChIJDfUgNdBt5kcRKp4iT8Qz8_c","Association Light Cone","48.8881146","2.3795175",NA,"3","2","point_of_interest establishment"
"ChIJP8-sjs5t5kcRiJoSHR4u1NQ","Hotel Paris","48.888342","2.3786949",NA,"1","1","lodging point_of_interest establishment"
"ChIJD7fiBh9u5kcRYJSMaMOCCwQ","Paris","48.856614","2.3522219",NA,NA,NA,"locality political"
