"Id","Name","Lat","Lng","Price_level","Rating","Nb_Rating","Type"
"ChIJb5LtpnZu5kcRsGiiSHqyiik","196-202 Rue la Fayette","48.881226","2.3643324",NA,NA,NA,"route"
"ChIJCVEqn3Zu5kcR6EXCXwTD6-s","Metropole Lafayette","48.8813022","2.3650012",NA,"3.1","17","lodging point_of_interest establishment"
"ChIJvSxKpnZu5kcR9ZVbw-lN1Dg","Hoteliere Lafayette","48.8810798","2.3641832",NA,"3.8","25","lodging point_of_interest establishment"
"ChIJ328su3Zu5kcRTg8u_KAH-VY","Pizzeria Bella Italia","48.8816289","2.3644603","1","3.5","38","restaurant food point_of_interest establishment"
"ChIJR4L8mHZu5kcRwv9JoOTLka8","Serrurerie TAN","48.8816356","2.364955",NA,"4.9","549","locksmith point_of_interest establishment"
"ChIJGRMQonZu5kcRfX2FEaPWF_8","TANDOORI NATION","48.8811312","2.3646052",NA,"4.7","6","point_of_interest establishment"
"ChIJEWrlH3Ru5kcR-9kBtAeS1yY","Fromagerie Beillevaire","48.8809139","2.3647146",NA,"4.1","35","grocery_or_supermarket food point_of_interest store establishment"
"ChIJ328su3Zu5kcRQ9pB6qtSVrk","Kim Yang","48.8815995","2.3645193","1","4.5","129","bar restaurant food point_of_interest establishment"
"ChIJ6dYbonZu5kcRchHeVC9NUKg","Douanes et Droits Indirects","48.8813331","2.3647549",NA,NA,NA,"point_of_interest establishment"
"ChIJ6dYbonZu5kcRxrDQdJx1eoc","Cr Eole","48.8813331","2.3647549",NA,NA,NA,"point_of_interest establishment"
"ChIJlVMXo3Zu5kcRvZpd04tsaYQ","Les 4 Frères Bedri","48.8815086","2.3646535","1","4.4","547","restaurant food point_of_interest establishment"
"ChIJ487lh3Zu5kcRyU4t-7WV26Q","Fluopap printy pap","48.8811312","2.3646052",NA,"4.8","8","point_of_interest store establishment"
"ChIJIzANjAVy5kcReQ0D0skbV6M","steve","48.8815619","2.3645713",NA,NA,NA,"point_of_interest establishment"
"ChIJdXktvXZu5kcRxFPjcydcChQ","Oishii","48.8815763","2.3646802",NA,"4.4","39","restaurant food point_of_interest establishment"
"ChIJoc6nqHZu5kcR0Jx8HkuW2PQ","Boutique du Lampion","48.8812758","2.3641021",NA,NA,NA,"point_of_interest establishment"
"ChIJwy1-Lflt5kcRzPIGL7_a0J8","Homadata","48.8810239","2.3643846",NA,"5","4","point_of_interest establishment"
"ChIJFTKGIAVu5kcRQBQyQE3XmT0","DCONTRACT","48.8816848","2.3644755",NA,"5","1","point_of_interest establishment"
"ChIJz3I2pXZu5kcRwvXzRBHiOjc","Arborescence Communication","48.8816848","2.3644755",NA,"2.5","2","point_of_interest establishment"
"ChIJAQBcu3Zu5kcRUbantnYy7sA","EFFIGY RH","48.8816848","2.3644755",NA,NA,NA,"point_of_interest establishment"
"ChIJD7fiBh9u5kcRYJSMaMOCCwQ","Paris","48.856614","2.3522219",NA,NA,NA,"locality political"
"ChIJRxtjvHZu5kcRBd9AXoR26tM","A.c.h","48.8816848","2.3644755",NA,NA,NA,"point_of_interest establishment"
"ChIJI0n9N5Rx5kcR0ehV5fSSCZk","Editions L.C.","48.8816848","2.3644755",NA,"5","3","point_of_interest establishment"
"ChIJW6tlj3Zu5kcRxmbgVzZlnQM","Banque Populaire Rives de Paris","48.8813079","2.3651448",NA,"1","4","bank atm finance point_of_interest establishment"
"ChIJLbCKp3Zu5kcRyR96RjOZdj8","Cuponation FR","48.8810048","2.3641791",NA,"5","2","point_of_interest establishment"
"ChIJsSH-1P5t5kcRBlzXKZhD2wE","Maison de l'Emploi de Paris","48.8814117","2.3643671",NA,"3.7","16","point_of_interest establishment"
"ChIJgxjXpHZu5kcRYJPX24BZ5SE","We Are Social","48.881597","2.36433",NA,"5","1","point_of_interest establishment"
"ChIJAQBcu3Zu5kcRhg8FR5PieuA","Vecteur bac","48.8816848","2.3644755",NA,NA,NA,"store point_of_interest establishment"
"ChIJc6e_oXZu5kcR41DQrXJzKTA","Le Cristal-Bar","48.8811875","2.3647484","1","4.3","72","bar cafe restaurant food point_of_interest establishment"
"ChIJ328su3Zu5kcRxQ519NKDCDQ","Aremon Et Finel (Sarl)","48.8816667","2.3644444",NA,"5","1","health point_of_interest establishment"
"ChIJIwXFAnRu5kcRceevF9qaKiQ","Waterkeyn Antonin","48.8809849","2.3640655",NA,NA,NA,"point_of_interest establishment"
"ChIJARoAqXZu5kcRw_ETgz_UJsk","Adaggio","48.881254","2.36384","2","4.4","417","restaurant food point_of_interest establishment"
"ChIJvdiro3Zu5kcRDCOiRPUc7Fs","Bistro Lafayette","48.8814865","2.3647361","1","4.1","138","bar restaurant food point_of_interest establishment"
"ChIJ19zGo3Zu5kcRU_nESPEVwjQ","Bge Adil","48.8813752","2.3645864",NA,NA,NA,"point_of_interest establishment"
"ChIJVwqgoXZu5kcR5kNLfp_gM2Y","La Cascade","48.8812053","2.3646358",NA,NA,NA,"point_of_interest establishment"
"ChIJ6dYbonZu5kcRFPigKfR1YMA","Cour d'Appel de Cayenne","48.8813331","2.3647549",NA,NA,NA,"courthouse point_of_interest establishment"
"ChIJ6dYbonZu5kcRpnT4tnq-Si4","Groupe Collery","48.8813331","2.3647549",NA,NA,NA,"finance point_of_interest establishment"
"ChIJ6dYbonZu5kcRI4pWTjR7x0U","Lepelletier Architecture","48.8813331","2.3647549",NA,NA,NA,"point_of_interest establishment"
"ChIJ6dYbonZu5kcRfHNrzdBfU68","Sci Mily Immo","48.8813331","2.3647549",NA,NA,NA,"general_contractor point_of_interest establishment"
"ChIJy0aeE_dv5kcRuXNo2KzWSvo","Printy Pap","48.88117","2.364507",NA,NA,NA,"point_of_interest store establishment"
"ChIJO20noXZu5kcRF7IFap_J-Pk","Panda Délice","48.8811575","2.3645118",NA,"4.5","19","restaurant food point_of_interest establishment"
"ChIJv5fqpnZu5kcRjXkkVSmIpUI","BLANC INFORMATIQUE","48.8811312","2.3646052",NA,"5","1","electronics_store point_of_interest store establishment"
"ChIJrcFzpnZu5kcRM3_7o02BNl0","Sabak Marcel","48.8813105","2.3641822",NA,NA,NA,"finance point_of_interest establishment"
"ChIJgUGen3Zu5kcRl5qplCx9Xxk","Primeurs Louis Blanc","48.8811392","2.3648759",NA,NA,NA,"grocery_or_supermarket food point_of_interest store establishment"
"ChIJhXFHcSBv5kcRZU4Id43aOtw","Econhomes - Les spécialistes de l'optimisation des charges","48.8810239","2.3643846",NA,"4.3","3","point_of_interest establishment"
"ChIJ8SjlnG9v5kcRJlyBFzR4uSs","Coworkimmo Paris","48.8810266","2.3643515",NA,"4","6","point_of_interest establishment"
"ChIJBYP8mHZu5kcRs77Wmumed1g","Pharmacie 217","48.8815063","2.3650019",NA,"4","22","pharmacy health point_of_interest store establishment"
"ChIJr2sLIHRu5kcR5HvamrU-Byo","Nicolas Saint Martin Fbg","48.8809747","2.3646538","2","4.7","15","liquor_store food point_of_interest store establishment"
"ChIJrapeu3Zu5kcRuPsc4lnRWdg","pascal hasse","48.8816848","2.3644756",NA,NA,NA,"health point_of_interest establishment"
"ChIJAQBcu3Zu5kcRFLPC606NXns","LTD - Agence Louis Blanc","48.8816848","2.3644755",NA,"5","1","point_of_interest establishment"
"ChIJg1T8Pxpv5kcRyDenIFlBQm4","Association Alire","48.8816848","2.3644755",NA,NA,NA,"point_of_interest establishment"
"ChIJAQBcu3Zu5kcRTzaTDzlt4ns","N.g.i. Consulting","48.8816848","2.3644755",NA,NA,NA,"point_of_interest establishment"
"ChIJi5Bqo3Zu5kcRibeqsYxrQqk","Falafel","48.8816848","2.3644755",NA,"4.4","36","restaurant food point_of_interest establishment"
"ChIJRxtjvHZu5kcR5mjFJ5dzRpY","Euro Conseil Formation","48.8816848","2.3644755",NA,NA,NA,"point_of_interest establishment"
"ChIJTzeIvHZu5kcRrJM5noferaU","CJM CONSEIL","48.8816848","2.3644755",NA,NA,NA,"point_of_interest establishment"
"ChIJ328su3Zu5kcRtG6Y43dX70Q","Madar Mouly Clemence","48.8816848","2.3644755",NA,NA,NA,"health point_of_interest establishment"
"ChIJ328su3Zu5kcR-1jzPg1SAcQ","Sci Flammer-makowski","48.8816848","2.3644755",NA,NA,NA,"point_of_interest establishment"
"ChIJ328su3Zu5kcRh3C1U227oOo","Nouvian Christine","48.8816848","2.3644755",NA,NA,NA,"point_of_interest establishment"
"ChIJVyexn3Zu5kcRRLwHZwEewsk","Restaurant Grill istanbul","48.8810886","2.3649424","1","4.4","71","restaurant food point_of_interest establishment"
"ChIJP8Mtr3Zu5kcRUiNE0AeGZXM","Point Paris Emploi 10e","48.8813381","2.3639785",NA,"4.7","3","point_of_interest establishment"
"ChIJyTPRBL9t5kcR5hl7IJPLtHo","Boulangerie Grandpré","48.8810456","2.3648841",NA,"3.3","70","bakery food point_of_interest store establishment"
