"Id","Name","Lat","Lng","Rating","Nb_Rating","Type"
"ChIJVQoCq4lt5kcRRyOcgIOurE4","2-34 Rue Ligner","48.8580355","2.3975122",NA,NA,"route"
"ChIJgY6iBYxt5kcRADqnkdBSn2c","Vocational High School Charles De Gaulle","48.8580267","2.3972972","3.8","10","point_of_interest establishment"
"ChIJyQnHqolt5kcRq2cU2HvHMzU","Michael TAIEB","48.8575606","2.3979393","4.9","13","health point_of_interest establishment"
"ChIJyQnHqolt5kcRjWDFhk5MyH0","Houssam Elkord","48.8575606","2.3979393",NA,NA,"doctor health point_of_interest establishment"
"ChIJyQnHqolt5kcRa_419ehMaks","Docteur Malya FARES","48.8575606","2.3979393","3.4","5","doctor health point_of_interest establishment"
"ChIJ___bqrsK5kcRp1zrRkd6_ok","Hypnotherapeute Paris 20 - Laurence Perron","48.857558","2.397974","5","1","health point_of_interest establishment"
"ChIJM4BmwLt65kcRimLOFN6grho","Tonnerre Manon","48.8575675","2.3979907","5","12","health point_of_interest establishment"
"ChIJk-sUmNlx5kcRHnZE-m9GA18","Françoise DELAVEAU MOSCOVITZ","48.8575469","2.3979715",NA,NA,"health point_of_interest establishment"
"ChIJBYqnDUJu5kcRdoiqzjJeUFw","Balades Photographiques - Photo sessions in Paris","48.8575636","2.3971693","5","30","point_of_interest establishment"
"ChIJbXJ4BIlt5kcRRZiq8z5dRr8","EL TOPO PRODUCTION","48.8580985","2.3976814",NA,NA,"point_of_interest establishment"
"ChIJbXJ4BIlt5kcRPG0A7OMS-tc","Hurricane Production","48.8580985","2.3976814",NA,NA,"point_of_interest establishment"
"ChIJ6yO3xbVx5kcR3DpL7NkYtv8","Pastagames","48.8580985","2.3976814","4.8","5","point_of_interest establishment"
"ChIJUyaOVYht5kcRYAyWAxvGgPc","Geoffrey Saint-Martin","48.8576012","2.3982321",NA,NA,"point_of_interest establishment"
"ChIJ3dZnAIlt5kcRUx3797Sg7es","Julie Plumelle","48.8577178","2.3978749",NA,NA,"point_of_interest establishment"
"ChIJAQDMqolt5kcR_N9HSY2fSF0","Tony Menant","48.8575469","2.3979715",NA,NA,"health point_of_interest establishment"
"ChIJx-hvrYlt5kcRzbJ4Kngx9Mk","Culturibles","48.8572922","2.3978758",NA,NA,"point_of_interest establishment"
"ChIJbXJ4BIlt5kcREtyxNZDKsZU","NowProds","48.8580985","2.3976814",NA,NA,"point_of_interest establishment"
"ChIJv012rYlt5kcRenP8U4JU0wA","Vidéo de Poche","48.8572739","2.3978605","5","3","point_of_interest establishment"
"ChIJswxvr4lt5kcRwqVpfyq1RQc","Choc-Art Photographe","48.8573622","2.3971719","5","6","point_of_interest establishment"
"ChIJD7fiBh9u5kcRYJSMaMOCCwQ","Paris","48.856614","2.3522219",NA,NA,"locality political"
"ChIJc4MJA4lt5kcR2ciQiw_Dsjo","Peintures de Vincent Gabin","48.8581296","2.3978031",NA,NA,"point_of_interest establishment"
"ChIJudwdeFlt5kcR8axemdLUEvs","Ico IBS","48.8577178","2.3978749",NA,NA,"point_of_interest establishment"
"ChIJ3dZnAIlt5kcRWu3n5nJ3YF8","A Siege Ouvert","48.8577178","2.3978749",NA,NA,"point_of_interest establishment"
"ChIJW4jnB4lt5kcR05a4eYRboXQ","Ghania Gaceb","48.8577365","2.3973423","1","1","point_of_interest establishment"
"ChIJIxK0bRxt5kcRp_wnrOs92vI","Excellence BTP","48.8578958","2.3974272",NA,NA,"point_of_interest establishment"
"ChIJM4BmwLt65kcR2VWn4HInz_I","Emilie Roghi - Ostéopathe","48.8575606","2.3979393","5","7","health point_of_interest establishment"
"ChIJyQnHqolt5kcRP94Sa2LGkTA","Samantha SION","48.8575606","2.3979393","4.4","38","physiotherapist health point_of_interest establishment"
"ChIJR7kfZb1t5kcRW4c8a-lBxs4","Francoise Danoun - Podologie du sport - Pédicurie","48.8575606","2.3979393","5","5","doctor health point_of_interest establishment"
"ChIJD2okxmVt5kcR1o91COYqBec","Dr Caroline SARBIT","48.8575966","2.3980049","5","7","doctor health point_of_interest establishment"
"ChIJP4C-Kpht5kcRDhWB8fJZ8Qw","Lauren Marciano - Chiropracteur","48.8575469","2.3979715",NA,NA,"health point_of_interest establishment"
"ChIJAQDMqolt5kcRBfpV6-TDrbk","Osteopathe Paris","48.8575469","2.3979715","5","1","health point_of_interest establishment"
"ChIJ65aPHpNt5kcRheolIDzBW9c","Frédéric Procureur","48.8575469","2.3979715","5","3","doctor health point_of_interest establishment"
"ChIJJ_PXvHFy5kcRWMf5zCAOSUE","Khanine Vanessa","48.857547","2.397972","3.3","8","doctor health point_of_interest establishment"
"ChIJNUFwrYlt5kcR_IBb2Lgw1UU","Alternative Thinking","48.8572922","2.3978758",NA,NA,"point_of_interest establishment"
"ChIJCzEp_oht5kcRB9EKIeu59Po","Rudolf Robert","48.8578336","2.3980576",NA,NA,"point_of_interest establishment"
"ChIJAQDMqolt5kcRNzJPis9yFP8","Centre De Sante Angels","48.8575509","2.398053","1","1","point_of_interest establishment"
"ChIJy1XBqIlt5kcRzqBRElmW_nc","77 Films","48.8574027","2.3973871",NA,NA,"point_of_interest establishment"
"ChIJyYaMk0Vt5kcRH-UCD0_4mME","Nursery Happy Zou Ligner La Maison Bleue","48.8574467","2.3979908",NA,NA,"point_of_interest establishment"
"ChIJP2fNVIht5kcRdVZgI07Jcy8","Nursery Happy Zou Ligner La Maison Bleue","48.8574467","2.3979908","2.5","2","point_of_interest establishment"
"ChIJw58DVYht5kcR1WULYyoFlPI","Du Besset Lyon","48.8574467","2.3979908",NA,NA,"point_of_interest establishment"
"ChIJKaimqIlt5kcRlgGVYSujWgY","Clarret Guylaine","48.8574813","2.3971708",NA,NA,"point_of_interest establishment"
"ChIJUyaOVYht5kcRbMt-8EIpdNM","Qualeia","48.8576012","2.3982321",NA,NA,"point_of_interest establishment"
"ChIJ2bto1o9t5kcRu2m7TG7qDo4","Hourlier Sylvie","48.8576012","2.3982321",NA,NA,"point_of_interest establishment"
"ChIJx-hvrYlt5kcRbDTPSHGq82o","Syndicat de Copropriete Bagnolet","48.8572922","2.3978758",NA,NA,"real_estate_agency point_of_interest establishment"
"ChIJv012rYlt5kcRxnO17TBBWWY","Marketing Studio Services","48.8572922","2.3978758","5","1","point_of_interest establishment"
"ChIJx2l0polt5kcRxDU13eh91a0","Prempain Karine","48.8573622","2.3971719",NA,NA,"point_of_interest establishment"
"ChIJN9U4JKFt5kcRSKar7dz5hCo","Akselemine","48.8573581","2.3980901",NA,NA,"store point_of_interest establishment"
