"Id","Name","Lat","Lng","Rating","Nb_Rating","Type"
"ChIJ2TPjiDNs5kcRh_a2hGNzRx4","12-20 Avenue de la Porte de la Villette","48.8987955","2.3874613",NA,NA,"route"
"ChIJwXwVaTRs5kcRIVf00fwqVSw","Ege20","48.8989556","2.3885632",NA,NA,"point_of_interest establishment"
"ChIJeWttrvht5kcRz7Wi1vxNrJ0","Salon du Crédit","48.8990078","2.3886415",NA,NA,"point_of_interest establishment"
"ChIJX3ndjLpt5kcRfMM9PwoY4DM","Les îlots du coeur","48.8990078","2.3886415",NA,NA,"bakery bar restaurant food point_of_interest store establishment"
"ChIJ6wC0gzNs5kcRJoykj0MJ5cg","Bertrand SA","48.8990078","2.3886415",NA,NA,"point_of_interest establishment"
"ChIJsz8n9M1t5kcRihIFTX-S5LU","Forum Trium","48.899008","2.388642","5","1","point_of_interest establishment"
"ChIJD7fiBh9u5kcRYJSMaMOCCwQ","Paris","48.856614","2.3522219",NA,NA,"locality political"
