"Id","Name","Lat","Lng","Price_level","Rating","Nb_Rating","Type"
"ChIJofTpMQ1u5kcRyQ8Y-WqgUqU","131-129 Rue du Faubourg Saint-Martin","48.8756257","2.3593429",NA,NA,NA,"route"
"ChIJwUHJSg1u5kcRhNqw_oQNeKI","Holiday Inn Paris - Gare de l'Est","48.8758937","2.3591167",NA,"3.8","1525","lodging point_of_interest establishment"
"ChIJvUY8TA1u5kcRZUhR8dgcGAs","Hôtel Amiot","48.8757705","2.3583429",NA,"2.9","160","lodging point_of_interest establishment"
"ChIJHcV-UA1u5kcRUDG3tEugW_A","Grand Hôtel De L'Europe","48.8756385","2.3582151",NA,"3","149","lodging point_of_interest establishment"
"ChIJUzF3Nw1u5kcRZ2oHcns9qak","La Vigne Saint Laurent","48.875523","2.358898","2","4.3","118","bar restaurant food point_of_interest establishment"
"ChIJkeeN6GTRzRIRlgGEO8dY2Rg","Histoire d'amour Films","48.875538","2.358776",NA,"3","2","point_of_interest establishment"
"ChIJ4XKBMg1u5kcRkQq_eh75J3I","A9Travel","48.8755788","2.3590439",NA,NA,NA,"car_rental point_of_interest establishment"
"ChIJ5yUJOA1u5kcR9DVBIj4ZGXU","Christophe REBATTU, CAREG Cabinet d’expert comptable Paris 10","48.8754048","2.3587047",NA,NA,NA,"accounting finance point_of_interest establishment"
"ChIJyUvuNg1u5kcRIJBRQqwbjBU","East Side Café","48.8756626","2.3591875","2","3.8","690","restaurant cafe food point_of_interest establishment"
"ChIJMcIWOA1u5kcRqvSK-HQeCRQ","Lycamobile","48.875394","2.3587698",NA,"3","2","point_of_interest establishment"
"ChIJkdi6SA1u5kcR2Vmq7TINKnw","Dalval","48.8755203","2.3584274",NA,NA,NA,"lodging point_of_interest establishment"
"ChIJBxxuRw1u5kcRmfb4cUpKPOk","Sixt Paris 10","48.8753755","2.3589316",NA,"3.9","189","car_rental point_of_interest establishment"
"ChIJ5yUJOA1u5kcRkacOwCijz7A","Careg","48.8753439","2.3586955",NA,NA,NA,"accounting finance point_of_interest establishment"
"ChIJkSaPRQ1u5kcROV5QFS6B9ZI","Saporo Restaurant","48.8754348","2.3582287",NA,"3.3","20","restaurant food point_of_interest establishment"
"ChIJxQ78TQ1u5kcRfG_ATUEooJ8","Schmid Traiteur","48.875689","2.358391",NA,"4.4","240","grocery_or_supermarket food point_of_interest store establishment"
"ChIJHcV-UA1u5kcRBbIajeOZSDc","La Ville de Provins","48.8755752","2.3582009","2","4.2","297","cafe bar restaurant food point_of_interest store establishment"
"ChIJB69qPg1u5kcRmFwgAhQ8jkw","Opticien PARIS - GARE DE L'EST Optical Center","48.87526","2.3589758",NA,"4.1","48","health point_of_interest store establishment"
"ChIJWfJK7r5v5kcR9T6gR8WL-x4","OHU - Agence de Design Thinking & Innovation Circulaire","48.8755561","2.358792",NA,NA,NA,"point_of_interest establishment"
"ChIJhYrwwW5v5kcRpuGJtWmPHJk","Tim Hotel","48.8757661","2.3588526",NA,NA,NA,"lodging point_of_interest establishment"
"ChIJD7fiBh9u5kcRYJSMaMOCCwQ","Paris","48.856614","2.3522219",NA,NA,NA,"locality political"
"ChIJs9nDNw1u5kcRD3GE0CXGfhI","Bretons du Nord","48.875538","2.3587761",NA,NA,NA,"point_of_interest establishment"
"ChIJJyW0MA1u5kcRDTrZrl0XeyU","Irfan.Com","48.8755796","2.3590044",NA,"2","2","point_of_interest store establishment"
"ChIJ2fi7pzdv5kcRUcDRla74HZI","ibis Paris Gare de l'Est TGV","48.8755929","2.3585339",NA,"4","4","lodging point_of_interest establishment"
"ChIJJyW0MA1u5kcRCN7W20cfjbc","Medilam Medical Bookstore - Reprographics","48.8755788","2.3590439",NA,"4.5","27","book_store point_of_interest store establishment"
"ChIJLZPIMA1u5kcRHDF4GSRL17I","Medilam","48.8755317","2.3591005",NA,NA,NA,"point_of_interest establishment"
"ChIJyUvuNg1u5kcRnhy8rKgAy0Y","Royal Est","48.8755317","2.3591005",NA,"4","332","bar bakery liquor_store restaurant food point_of_interest store establishment"
"ChIJj0nuNg1u5kcRY_k02iH8Coo","Keycafe","48.8755309","2.3591036",NA,NA,NA,"point_of_interest store establishment"
"ChIJO77c9RRv5kcRL-TBSE082ec","Batifol","48.8759078","2.3588699",NA,"4.4","105","restaurant food point_of_interest establishment"
"ChIJq6qqqt1x5kcR3cCs052GtBs","Odyssea Organisation","48.875655","2.3591732",NA,"4.6","9","point_of_interest establishment"
"ChIJMY1ONhNv5kcRuKi9wXyzxI0","CHAMPESS ELLYSEE","48.8759332","2.3585731",NA,"3.5","2","cafe food point_of_interest establishment"
"ChIJO3duUwtv5kcRD6dGf_jIFFI","À moi","48.8753439","2.3586955",NA,"4.5","4","restaurant food point_of_interest establishment"
"ChIJJyF2OA1u5kcRGM_9Kek_bL4","agence révelateur","48.8753439","2.3586955",NA,NA,NA,"point_of_interest establishment"
"ChIJaS7jRw1u5kcRwl6aWKmnTQ4","Pires Aurelie","48.8753439","2.3586955",NA,NA,NA,"point_of_interest establishment"
"ChIJ9eFINbNv5kcRgYFMR9JALKU","Formasquare République","48.875377","2.3585345",NA,NA,NA,"lodging point_of_interest establishment"
"ChIJ76BHzQRv5kcRe9W4Yw882gI","Café de l'Est","48.8759787","2.3585849",NA,"3.8","29","bar restaurant food point_of_interest establishment"
"ChIJfcR-UA1u5kcRdRTriGiYfy0","Vincenzi Pascal","48.8755942","2.3582035",NA,NA,NA,"finance point_of_interest establishment"
"ChIJqzAKRg1u5kcRRxdph6hHI1w","川为食族","48.8753925","2.3583555","2","4","76","restaurant food point_of_interest establishment"
"ChIJLzSERQ1u5kcRenpBmF0NM20","Girela Antonio","48.8753925","2.3583555",NA,NA,NA,"point_of_interest establishment"
"ChIJ-RlCTg1u5kcRoohBKuoPDHM","Gare de l'Est","48.8758421","2.3582446",NA,NA,NA,"bus_station transit_station point_of_interest establishment"
"ChIJ60GdggJv5kcRiNaBNKkhZi0","Audioprothésiste PARIS - GARE DE L'EST Optical Center","48.87526","2.3589758",NA,NA,NA,"health point_of_interest store establishment"
"ChIJ0fBtOQ1u5kcRTUd9Clla-Xs","Optique Audition","48.8752161","2.3589391",NA,NA,NA,"health point_of_interest store establishment"
