"Id","Name","Lat","Lng","Rating","Nb_Rating","Type"
"ChIJMxpTx55t5kcRTp1fOcYz88Q","105-103 Boulevard Mortier","48.871298","2.4086501",NA,NA,"route"
"ChIJb0uWxJ5t5kcRlYKSJIoh1UI","Profix","48.8715077","2.4084134",NA,NA,"doctor health point_of_interest establishment"
"ChIJjZxcuJ5t5kcR0bYhU5Xl8Tk","TOTAL","48.8710845","2.4084355","3.4","111","gas_station car_repair point_of_interest establishment"
"ChIJb-2AuJ5t5kcRaGGlpBaNydU","Garage Sainte-Marie","48.8712514","2.4084224",NA,NA,"parking point_of_interest establishment"
"ChIJZYjfxZ5t5kcR3pXanutzczc","Fresque ""Rejet""","48.8715903","2.408426",NA,NA,"point_of_interest establishment"
"ChIJPVa4uZ5t5kcRFecDlSnZIUQ","Relais Mortier","48.8710696","2.408383",NA,NA,"point_of_interest establishment"
"ChIJPVa4uZ5t5kcRf6tQ7Ftz8Gg","Carglass","48.8710696","2.408383","3.6","30","gas_station car_repair point_of_interest establishment"
"ChIJD7fiBh9u5kcRYJSMaMOCCwQ","Paris","48.856614","2.3522219",NA,NA,"locality political"
