"Id","Name","Lat","Lng","Price_level","Rating","Nb_Rating","Type"
"ChIJwzn81whu5kcRYhcwhz_xdu4","Place de la République","48.8683971","2.3630096",NA,NA,NA,"route"
"ChIJscoo9mFv5kcRXeB4HDj2e7U","Fontaine Arceau","48.8680186","2.3632057",NA,NA,NA,"point_of_interest establishment"
"ChIJMQmG0whu5kcRjxJQUGDrHQs","Café Fluctuat Nec Mergitur","48.8680153","2.3629599","2","3.9","442","cafe food point_of_interest establishment"
"ChIJOw8RjR9v5kcRGTkz0aen1-A","Angela Sichanh","48.8682424","2.3629196",NA,NA,NA,"point_of_interest establishment"
"ChIJCXgf1whu5kcR_WaL88tcQ_Q","République","48.868247","2.3629235",NA,NA,NA,"transit_station point_of_interest establishment"
"ChIJJRK9Jwlu5kcRa4_d2QAGzA0","Npa","48.8685171","2.3631728",NA,NA,NA,"point_of_interest establishment"
"ChIJD7fiBh9u5kcRYJSMaMOCCwQ","Paris","48.856614","2.3522219",NA,NA,NA,"locality political"
