"Id","Name","Lat","Lng","Rating","Nb_Rating","Type"
"ChIJKar_xkNu5kcRNgzJJApfQ6M","Boulevard de Rochechouart","48.8825036","2.342939",NA,NA,"route"
"ChIJ4wJS0ENu5kcR8iLjhBdRwPw","City School Jacques-Decour","48.8819187","2.3432481","3.3","54","secondary_school school point_of_interest establishment"
"ChIJr6ZBwUNu5kcRKp7ZEfGG3jI","Factory","48.8824496","2.342681",NA,NA,"point_of_interest establishment"
"ChIJAdNJxkNu5kcR7AOlV73ous0","Coach Parking Bays","48.8825293","2.3432453",NA,NA,"parking point_of_interest establishment"
"ChIJD7fiBh9u5kcRYJSMaMOCCwQ","Paris","48.856614","2.3522219",NA,NA,"locality political"
