"Id","Name","Lat","Lng","Price_level","Rating","Nb_Rating","Type"
"ChIJdU00Avtt5kcR3zZIwgjsYVY","65-49 Avenue Parmentier","48.8635176","2.3758431",NA,NA,NA,"route"
"ChIJuy6iF_tt5kcRpJfC1VPQWkQ","Hôtel Beauséjour","48.864229","2.37512",NA,"3.2","202","lodging point_of_interest establishment"
"ChIJA4wqBftt5kcRi111ZTErDUU","Assurance Mutuelle","48.8637656","2.3754801",NA,NA,NA,"insurance_agency health point_of_interest establishment"
"ChIJVVXhbftt5kcR6ONBup4WVpg","Forma","48.864071","2.375622",NA,NA,NA,"health point_of_interest establishment"
"ChIJk93jG_tt5kcR0ybDtiFhJ7k","Cybex Store Officiel Natalmarket Paris 11","48.8640713","2.3756215",NA,"3.6","37","point_of_interest clothing_store store establishment"
"ChIJs7AYEftt5kcR0eQ0jgVIq6E","Cabinet SETI","48.8641313","2.3752027",NA,"4.6","56","real_estate_agency point_of_interest establishment"
"ChIJkUsGD_tt5kcRtZy1TUmxAZk","Bien Urbain","48.8636063","2.3751404",NA,NA,NA,"point_of_interest establishment"
"ChIJVVXlDvtt5kcRS_f-EYDXYKQ","cantine clandestine","48.8635857","2.3750737",NA,NA,NA,"point_of_interest establishment"
"ChIJKYG2Dftt5kcR9JNIWdLrGwM","Florence Millot, Psychologue pour enfants et adolescents PARIS","48.8635857","2.3750737",NA,"4.4","13","health point_of_interest establishment"
"ChIJVVXlDvtt5kcR2ZXfs1PjpjU","Ça se visite !","48.8635857","2.3750737",NA,"4.5","2","travel_agency point_of_interest establishment"
"ChIJKYG2Dftt5kcRP2wSo8psCAs","Laura Sebaoun","48.8635857","2.3750737",NA,NA,NA,"health point_of_interest establishment"
"ChIJ36gbGvtt5kcRvCEcc94ByNg","Coiffure Art et Beauté","48.8639916","2.3753033",NA,"4.2","5","hair_care point_of_interest establishment"
"ChIJ36gbGvtt5kcRzIM9ob9A4qI","Mango Tree Senegalese Restaurant","48.864064","2.375247","2","4.1","128","restaurant food point_of_interest establishment"
"ChIJB-soE_tt5kcRkeu1twAj_yY","JPPS Creative Productions","48.8639048","2.3746316",NA,NA,NA,"point_of_interest establishment"
"ChIJO5bNEvtt5kcRNuGMqijeQ9k","Viewniverse Studio","48.8639048","2.3746316",NA,"5","1","point_of_interest establishment"
"ChIJGwKqHPtt5kcR8YiQj4-VHr0","FÉDÉRATION FRANÇAISE DE MOTOCYCLISME","48.8639726","2.3757294",NA,"4","13","point_of_interest establishment"
"ChIJbQ3PvXBt5kcR_I2vsjT0QSk","Le Beslay","48.8639496","2.3753382",NA,"4.5","72","restaurant food point_of_interest establishment"
"ChIJi0joEftt5kcRF5q005_ffEY","Hotel Les Deux Girafes","48.86383","2.375044",NA,"4.7","116","lodging point_of_interest establishment"
"ChIJk93jG_tt5kcRjQdfIhgByDI","Jean-François Révah","48.8640713","2.3756215",NA,NA,NA,"health point_of_interest establishment"
"ChIJD7fiBh9u5kcRYJSMaMOCCwQ","Paris","48.856614","2.3522219",NA,NA,NA,"locality political"
"ChIJDVBneQlt5kcRjwwmVkc6LMM","Dr ROUX","48.8640713","2.3756215",NA,"5","3","doctor health point_of_interest establishment"
"ChIJk93jG_tt5kcREDZBUFkAei8","Data Factory","48.8640713","2.3756215",NA,"5","1","point_of_interest establishment"
"ChIJFwuHBPtt5kcRu0svQQUkv0o","jts","48.8636192","2.3756158",NA,NA,NA,"point_of_interest establishment"
"ChIJbd8i1cZt5kcRGf9XGl7jxbw","L' Avenue lounge","48.8636192","2.3756158",NA,"5","11","restaurant food point_of_interest establishment"
"ChIJVVXlDvtt5kcR39wZV1SlWrA","Stéphanie Bessonnaud Sophrologue Paris 11ème","48.8635857","2.3750737",NA,"5","2","health point_of_interest establishment"
"ChIJiaxn4dJt5kcRKlP-TDOC_Hg","Guy benloulou","48.8635857","2.3750737",NA,NA,NA,"health point_of_interest establishment"
"ChIJc4s_G_tt5kcR4egOnjGUlNw","Lagarde Nathalie","48.8635857","2.3750737",NA,NA,NA,"point_of_interest establishment"
"ChIJkbZjBPtt5kcRtjiM5DalsSE","Brebion Clemence","48.8635857","2.3750737",NA,NA,NA,"point_of_interest establishment"
"ChIJ_7qZDftt5kcRv4qF6WX3oIY","Kiddies Beslay - Crèches De France","48.8637626","2.3748528",NA,NA,NA,"point_of_interest establishment"
"ChIJ_51jBPtt5kcRPd0kKKMY5n0","Espace Conseil de Gestion","48.8635747","2.375603",NA,"3","2","insurance_agency point_of_interest establishment"
"ChIJNzg2qGJt5kcRRxQ8CgfUOeE","Biocoop Parmentier","48.8637638","2.3758676",NA,"4.6","33","point_of_interest store establishment"
"ChIJg6NYMPlt5kcRXKOvfbNpALk","Jennifer Pallier - Psychologue","48.8635736","2.3750207",NA,NA,NA,"health point_of_interest establishment"
"ChIJSyafKHVy5kcR8xWxVHrDaCA","Mercadante André, psychothérapeute à Besançon et à Paris","48.8636408","2.3748561",NA,NA,NA,"health point_of_interest establishment"
"ChIJiZeOFvtt5kcRCrP8I3cE9KY","Gourmandises Parmentier","48.8642298","2.3750589",NA,"5","1","point_of_interest establishment"
"ChIJx5GsAftt5kcRySpCHGWwEo0","Sosna David Icek Simon","48.8635233","2.3756411",NA,NA,NA,"point_of_interest establishment"
"ChIJzcwDDftt5kcR1CDBsYZkkBc","Emma Gauthier - Ostéopathe Paris 11","48.8635833","2.3748208",NA,"5","48","health point_of_interest establishment"
"ChIJ9atgpndt5kcRa6li9WnCaNQ","Peng Tai","48.8639048","2.3746316",NA,"5","1","point_of_interest establishment"
"ChIJ5WTnEvtt5kcRdLpwW9BnVs0","Pastor Lise","48.8639048","2.3746316",NA,NA,NA,"point_of_interest establishment"
