"Id","Name","Lat","Lng","Rating","Nb_Rating","Type"
"ChIJQxP5yHty5kcRl-wfOu3RV6E","34-48 Rue de Lagny","48.8488933","2.4034442",NA,NA,"route"
"ChIJxWL1yXty5kcRcYpNS4grQFE","accentbleuconsulting","48.8487974","2.4032317",NA,NA,"point_of_interest establishment"
"ChIJG0UOyHty5kcR6pGMDPeSg-M","Terrer Yann","48.8488053","2.4035467",NA,NA,"point_of_interest establishment"
"ChIJS75iyHty5kcRDAR4vUmvpJQ","Sente Consulting Sarl Floriant","48.8488053","2.4035467",NA,NA,"point_of_interest establishment"
"ChIJ63xJynty5kcRzJUA096vFD4","Winter Emmanuelle","48.8487974","2.4032317","1","1","point_of_interest establishment"
"ChIJCSSn3Hty5kcRHhtmw4acj4M","Square Sarah Bernhardt","48.8493447","2.4040196","4.2","739","tourist_attraction park point_of_interest establishment"
"ChIJu6-_x3ty5kcRvZPX4qz2Fr4","Flor De Chine","48.848803","2.4036799",NA,NA,"point_of_interest establishment"
"ChIJD7fiBh9u5kcRYJSMaMOCCwQ","Paris","48.856614","2.3522219",NA,NA,"locality political"
