"Id","Name","Lat","Lng","Price_level","Rating","Nb_Rating","Type"
"ChIJQdy-Tlxu5kcRdMQ6t1eJ0TA","5-1 Rue Hermel","48.8898625","2.3439947",NA,NA,NA,"route"
"ChIJE7sFU1xu5kcRJwXyh52dSeU","Guy Hoquet l'Immobilier","48.8893514","2.3441915",NA,"3.7","6","real_estate_agency finance point_of_interest establishment"
"ChIJQ6vuWlxu5kcRJZLIAEq1G38","AtelierAubepine","48.889413","2.343395",NA,"3.7","3","general_contractor point_of_interest establishment"
"ChIJV1q1-txx5kcRlI0v0C9W7-M","Dr. Paugy Monica","48.8894668","2.3436312",NA,"4","44","doctor health point_of_interest establishment"
"ChIJF2_6U1xu5kcRi6uU1ss-21s","CLEAN KONG Pressing","48.8893089","2.3440692",NA,"3.9","30","laundry point_of_interest establishment"
"ChIJ06OQW1xu5kcR52MPUV7P5Fs","Laundromat Custine","48.8895588","2.3433863",NA,"4","4","laundry point_of_interest establishment"
"ChIJN6EmxV1u5kcRLwumR9uEXFU","Boucherie de la Place","48.889402","2.343888",NA,"3.3","3","food point_of_interest store establishment"
"ChIJjRYZdVtu5kcRKzfSDl9v_y4","AXA Assurance BENJAMIN SOCHA","48.88909","2.34358",NA,NA,NA,"point_of_interest establishment"
"ChIJ-cYMUlxu5kcRoVYWuBQAQI4","Jonathan Goor - Photographe","48.8896358","2.3441",NA,NA,NA,"point_of_interest establishment"
"ChIJ-cYMUlxu5kcRGkRKLXIfhhw","Salon 54","48.8895721","2.3442161",NA,"4.6","27","hair_care point_of_interest establishment"
"ChIJ87KDVFxu5kcRcYNCMIH2lUw","Lelapa","48.8892686","2.3442313",NA,NA,NA,"finance point_of_interest establishment"
"ChIJPQXtT1xu5kcR7LgF2Y7H4WE","Café Victor","48.8897837","2.3437",NA,"3.4","26","cafe bar food point_of_interest establishment"
"ChIJ7VdUQ1xu5kcR1XbabfhzOPc","Franck Provost - Coiffeur Paris","48.8895983","2.3431872",NA,"4.1","70","beauty_salon hair_care point_of_interest establishment"
"ChIJyRKwrF1u5kcRifa6mtPANiY","La halte","48.8893029","2.3443466","1","4.2","283","restaurant food point_of_interest establishment"
"ChIJozNITVxu5kcROXic7Ze3Ews","Retouche Expresse","48.889558","2.3443185",NA,"4.8","13","point_of_interest establishment"
"ChIJNYK5UVxu5kcRk0bAtdNl2iw","Il Padrino","48.8894154","2.3439805","2","4.6","276","restaurant food point_of_interest establishment"
"ChIJRQeZz-pv5kcRKGe2J6ElC0I","Benjamin","48.889311","2.3437628",NA,NA,NA,"lodging point_of_interest establishment"
"ChIJVxw_Wlxu5kcRz6mDRIYO7DE","Docteur Bénédicte Suffran-Saurat, dentiste","48.8893618","2.3435793",NA,"5","6","dentist health point_of_interest establishment"
"ChIJVxw_Wlxu5kcRHm8En7Qw1C0","Docteur Guillermo Ortega","48.8893618","2.3435793",NA,"5","2","dentist health point_of_interest establishment"
"ChIJD7fiBh9u5kcRYJSMaMOCCwQ","Paris","48.856614","2.3522219",NA,NA,NA,"locality political"
"ChIJMbSRWlxu5kcR2ZZPcSg0d5I","Decker-Beech Geneviève","48.889362","2.343579",NA,NA,NA,"dentist health point_of_interest establishment"
"ChIJHyFas-lt5kcRf7qAvhCF9dw","DECODAGE-CREATION | Aude Groshaeny","48.8894611","2.3437947",NA,NA,NA,"point_of_interest establishment"
"ChIJszgG9BZv5kcR4hpHmindxW0","A'venir(s) Associés","48.8894611","2.3437947",NA,NA,NA,"point_of_interest establishment"
"ChIJpYJCUFxu5kcR-KjlvHqZSc0","Salaun Adele","48.8894611","2.3437947",NA,NA,NA,"doctor health point_of_interest establishment"
"ChIJMWtcUFxu5kcRgVOvKxhg30k","Galil","48.8894611","2.3437947",NA,NA,NA,"point_of_interest establishment"
"ChIJfTzAWlxu5kcRdWyCvh1sYP0","La Vie Claire","48.8894678","2.3435992",NA,"3.6","44","grocery_or_supermarket food point_of_interest store establishment"
"ChIJ9VnSVlxu5kcRMnbg1ez9gTs","Boucherie Leguellec","48.8892749","2.3438864",NA,"5","1","food point_of_interest store establishment"
"ChIJ06OQW1xu5kcR_lGTZ7mrgs0","Augustin Charpentier","48.8894327","2.3434627",NA,"5","5","point_of_interest establishment"
"ChIJaXPXU1xu5kcRuICjtIqNECs","Aux Viandes de Montmartre","48.8893425","2.3440098",NA,"4.9","11","food point_of_interest store establishment"
"ChIJQ6vuWlxu5kcR8kDf5ebdsZ4","Afiri Farid","48.8894126","2.3433954",NA,NA,NA,"point_of_interest establishment"
"ChIJK5vbWlxu5kcRBPe2d7Xff5w","DOMINO BAZAR","48.8895634","2.3433939",NA,"3.8","21","hardware_store point_of_interest store establishment"
"ChIJAf7GUM9v5kcRBuEQLVy0UG0","AXA Assurance BENJAMIN SOCHA","48.8890831","2.3435783",NA,NA,NA,"insurance_agency point_of_interest establishment"
"ChIJR2yL8gpv5kcRHmSTLHo6AP8","Boulangerie Atelier Gourmand","48.8896364","2.3440415",NA,NA,NA,"bakery food point_of_interest store establishment"
"ChIJUckPRVxu5kcRUwAWWirP8HU","Portes Blindées Tordjman","48.8897287","2.3435896",NA,NA,NA,"point_of_interest establishment"
"ChIJsUskX1xu5kcR30zlnPVOh3U","E-xode","48.8891694","2.3432059",NA,NA,NA,"point_of_interest establishment"
"ChIJjcU2_jdv5kcRjR6Iej8HE54","Cordonnerie","48.8892686","2.3442313",NA,"3.5","2","point_of_interest establishment"
"ChIJxQHTV1xu5kcRVbtlwLUDq4k","Mokwa Philippe","48.8890245","2.3437833",NA,NA,NA,"point_of_interest establishment"
"ChIJG1zEVFxu5kcRrcF7qN-brEw","Nouvelle Societe Hoteliere","48.8891576","2.3441615",NA,NA,NA,"lodging point_of_interest establishment"
"ChIJ6e-E-Fxu5kcRcQzgSWgdheI","P.A.C (Programmation Analyse Conseil)","48.88901","2.3438743",NA,NA,NA,"point_of_interest establishment"
"ChIJmQPN6mRv5kcRMJ-2qmI0cDw","KOIKONBOI?","48.8897837","2.3437",NA,"5","11","liquor_store food point_of_interest store establishment"
"ChIJn-p_ncpv5kcRj1031CFLsYs","Point Nickel","48.8897837","2.3437",NA,NA,NA,"atm bank finance point_of_interest establishment"
"ChIJN4gls0Ju5kcRIV0TPWcjutk","Mélissa Juan","48.8897837","2.3437",NA,"5","2","health point_of_interest establishment"
"ChIJA_XGUVxu5kcRX90erUEdoQc","Pinto Alejandra","48.8897837","2.3437",NA,NA,NA,"point_of_interest establishment"
"ChIJIRWRl1lv5kcRX5DTxq0UemY","Scooter","48.8889998","2.3438564",NA,NA,NA,"point_of_interest establishment"
"ChIJp0TsRFxu5kcRgzH-UIznpU4","Custine - Mont-Cenis","48.8897406","2.3433659",NA,NA,NA,"transit_station point_of_interest establishment"
"ChIJHW8rQ1xu5kcRzvTF0nHyJ1U","Anata","48.8896278","2.3431158",NA,"3.9","74","restaurant food point_of_interest establishment"
"ChIJu7gfzkpv5kcRIBgT4y1metA","All Good Things Paris","48.8898054","2.3434986",NA,"4.4","130","bar restaurant food point_of_interest establishment"
"ChIJxb_Oq4Zv5kcRKwfyhkfClfs","Schmitreinet","48.8898179","2.3438874",NA,NA,NA,"point_of_interest establishment"
