"Id","Name","Lat","Lng","Price_level","Rating","Nb_Rating","Type"
"ChIJEUG0tWdu5kcRKuhQU1WIpWY","Boulevard Barbès","48.8877474","2.3496489",NA,NA,NA,"route"
"ChIJ3_VVuGdu5kcRQVsywTLFpbw","Body'Minute","48.8877275","2.3490847",NA,"3.9","31","beauty_salon spa point_of_interest store establishment"
"ChIJL4G1z9pt5kcRztQ_Z3NMkEg","LA HALLE AUX CHAUSSURES PARIS BARBES","48.8875997","2.3493224",NA,"3.7","38","shoe_store point_of_interest store establishment"
"ChIJ8w1StWdu5kcRBYVkBE95xKU","Courir","48.8875743","2.3498374",NA,"3.7","77","shoe_store point_of_interest clothing_store store establishment"
"ChIJSZ0lxmdu5kcRsDOTRFT_D0w","Mercatis","48.8873506","2.349076",NA,NA,NA,"point_of_interest establishment"
"ChIJVxfxwGdu5kcRbxJZm4apdZ8","Akzo Nobel Distribution","48.8874942","2.3489045",NA,NA,NA,"home_goods_store point_of_interest store establishment"
"ChIJ3_VVuGdu5kcRcybJ7v3hDbA","Auburtin Immobilier","48.887767","2.349006",NA,"2.3","6","real_estate_agency point_of_interest establishment"
"ChIJ_f-TxWdu5kcRrIWf69fA3Xk","Ferraille Production","48.8871935","2.3490631",NA,NA,NA,"point_of_interest establishment"
"ChIJ_erZtmdu5kcRUO0VsGVR4uU","Post Office","48.8878962","2.3493174",NA,"1.5","84","post_office finance point_of_interest establishment"
"ChIJrapOx2du5kcRfkn8Hi1OmAc","Air de Tendresse, Ame de Nounours","48.8875524","2.3488291",NA,"5","1","point_of_interest establishment"
"ChIJybsIy2du5kcRohjijJR8VhA","Pharmacy Château Rouge","48.8873655","2.3500065",NA,"3.3","16","pharmacy health point_of_interest store establishment"
"ChIJpbWNuGdu5kcRn6W2vB7PNrY","Au Paradis Tropical","48.8878283","2.3489379","2","4.4","260","restaurant food point_of_interest establishment"
"ChIJ56OfyGdu5kcRtB7kqhp64yU","Tal Optic","48.8873669","2.3491243",NA,"4.7","72","health point_of_interest store establishment"
"ChIJeT0dzGdu5kcRcsIwXJzESnA","Caisse d'Epargne Paris Barbes","48.8870948","2.3493227",NA,"1.9","17","bank atm finance insurance_agency health point_of_interest establishment"
"ChIJqWKpgelv5kcRS5eq27NspiQ","Château","48.8874481","2.3497784",NA,NA,NA,"point_of_interest establishment"
"ChIJmQfJRQFv5kcRodz4BJMmXas","GARE MONTPARNASSE","48.8874481","2.3497784",NA,NA,NA,"bar point_of_interest establishment"
"ChIJ_7i9yGdu5kcRmknQeapipww","Le Petit Megeve","48.8873304","2.3491775",NA,NA,NA,"point_of_interest establishment"
"ChIJ0ZKIdPJv5kcRzow-Pzkfwc0","Boulangerie pâtisserie","48.887313","2.349203",NA,"4.3","3","bakery food point_of_interest store establishment"
"ChIJY9K5yWdu5kcRwa-5-ejWf4Q","Fontaine Wallace","48.8872557","2.3493633",NA,NA,NA,"point_of_interest establishment"
"ChIJD7fiBh9u5kcRYJSMaMOCCwQ","Paris","48.856614","2.3522219",NA,NA,NA,"locality political"
"ChIJd3zntmdu5kcRM0fVEuqubdQ","Château Rouge","48.8877717","2.3494708",NA,"4","2","bus_station transit_station point_of_interest establishment"
"ChIJZUfrnU1v5kcRsnpprs4R1UQ","Yahia Ouarab","48.8873506","2.349076",NA,NA,NA,"health point_of_interest establishment"
"ChIJexo_H1tv5kcRexabhiiE5Rw","King technologie224","48.8873506","2.349076",NA,NA,NA,"point_of_interest establishment"
"ChIJ85-nx2du5kcRDxEbBbaD1u8","Societe Nouvelle Constellation","48.8873506","2.349076",NA,"3.8","9","restaurant bar food point_of_interest establishment"
"ChIJnQ_-uGdu5kcRkeuy2hscdqA","BOISCHARBON.FR","48.887501","2.349902",NA,NA,NA,"point_of_interest establishment"
"ChIJ-fIYtWdu5kcRWEVhe7ZPfxg","Rêve D'afrique","48.8877301","2.3498001",NA,"5","1","point_of_interest establishment"
"ChIJTcOlSmZu5kcRLFqUf63Jf-w","Heros Architecture","48.8876115","2.3499175",NA,NA,NA,"point_of_interest establishment"
"ChIJmT2dSmZu5kcRrbLrCkqOjVw","Salomon-leon Salomon Christine Berthe","48.8876115","2.3499175",NA,NA,NA,"point_of_interest establishment"
"ChIJGavYtmdu5kcR-DSXQsZeEpw","Faire Famille","48.8878568","2.3493605",NA,NA,NA,"point_of_interest establishment"
"ChIJeWODzmdu5kcR9vbZjrrUrnI","Château Rouge","48.8871846","2.3497171",NA,"3.2","94","subway_station transit_station point_of_interest establishment"
"ChIJnQ_-uGdu5kcReGoQgJQAy0I","Elie Beauté","48.8877551","2.3490259",NA,NA,NA,"beauty_salon point_of_interest establishment"
"ChIJVxfxwGdu5kcRlzhD7knP66k","Simona Casolari","48.8875166","2.3488664",NA,NA,NA,"point_of_interest establishment"
"ChIJq6pGt2du5kcRu5xqzrSCHKM","SOUTIEN PSYCHOLOGIQUE","48.8878587","2.34925",NA,NA,NA,"point_of_interest establishment"
"ChIJ7yHH1wdv5kcR_oCWrIjUK6Q","Hair Boutique","48.8871935","2.349063",NA,"5","2","point_of_interest store establishment"
"ChIJq0H0NGZu5kcRo_wZvKFG5RY","Poissonnerie Les Embruns SARL","48.8873655","2.3500065",NA,"3.5","4","food point_of_interest establishment"
"ChIJtdVXNGZu5kcRTYyznt0EEzE","Le fournil de Paris","48.8873993","2.3500258",NA,"4","1","bakery food point_of_interest store establishment"
"ChIJbeSrNWZu5kcRaClbw8xDpcg","Pomi","48.8874475","2.3500474",NA,NA,NA,"point_of_interest establishment"
"ChIJzTMqwWdu5kcRLntssU3ikOc","Kolade Onifade","48.8875524","2.3488291",NA,NA,NA,"lawyer point_of_interest establishment"
"ChIJV0FJTKNv5kcRR3eFGVJVZBI","MATAR VISION et AUDITION","48.8875524","2.348829",NA,NA,NA,"doctor health point_of_interest store establishment"
"ChIJI5MrvXJv5kcRjBqYM2b--Wg","Samuel Lannadère","48.8875524","2.348829",NA,NA,NA,"health point_of_interest establishment"
"ChIJ2dh9caBv5kcReikHLknm9Og","Haouzi Guy","48.8872542","2.3499472",NA,NA,NA,"dentist health point_of_interest establishment"
"ChIJVVVhM2Zu5kcRXIEjb_gJI_o","Studio 20+100","48.8872542","2.3499472",NA,NA,NA,"point_of_interest establishment"
"ChIJ3UzuSmZu5kcRXHhlBKxMlNw","Exotiques","48.8876956","2.3499983",NA,"5","1","grocery_or_supermarket food point_of_interest store establishment"
"ChIJsRYKM2Zu5kcRlAxVXyeWjv0","Chirurgien Dentiste Raphael Bellity","48.8872445","2.3499399",NA,"1","1","dentist health point_of_interest establishment"
"ChIJsRYKM2Zu5kcRKYMW3ULh3TQ","Lambert Benoit","48.8872445","2.3499399",NA,NA,NA,"point_of_interest establishment"
"ChIJ9UACtWdu5kcRCxWWaQEs_Do","Château Rouge","48.8878826","2.3497168",NA,NA,NA,"bus_station transit_station point_of_interest establishment"
"ChIJX6G3ZvVv5kcRI__Tx3-ifCg","Pomi premeurs du chateau","48.8874581","2.3500878",NA,"4","1","food point_of_interest establishment"
"ChIJiybGzGdu5kcRVXsMW1lAlCo","Amar Frères Butchers","48.8872","2.3499149",NA,"4","2","food point_of_interest store establishment"
"ChIJlwKYtGdu5kcRdVevGpjLE9A","Restaurant Kamer","48.8878674","2.3497978",NA,"3.4","7","restaurant food point_of_interest establishment"
"ChIJfdr7Z2Zu5kcRRZFMzKJIlcE","Boucherie Familiale trois","48.8876846","2.3500591",NA,"2.3","3","food point_of_interest store establishment"
"ChIJcVBxfYtv5kcRHaMJfcQmR9Q","Abrar medical diagnostic center","48.8874167","2.3495377",NA,NA,NA,"point_of_interest establishment"
