"Id","Name","Lat","Lng","Price_level","Rating","Nb_Rating","Type"
"ChIJcYQ9R-pt5kcRFKF0h73yDc8","403-385 Rue des Pyrénées","48.8738461","2.3868775",NA,NA,NA,"route"
"ChIJbTygO-pt5kcRDEAoxKiJjvU","Hôtel des Pyrénées - Paris Belleville","48.873778","2.386011",NA,"3.7","165","lodging point_of_interest establishment"
"ChIJF2O_JOpt5kcR5aO3RohbO08","Le Mistral","48.8737341","2.3857164","2","4.2","234","restaurant bar food point_of_interest establishment"
"ChIJdYg3OOpt5kcRxjiVWwN4MSE","S.t.i.m.o.b","48.8736861","2.3865411",NA,NA,NA,"real_estate_agency point_of_interest establishment"
"ChIJHTUfJOpt5kcR3BNoNIF7Dps","Foyer Amendiers Belleville","48.8735469","2.3859651",NA,"3","2","point_of_interest establishment"
"ChIJG6iSJOpt5kcRYzJSmjoYjHU","Pharmacie Du Métro Pyrénées","48.873819","2.3856744",NA,"3.8","17","pharmacy health point_of_interest store establishment"
"ChIJ_feNJOpt5kcR7gnSKCNIRn4","Bew Web Agency","48.8738136","2.3858709",NA,"5","38","point_of_interest establishment"
"ChIJdYg3OOpt5kcROVx3zSY_okk","Sibuet Xavier","48.8736861","2.3865411",NA,NA,NA,"point_of_interest establishment"
"ChIJLaWjPupt5kcRfUh78D6c8uk","Il Posto","48.8740012","2.3863969","2","4.4","1012","restaurant food point_of_interest establishment"
"ChIJRZrHL-pt5kcR6lGRYxKb0kE","Ayrine","48.8735208","2.38589",NA,"4.5","2","point_of_interest establishment"
"ChIJdxDPL-pt5kcReSc7rv7gXVU","Charlotte Spillemaecker photographe","48.8735051","2.3859148",NA,NA,NA,"point_of_interest establishment"
"ChIJr_6CI-pt5kcR3em36KinVgo","Borne de taxi Métro Pyrénées","48.8740552","2.3858793",NA,"4.7","3","taxi_stand point_of_interest establishment"
"ChIJAQDQJept5kcRQvdPuGL0Qi4","Les Animaux Du Zoo","48.8737533","2.385686",NA,NA,NA,"point_of_interest establishment"
"ChIJ19jML-pt5kcR_aFkwAPkfcQ","Elisabeth Hertzfeld","48.8734767","2.385915",NA,NA,NA,"point_of_interest establishment"
"ChIJF2O_JOpt5kcRiyG3VHSz6rY","Sarl Chaudemanche","48.8737533","2.385686",NA,NA,NA,"restaurant food point_of_interest establishment"
"ChIJdYg3OOpt5kcRHjH7TjnMuYo","Tabac des Pyrénées","48.873686","2.386541",NA,"3.9","32","point_of_interest store establishment"
"ChIJOaccJOpt5kcRPY75Ol5PAKE","Crédit du Nord","48.874078","2.3858334",NA,"4","4","bank atm finance point_of_interest establishment"
"ChIJF2O_JOpt5kcR6W8crN8bK38","Margue Pierre","48.8737533","2.385686",NA,NA,NA,"point_of_interest establishment"
"ChIJ8WtMPept5kcRIBcUlnGqfEo","BNP Paribas - Paris Bolivar Pyrenees","48.8741685","2.3859864",NA,"1.3","14","bank atm finance point_of_interest establishment"
"ChIJD7fiBh9u5kcRYJSMaMOCCwQ","Paris","48.856614","2.3522219",NA,NA,NA,"locality political"
"ChIJjbC9Mept5kcRcnwh-Hy2vPc","Leblond Joelle","48.8735051","2.3859148",NA,NA,NA,"point_of_interest establishment"
"ChIJfdJqOept5kcR8q5_Y0ydr4o","BRED-Banque Populaire","48.8737693","2.3862234",NA,"2","25","bank atm finance point_of_interest establishment"
"ChIJ35P8JOpt5kcR6X4QK8Ueh60","Pyrénées - Belleville","48.8738328","2.3860679",NA,NA,NA,"transit_station point_of_interest establishment"
"ChIJE2owOupt5kcRbUirOLzZAQg","MARGITTA ROSALES","48.8737454","2.3862944",NA,NA,NA,"point_of_interest establishment"
"ChIJOYD8Hiht5kcRDoEKPo_f1xA","Samuel Hannibal","48.8737454","2.3862944",NA,"5","1","health point_of_interest establishment"
"ChIJgTSiFWZt5kcRo6YgMpZc9jg","CHASSAGNAC ATELIER D'ÉVÉNEMENTS","48.8737454","2.3862944",NA,NA,NA,"point_of_interest establishment"
"ChIJc7XEO-pt5kcRH1HdWEnx77M","Architecte Delorme Pascale","48.8737454","2.3862944",NA,NA,NA,"point_of_interest establishment"
"ChIJWUAEoWRt5kcR4CuC2z3DFYA","Urban Bakery","48.8738136","2.3858709",NA,"1","1","bakery food point_of_interest store establishment"
"ChIJr_5Rl_xt5kcRzPDWIVj7Ddg","Au Pain du Varlin","48.8738136","2.3858709",NA,"2.8","10","bakery food point_of_interest store establishment"
"ChIJzXatzn5t5kcR0ckwMpGwr6w","Paillardreinet","48.8739847","2.3862263",NA,NA,NA,"point_of_interest establishment"
"ChIJJV9OO-pt5kcRDU24kMGBpjU","Primeurs des Pyrénées","48.8739847","2.3862263",NA,"3.6","14","grocery_or_supermarket food point_of_interest store establishment"
"ChIJLTL3JOpt5kcRT2ThsiyDkSM","Maroquinerie Bijoux","48.8738132","2.385852",NA,NA,NA,"store point_of_interest establishment"
"ChIJKyA8Oept5kcRpPuvisRBjrs","Paris Recharge Charging Station","48.8738699","2.386466",NA,NA,NA,"point_of_interest establishment"
"ChIJkR88Oept5kcRI_SM-s9Ija4","OKY SUSHI okysushi","48.8739711","2.3864912","1","3.7","38","restaurant food point_of_interest establishment"
"ChIJR4g2OOpt5kcReaGIBx2NOGc","21 OCTOBER","48.8736861","2.3865411",NA,NA,NA,"point_of_interest establishment"
"ChIJR4g2OOpt5kcR13AF-CWf0N0","Project Advisory","48.8736861","2.3865411",NA,NA,NA,"point_of_interest establishment"
"ChIJOaccJOpt5kcR-pAZNt5R6sw","A.C.M.S Pyrénées","48.8740552","2.3858793",NA,"2","2","health point_of_interest establishment"
"ChIJfdJqOept5kcR6ozKRsWUwWA","Grygiel Krzysztof","48.8735232","2.3863483",NA,NA,NA,"point_of_interest establishment"
"ChIJAQDQJept5kcRZOIiQD-2Au8","Sonia Codhant","48.8737533","2.385686",NA,NA,NA,"movie_theater point_of_interest establishment"
"ChIJdxDPL-pt5kcR5UpbJqZnqIc","Covo Olivier","48.8737533","2.385686",NA,NA,NA,"point_of_interest establishment"
"ChIJ45nlGLdz5kcRamlOmOfJR4M","Alice Brunel","48.8736642","2.3856862",NA,NA,NA,"point_of_interest establishment"
"ChIJXcP9ycNt5kcRvspWLgZLzsQ","Atelier des Lunettes","48.8741517","2.3860576",NA,"4.7","18","health point_of_interest store establishment"
"ChIJ4UUrIupt5kcR1tJi9b6i7nM","Lefèvre Bernard","48.8740873","2.3858296",NA,NA,NA,"point_of_interest establishment"
"ChIJ67dfIept5kcR-Fu0DQpN8vE","Courti Préts Immobiliers","48.874038","2.3857276",NA,NA,NA,"real_estate_agency point_of_interest establishment"
