"Id","Name","Lat","Lng","Rating","Nb_Rating","Type"
"ChIJq1C39dtt5kcRG3jskiLMGPc","13-3 Rue Bouret","48.8808841","2.3757947",NA,NA,"route"
"ChIJz-sj8dtt5kcRE6_ThZNolus","A nous la démocratie","48.8811469","2.3755592",NA,NA,"point_of_interest establishment"
"ChIJY4Kc8Ntt5kcRDascRV2ti7Y","Astrée rugueuse","48.8811973","2.375383",NA,NA,"point_of_interest establishment"
"ChIJwfCI8Ntt5kcRfGM0N_B6XZk","Paris Eliott","48.8811973","2.375383","5","1","point_of_interest establishment"
"ChIJW7Lo69tt5kcRhEOlwsxkcgE","Rising Bird Music","48.8817679","2.375808",NA,NA,"point_of_interest establishment"
"ChIJD7fiBh9u5kcRYJSMaMOCCwQ","Paris","48.856614","2.3522219",NA,NA,"locality political"
