"Id","Name","Lat","Lng","Rating","Nb_Rating","Type"
"ChIJ72hZRfpt5kcR25vxJpuSYmY","52-60 Avenue Parmentier","48.8624479","2.3766328",NA,NA,"route"
"ChIJbcaZy7lu5kcRuUn6Zi6DDrc","K2 Accueil Et Services","48.862464","2.3760897",NA,NA,"point_of_interest establishment"
"ChIJ06ejsvtt5kcRLKHRVze0d8I","Stageweb","48.862449","2.3758355",NA,NA,"point_of_interest establishment"
"ChIJ06ejsvtt5kcRJsfh39-PwQA","Euraster","48.862449","2.3758355",NA,NA,"point_of_interest establishment"
"ChIJ06ejsvtt5kcRG1K1VJ5cJFA","Made in City","48.8624792","2.3758299",NA,NA,"point_of_interest establishment"
"ChIJ06ejsvtt5kcRIOnmZKN1Q-M","Anne Genty","48.8624792","2.3758299",NA,NA,"point_of_interest establishment"
"ChIJ__9PTPpt5kcRM92Qf9DWe1g","Carrefour City","48.8624423","2.3763913","4.2","54","supermarket bakery grocery_or_supermarket restaurant food point_of_interest store establishment"
"ChIJrYV1Tfpt5kcR1H-iTVnm0o8","Mome Sweet Mome","48.8627221","2.3759463",NA,NA,"point_of_interest establishment"
"ChIJJWXQs_tt5kcRsRRUVT8pPXo","Allebe Herz Karine","48.8623344","2.375618",NA,NA,"general_contractor point_of_interest establishment"
"ChIJyQkrS_pt5kcRgcBUZri0Wao","Casting Des Aliments (Vegan, Santé, Consulting, Alimentation, Nutrition, Naturopathie, Healthy)","48.8621809","2.3755763",NA,NA,"point_of_interest establishment"
"ChIJyQkrS_pt5kcR2WAwpSTo9Xs","Tiennot Nathalie","48.8621809","2.3755763",NA,NA,"point_of_interest establishment"
"ChIJyQkrS_pt5kcRZoZvJ9ct8_k","Millot Gerard","48.8620481","2.3758785",NA,NA,"point_of_interest establishment"
"ChIJr51NfI1v5kcRm6Wz6IDtvaA","QUARKSLAB","48.8621137","2.3764802","5","3","point_of_interest establishment"
"ChIJ06ejsvtt5kcRJQstbmTYwx0","Little big ad","48.862479","2.37583",NA,NA,"point_of_interest establishment"
"ChIJ06ejsvtt5kcRJWmdXpQpIvI","Récurrence photo","48.8624792","2.3758299",NA,NA,"point_of_interest establishment"
"ChIJU-XASPpt5kcRQZHhbUwqQhA","Econom'Diag","48.8620829","2.3764201",NA,NA,"finance point_of_interest establishment"
"ChIJI48hrPtt5kcR4Gbuf5oThPY","Favron Mathias","48.8626515","2.3756059","5","1","point_of_interest establishment"
"ChIJwSDWsvtt5kcRRI_isStoBCg","Astrolabe Conseil","48.8624792","2.3758299","4.6","11","point_of_interest establishment"
"ChIJ8-51Vfpt5kcRdjbfxJ92w9U","Jandelle Paris","48.8628381","2.3760439","5","1","home_goods_store general_contractor point_of_interest store establishment"
"ChIJD7fiBh9u5kcRYJSMaMOCCwQ","Paris","48.856614","2.3522219",NA,NA,"locality political"
"ChIJgbKRTfpt5kcRM02K2I2-R2w","Oncp - Crèche Saint-Ambroise","48.8625039","2.3760538","3.7","3","point_of_interest establishment"
"ChIJwSDWsvtt5kcRCgcuNkg3qFk","Bielecki Christian Jacques","48.8624792","2.3758299",NA,NA,"real_estate_agency point_of_interest establishment"
"ChIJrYV1Tfpt5kcRd0VqVDslHUs","Les Petits Bilingues","48.8625408","2.3761257","2","1","point_of_interest establishment"
"ChIJD3WCUvpt5kcRz-XBEcpu3AY","La Reverie","48.8625039","2.3760538",NA,NA,"point_of_interest establishment"
"ChIJD3WCUvpt5kcRgz1sDOmh5NY","Transport Jean Jaurès","48.8625039","2.3760538",NA,NA,"point_of_interest establishment"
"ChIJO_rrTfpt5kcRBF8bwacs9BQ","Virgin Radio","48.8624386","2.376186",NA,NA,"point_of_interest establishment"
"ChIJKzroTfpt5kcR7Da8IoDZrEs","Café Associatif","48.8624255","2.3761995",NA,NA,"point_of_interest establishment"
"ChIJqSTvEfNt5kcRPxVdS3Mzqb8","Moretetet","48.8625177","2.3758878",NA,NA,"point_of_interest establishment"
"ChIJ06ejsvtt5kcR-cOJn6eaea4","François-Henry de Cormery","48.8624792","2.3758299",NA,NA,"point_of_interest establishment"
"ChIJ06ejsvtt5kcR03Zg0f3cvBU","Les Evenements Verts","48.8624792","2.3758299",NA,NA,"point_of_interest establishment"
"ChIJL2KyU_pt5kcRCZAmd6YK77U","STUDIO 45","48.8626693","2.3761436","5","4","gym health point_of_interest establishment"
"ChIJLaxUUPpt5kcRJ8sVlQrZTTA","Charbonnier Luc Marie Gerard","48.8626693","2.3761436",NA,NA,"point_of_interest establishment"
"ChIJ5cYc_xlt5kcR_b_USbT-1iY","Carrefour Drive","48.8623893","2.3764026","4","2","supermarket grocery_or_supermarket food point_of_interest store establishment"
"ChIJgUdbsvtt5kcRVDsNheSVlkU","Hotel Du Monde","48.8624079","2.3756816","5","1","lodging point_of_interest establishment"
"ChIJgUdbsvtt5kcRQGhmOgfgn2Q","Hotelière Cosmopolitan","48.8624079","2.3756816","4.3","4","lodging point_of_interest establishment"
"ChIJnXuYwTxt5kcRMnMtE0vye98","AMMS Atelier Mécanique Moto et Scooter","48.8623825","2.3764281","5","11","car_repair point_of_interest store establishment"
"ChIJFRR3T_pt5kcRd04JL6BObzQ","AM2R l'Atelier mécanique 2 roues","48.862379","2.3764727","4.7","25","car_repair point_of_interest store establishment"
"ChIJBbdwS_pt5kcROT0lTM52uOk","דירה של נועה","48.8621458","2.3760276","4","1","lodging point_of_interest establishment"
"ChIJEcyftPtt5kcRrhHB9SZ21dE","Aaa Luxury And Sport Car Rental","48.8621909","2.3757821",NA,NA,"car_rental point_of_interest establishment"
"ChIJ__-bVPpt5kcRt-U001tSwZo","La Colocscopie","48.8628381","2.3760439","5","11","bar point_of_interest establishment"
"ChIJ8-51Vfpt5kcR3qRvGNInCv8","Creuz Bar","48.8628381","2.3760439",NA,NA,"bar cafe food point_of_interest store establishment"
"ChIJT-l1Vfpt5kcRCKefRAkp3KA","MAGGIORELLA FELICE ORTHOPEDIE","48.8628435","2.3760376","4.6","11","doctor health point_of_interest establishment"
"ChIJ7R807Pxt5kcRPgFOxS7eStA","Maureen Wulf","48.862656","2.375536",NA,NA,"clothing_store point_of_interest store establishment"
"ChIJT-l1Vfpt5kcRwa54wdZjH2M","Fun Scooters","48.8628809","2.3761201","4","86","point_of_interest store establishment"
"ChIJkS9wnHRt5kcR9qfcED55cbw","Atlantic","48.8621809","2.3755763",NA,NA,"lodging point_of_interest establishment"
"ChIJr7cItPtt5kcRM6ry7ecIYgw","Panisset Olivier","48.8621809","2.3755763","5","4","point_of_interest establishment"
"ChIJVWXGtPtt5kcRjaLw58gH6n0","Cathelineau François","48.8620481","2.3758785",NA,NA,"point_of_interest establishment"
"ChIJG1T5Rfpt5kcRPbf3IZvGzt8","Nails Fournitures Salon De Manucure","48.8621905","2.3765941","4.2","41","beauty_salon point_of_interest establishment"
"ChIJJx4_rvtt5kcRAWWeWnfaro0","Ferria Zitouni","48.8625846","2.3754577",NA,NA,"point_of_interest establishment"
"ChIJC-dp3bVt5kcRi-eX8eMrN7k","Ambulances Port Royal 75","48.8621905","2.3765941",NA,NA,"health point_of_interest establishment"
"ChIJG1T5Rfpt5kcRDcx8Ju825dk","Zhang Tao","48.8621905","2.3765941",NA,NA,"point_of_interest establishment"
"ChIJi7SfVfpt5kcRj1waM6BPKKI","Pierre Karam Conseil Santé","48.862891","2.3760718",NA,NA,"point_of_interest establishment"
"ChIJ6fNuRvpt5kcRuphUEZ-smJw","Saint-Ambroise","48.8622494","2.3766746",NA,NA,"bus_station transit_station point_of_interest establishment"
