"Id","Name","Lat","Lng","Price_level","Rating","Nb_Rating","Type"
"ChIJF5UpsUZu5kcRH9bWZeLCLbE","57 Rue des Martyrs","48.8805478","2.34035",NA,NA,NA,"route"
"ChIJQa0EvEZu5kcRS-pQXESuWnU","Hôtel de Turin","48.8805942","2.3397497",NA,"3.5","387","lodging point_of_interest establishment"
"ChIJNQoJuUZu5kcRFmtyuQGSgi8","Le Pantruche","48.8804948","2.3396424","2","4.5","379","restaurant food point_of_interest establishment"
"ChIJlxppyEZu5kcROoAGHdARFQI","Fuxia","48.8801741","2.3401801","2","3.8","119","restaurant food point_of_interest store establishment"
"ChIJgb4luEZu5kcR58-5wlpHh1Y","COLLECTION T.","48.8803677","2.3402535",NA,"4.4","26","food point_of_interest store establishment"
"ChIJ5e82yEZu5kcR2RuGbZQVmms","Café Marlette (Martyrs)","48.88022","2.3401952","2","4.1","576","cafe restaurant food point_of_interest store establishment"
"ChIJF5BSyEZu5kcRpsZiNRmV_Lw","Bissara Frereau Francoise","48.8801843","2.3401958",NA,NA,NA,"point_of_interest establishment"
"ChIJZ1pmsEZu5kcRwwNdXmUGbvE","Club dechecs","48.8807147","2.3401001",NA,NA,NA,"cafe food point_of_interest establishment"
"ChIJFQJesUZu5kcR_nHeVRc4EwY","Lelutin","48.8806186","2.3404785",NA,NA,NA,"point_of_interest establishment"
"ChIJB_zrvUZu5kcRnR9vJ94j5WU","ACTE billetterie","48.8806281","2.3396045",NA,"2","4","point_of_interest store establishment"
"ChIJQ4lmlUZu5kcR2SWgsYwCkE4","Guilbert Victor","48.8804608","2.339541",NA,NA,NA,"point_of_interest establishment"
"ChIJ-zYXtUZu5kcR3jqSipsErpk","1001 Fenêtres","48.8803235","2.3406879",NA,"4.5","44","furniture_store home_goods_store point_of_interest store establishment"
"ChIJhe634EZu5kcRERRu9fFmg9c","Aela","48.8805257","2.3406842",NA,NA,NA,"movie_theater point_of_interest establishment"
"ChIJ4Si4uUZu5kcR6jS6R10f-CU","Pharmacie Massé","48.8804238","2.3400331",NA,"4.3","6","pharmacy health point_of_interest store establishment"
"ChIJ-zYXtUZu5kcR1vsYw_jaubg","Christophe","48.8802797","2.3407125",NA,NA,NA,"point_of_interest establishment"
"ChIJ17eMyEZu5kcR6S8ezQ4U_pg","BNP Paribas","48.8800744","2.3400944",NA,"3.7","9","bank atm finance point_of_interest establishment"
"ChIJHTONsEZu5kcRY5oQEX2xTtM","CIC","48.8805605","2.3402056",NA,"1","6","bank finance insurance_agency point_of_interest establishment"
"ChIJ6XH7ukZu5kcRSNS9MpcuMMM","ACTING CONSEIL","48.88074","2.340013",NA,NA,NA,"point_of_interest establishment"
"ChIJ-aq8tEZu5kcRIOx_vUZABAg","Franprix","48.88049","2.34077",NA,"4.5","8","supermarket grocery_or_supermarket restaurant food point_of_interest store establishment"
"ChIJD7fiBh9u5kcRYJSMaMOCCwQ","Paris","48.856614","2.3522219",NA,NA,NA,"locality political"
"ChIJ1bdtDclv5kcR3o_JsXRK7P8","French Society of Dermatology","48.880728","2.339747",NA,"5","3","point_of_interest establishment"
"ChIJGTZ_ukZu5kcRsnPlH1-0jBI","Librairie L'atelier 9","48.880722","2.3401561",NA,"4.4","16","book_store library point_of_interest store establishment"
"ChIJda9myUZu5kcR8Ty95VRwwVA","Glaces Glazed","48.8800083","2.340424","2","4.4","158","cafe food point_of_interest store establishment"
"ChIJXT2DyUZu5kcROKlF5BhlQbk","Phone And Com","48.8800083","2.340424",NA,NA,NA,"point_of_interest store establishment"
"ChIJXT2DyUZu5kcRlSlCkT-iDck","Le Pain Quotidien","48.8800083","2.340424","2","3.9","406","restaurant bakery cafe food point_of_interest store establishment"
"ChIJB_zrvUZu5kcRnH0ijwHCcR8","Sayrin Vicken","48.880694","2.3395541",NA,NA,NA,"point_of_interest establishment"
"ChIJNQoJuUZu5kcRLZsNHj2FFo8","J.C Immobilier","48.880499","2.3396402",NA,NA,NA,"real_estate_agency point_of_interest establishment"
"ChIJufeyt0Zu5kcRnQ_caGiDBBk","Au Fond Du Jardin","48.8803358","2.3402388",NA,"2","4","grocery_or_supermarket food point_of_interest store establishment"
"ChIJn11asUZu5kcR6jglPjc-KVU","Place Lino Ventura","48.8805801","2.3404516",NA,"4.3","62","point_of_interest establishment"
"ChIJkfzGyUZu5kcRxKwc1e5b6_E","Delikatessen Kaviari","48.880184","2.3404824",NA,"4.8","6","store grocery_or_supermarket food point_of_interest establishment"
"ChIJkfzGyUZu5kcRyddvx-hDQd0","El Janoub Sarl","48.880184","2.3404824",NA,NA,NA,"grocery_or_supermarket food point_of_interest store establishment"
"ChIJ__-Dt0Zu5kcRSSmO-OdxXE8","Les Etablissements Roy","48.8803698","2.3401487",NA,NA,NA,"school point_of_interest establishment"
"ChIJ__-Dt0Zu5kcRr2Wim2Ze4H0","IKIGAI","48.8803698","2.3401487",NA,"5","1","point_of_interest establishment"
"ChIJufeyt0Zu5kcRwr3zs_Me-QQ","Ghandour Amer","48.8803698","2.3401487",NA,NA,NA,"point_of_interest establishment"
"ChIJyZyOvkZu5kcRQjUCIxLdBUg","Victor Massé Locksmith","48.8804143","2.3399406",NA,"4.6","19","locksmith point_of_interest establishment"
"ChIJ_aBPt0Zu5kcRo4CMZ0xp3HU","Euro","48.8805122","2.3401928",NA,NA,NA,"point_of_interest establishment"
"ChIJ7RJBtkZu5kcRs57tqCn8Iu0","Cœur de breizh","48.880305","2.340219","2","4.4","459","restaurant food point_of_interest store establishment"
"ChIJzx2KuUZu5kcRV7mBcjhIMkA","Banque Assurance","48.8805457","2.340032",NA,NA,NA,"point_of_interest establishment"
"ChIJQ2mNLDdv5kcRmwHqqlwdJuQ","LYDIA bnb","48.8802839","2.3402173",NA,NA,NA,"lodging point_of_interest establishment"
"ChIJa6Y7uUZu5kcRiApCc--NFqw","Ollivier Timothe","48.8804459","2.3398395",NA,NA,NA,"point_of_interest establishment"
"ChIJa6Y7uUZu5kcRpp0DY1AbUcs","JPESC","48.8804459","2.3398395",NA,NA,NA,"point_of_interest establishment"
"ChIJowN8rHVv5kcRdbp7ikapWgg","228 Litres","48.8804671","2.3398288",NA,"4.7","88","restaurant food point_of_interest establishment"
"ChIJlxppyEZu5kcRKRUgV0MSCb8","Bitton Victor","48.8802782","2.3398116",NA,NA,NA,"point_of_interest establishment"
"ChIJlxppyEZu5kcRTgadhHWil8o","Chassagnol Jacqueline","48.8802782","2.3398116",NA,NA,NA,"point_of_interest establishment"
"ChIJW1cnHhNv5kcR2jl-jB-XWAY","Casa","48.8802129","2.3403604",NA,NA,NA,"lodging point_of_interest establishment"
"ChIJZ1pmsEZu5kcRa_RkN4K8EHc","Rue des Martyrs market street","48.8807211","2.3401645",NA,"4.4","9","point_of_interest establishment"
"ChIJo5oetkZu5kcR9LnudQucH1g","Le Comptoir Belge","48.8802515","2.3405271","2","4.5","267","bakery cafe food point_of_interest store establishment"
"ChIJR-QNvkZu5kcReFP1ITljjLw","Association Siloé","48.8804608","2.339541",NA,NA,NA,"point_of_interest establishment"
"ChIJwykHykZu5kcR8MRftPdV54c","Superette Des Martyrs","48.8802093","2.340501",NA,NA,NA,"store point_of_interest establishment"
"ChIJAQA8x0Zu5kcRq2Qwc3w2snw","The Hot Dog Corner","48.8801403","2.3398222",NA,NA,NA,"point_of_interest establishment"
"ChIJlcsPx0Zu5kcR2PPnASNLkMc","Ligue","48.8801403","2.3398222",NA,NA,NA,"point_of_interest establishment"
"ChIJd9IcykZu5kcRcmtdUFy5csU","Ceo","48.8801853","2.3404767",NA,NA,NA,"point_of_interest establishment"
"ChIJkfzGyUZu5kcRXIhae-A9ksY","Kohn Max","48.8801853","2.3404767",NA,NA,NA,"point_of_interest establishment"
"ChIJVV2fuXlv5kcR-21Vu-BQiLI","Labo Photo Boussaid","48.8807438","2.3402544",NA,NA,NA,"book_store point_of_interest store establishment"
"ChIJW3q29SBv5kcRAqCHNfwKdAg","Maison Chaton","48.8802366","2.3405705",NA,"5","1","point_of_interest store establishment"
"ChIJbbmLtUZu5kcRYs4bIbqNzpw","Le Ventura","48.8802366","2.3405705",NA,"4.1","191","restaurant food point_of_interest establishment"
"ChIJbbmLtUZu5kcRVlH601NFh38","PSYchothérapies,ART-thérapie,COACHing perso, pro, artistique, vie, couple -Paris 9 &18-Emma Scali","48.8802366","2.3405705",NA,"5","12","university health point_of_interest establishment"
"ChIJBcR_s0Zu5kcR5pYZJ9UB4kk","LA BOULANGERIE VERTE","48.8804648","2.3406582","1","4.2","86","bakery food point_of_interest store establishment"
"ChIJuQWVr0dv5kcRwioEH_5T3BU","Des Petits Hauts","48.8801224","2.3404757",NA,NA,NA,"point_of_interest clothing_store store establishment"
"ChIJR-QNvkZu5kcRwOqpZdhxIgs","Hindenoch Marie","48.8804608","2.339541",NA,NA,NA,"point_of_interest establishment"
