"Id","Name","Lat","Lng","Rating","Nb_Rating","Type"
"ChIJl_nBq6Nt5kcRTOmnKaRm83Q","18 Bd Sérurier","48.8779408","2.4056731",NA,NA,"route"
"ChIJr0GmrqNt5kcRcaN88PsZI70","Daisy Bruley","48.8779551","2.4057527",NA,NA,"point_of_interest establishment"
"ChIJ63mJMqNt5kcRvecxLmNja0A","Fondation Casip Cojasor Residence Amaraggi (association)","48.8776941","2.4055357","3","5","health point_of_interest establishment"
"ChIJk6toAKNt5kcRRyO5wOtQvb4","Fontaine Wallace","48.8777532","2.4052663","5","1","point_of_interest establishment"
"ChIJqQWDAaNt5kcRMKP94GBvh3s","INTERMARCHE EXPRESS","48.8777778","2.405","3.9","104","supermarket grocery_or_supermarket food point_of_interest store establishment"
"ChIJbRGmc6Nt5kcRS3D7zKBp3x0","Réservoir des Lilas","48.8792135","2.4051051",NA,NA,"premise point_of_interest establishment"
"ChIJD7fiBh9u5kcRYJSMaMOCCwQ","Paris","48.856614","2.3522219",NA,NA,"locality political"
