"Id","Name","Lat","Lng","Price_level","Rating","Nb_Rating","Type"
"ChIJlWXjTBJu5kcRmW8LpKGzTGw","73 Rue du Faubourg Saint-Denis","48.8728311","2.3544314",NA,NA,NA,"route"
"ChIJp_tpshNu5kcRl7WkUlVKvUA","Hôtel Aulivia Opéra","48.8730556","2.3541667",NA,"3.9","324","lodging point_of_interest establishment"
"ChIJUTjISBJu5kcRyvQTXPONleY","Garden Opéra Hôtel Paris","48.872655","2.3548239",NA,"2.6","125","lodging point_of_interest establishment"
"ChIJ9y8_TxJu5kcRMt8tzVtQgPI","Épicerie serbe ""Globus Star 2""","48.872738","2.3549608",NA,"3.9","13","grocery_or_supermarket food point_of_interest store establishment"
"ChIJnVXeTBJu5kcR49xU540yn3w","Le Napoléon","48.872925","2.3542944","2","3.9","417","bar point_of_interest establishment"
"ChIJgZ2dSxJu5kcRPYUHtpkb6AY","Pizza Grill Istanbul","48.8726205","2.3545094","2","4.4","832","restaurant food point_of_interest establishment"
"ChIJA2x70RNu5kcR_Yrxrx_mKww","La Quincaillerie","48.8731925","2.354774","2","4","287","bar restaurant food point_of_interest establishment"
"ChIJlTBTUhJu5kcRd2H1F1JSqqI","Opti'soins","48.8731248","2.354435",NA,"3.6","17","health point_of_interest store establishment"
"ChIJ_65l-T5u5kcRnGYk9ACzF7M","BLOOM","48.8731128","2.3543212",NA,"3.5","4","point_of_interest establishment"
"ChIJrXjAgxDsC0ERv8_lCYneeb4","Vincent Poirier","48.8729684","2.3546473",NA,NA,NA,"point_of_interest establishment"
"ChIJwVDISxJu5kcRHZrSVQAyQa8","Bessadi Sara","48.8726384","2.3544839",NA,"1","1","point_of_interest establishment"
"ChIJ15akshNu5kcRrHPQEnsvf_k","Mamie Faubourg St-Denis","48.872988","2.354218","2","4.1","857","restaurant food point_of_interest establishment"
"ChIJlTBTUhJu5kcRqB-j5UbBHXI","Tout'Ecrit","48.8731371","2.3543365",NA,NA,NA,"point_of_interest establishment"
"ChIJnbbCtBNu5kcRgi1m4tziSTY","Kenza Gold","48.8726042","2.3541168",NA,"4.7","12","jewelry_store point_of_interest store establishment"
"ChIJb0V815hx5kcRKOd2dD6HG30","ALT-C archi","48.8728698","2.354001",NA,NA,NA,"point_of_interest establishment"
"ChIJnUoHrRNu5kcRl-cJxKH0Ig8","COULEURS JAZZ - Digital Magazine","48.8731371","2.3543365",NA,"5","2","point_of_interest establishment"
"ChIJsbf6URJu5kcRbLnc8iqFGps","Papelli Fbg Saint Denis","48.8731098","2.3547136","1","4.6","506","meal_takeaway restaurant food point_of_interest establishment"
"ChIJvYPfthNu5kcRnEo1YEYN7bQ","Chrétiens dans l'Enseignement Public","48.8726118","2.3540682",NA,NA,NA,"point_of_interest establishment"
"ChIJGf0oshNu5kcRvlYTsI_xMtc","Young Bros","48.8728863","2.3539282",NA,"1","1","point_of_interest establishment"
"ChIJD7fiBh9u5kcRYJSMaMOCCwQ","Paris","48.856614","2.3522219",NA,NA,NA,"locality political"
"ChIJ44xhURJu5kcRiD7mqcVbTKc","Mo2 Formation","48.8732055","2.3544944",NA,NA,NA,"point_of_interest establishment"
"ChIJGW5qyxNu5kcRrNs24tdDAgY","La Distillerie de Paris","48.8724865","2.3543289",NA,"4.8","21","bar point_of_interest establishment"
"ChIJ80n9RRJu5kcRON7RyfIblwM","Thierry Presse","48.8727275","2.3549999",NA,"5","2","point_of_interest store establishment"
"ChIJq6p-sRNu5kcRgaSys8ZVcEw","Deli's Time by Marmara Restaurant","48.872851","2.3538954","1","3.9","175","restaurant food point_of_interest establishment"
"ChIJ7ZLUsRNu5kcRfgP2_yqP8i0","Scarpe","48.8729202","2.3538503",NA,NA,NA,"doctor health point_of_interest establishment"
"ChIJAQAUThJu5kcRl3YGg5wOhWg","AVP Architectes","48.8729527","2.3546948",NA,NA,NA,"point_of_interest establishment"
"ChIJ19gFSxJu5kcRNAwmvzJd9YQ","CIMG France Cenaze Fonu","48.8725787","2.3543994",NA,NA,NA,"funeral_home point_of_interest establishment"
"ChIJaykRUhJu5kcRefsj0E3TPJs","Second Bureau","48.8731371","2.3543365",NA,NA,NA,"point_of_interest establishment"
"ChIJq6q2URJu5kcRhzZT8EEoWRA","shkconseils","48.873108","2.3547955",NA,NA,NA,"point_of_interest establishment"
"ChIJ449yaxJu5kcR2Kp0QN2iKyo","Le Château d'Eau","48.872714","2.3546784","1","4.2","490","cafe bar restaurant food point_of_interest establishment"
"ChIJPXTTRxJu5kcRTMLGF4EQ3nE","Nachitos Chicken","48.8725292","2.3549748",NA,"3.9","182","restaurant food point_of_interest establishment"
"ChIJm1GqShJu5kcRZ_EK2VqA_Vk","Spi","48.8723844","2.3543326",NA,NA,NA,"restaurant bar food point_of_interest establishment"
"ChIJda8OSxJu5kcRd7wrQr2OKBU","Union Européenne pour la Création et le Soutien des Mosquées U.E.C.M","48.8724926","2.3546722",NA,"4.5","2","point_of_interest establishment"
"ChIJlTBTUhJu5kcRZmIzwxRBQwI","Koskievic Jean","48.8731371","2.3543365",NA,"3.3","7","dentist health point_of_interest establishment"
"ChIJrYxnTRJu5kcR1sQJdq9CRd8","Belfort Hôtel","48.8729415","2.3543353",NA,"3.2","15","lodging point_of_interest establishment"
"ChIJm_nsURJu5kcRValbL8C5Bzo","Halogene (atelier)","48.8730955","2.3547048",NA,NA,NA,"point_of_interest establishment"
"ChIJDahqTBJu5kcRkg6VdPtVg6Q","B K Distribution","48.8727197","2.3545436",NA,NA,NA,"electronics_store point_of_interest store establishment"
"ChIJW06Yh5tv5kcR1MVFpZ_y6fc","Crêpe Château d'eau","48.872847","2.3546901",NA,"5","2","restaurant food point_of_interest store establishment"
"ChIJqzCKThJu5kcRrGStdd0KsLg","Keycafe","48.872847","2.3546901",NA,NA,NA,"point_of_interest store establishment"
"ChIJKUxTTBJu5kcR7KEgdAPUwGA","Le Mondial","48.872847","2.3546901","2","3.3","271","restaurant bar liquor_store food point_of_interest store establishment"
"ChIJqzCKThJu5kcRaoThlDNQUQA","Ruty Charles","48.872847","2.3546901",NA,NA,NA,"point_of_interest establishment"
"ChIJxbebsxNu5kcRLvxkrrrpRQA","Kebox Kebap","48.872775","2.354222","1","4.2","164","restaurant food point_of_interest establishment"
"ChIJvYXlThJu5kcRawVw3YPne5o","African Queen","48.872827","2.3547386",NA,NA,NA,"point_of_interest establishment"
"ChIJR_85TRJu5kcR_ZnKjkAXKeM","Melisse","48.8729617","2.3542561",NA,NA,NA,"restaurant bar food point_of_interest establishment"
"ChIJN-w445Vv5kcRUZzUX6OTbjw","Daily syrien veggie","48.8729527","2.3546948",NA,"4.6","21","restaurant food point_of_interest establishment"
"ChIJ2XSxTxJu5kcRNUe780RzwR4","Faubourg Press Impec","48.8729527","2.3546948",NA,"3","7","laundry point_of_interest establishment"
"ChIJwWgysxNu5kcRv61CmAZop3A","Boulangerie AYEB","48.8727662","2.3541959",NA,"3.7","10","bakery food point_of_interest store establishment"
"ChIJgZ2dSxJu5kcR1jHRUW6cFFU","Guillemin Michel","48.8726384","2.3544839",NA,NA,NA,"health point_of_interest establishment"
"ChIJfSTnshNu5kcRQyvp_iUCyYk","Ngoun Heng","48.8727747","2.3541564",NA,"4.9","13","bar restaurant food point_of_interest establishment"
"ChIJf2Nn1uRv5kcRHRxyCjzBe8o","UPS Access Point","48.87306","2.35441",NA,NA,NA,"point_of_interest establishment"
"ChIJZSMfTxJu5kcRGFrAhtryz_c","Senegal Beauté","48.8727812","2.3548081",NA,"3.8","22","beauty_salon point_of_interest establishment"
"ChIJeUKNshNu5kcRBKwonjywCEk","Gallia Tony","48.8729492","2.3541416","2","4.5","155","bar restaurant food point_of_interest establishment"
"ChIJ4a_2X7Jv5kcR7LngXTyHWuc","Dai Dai","48.87267","2.3541597",NA,"4.6","87","restaurant food point_of_interest establishment"
"ChIJyyOYtBNu5kcRz3iib_YX5Vs","Apartamento chic","48.87267","2.3541597",NA,NA,NA,"lodging point_of_interest establishment"
"ChIJlSfxrrgV5kcRHKaO-og0ftQ","HAJJ OMRA VOYAGES PELERINAGE CIMG REGION PARISIENNE MILLI GORUS MUZDALIFA","48.872579","2.354399",NA,NA,NA,"point_of_interest establishment"
"ChIJzatJxIpv5kcRXw2se72NX1o","Moschee Camii türk","48.8725787","2.3543994",NA,"4.7","3","mosque place_of_worship point_of_interest establishment"
"ChIJxx7oShJu5kcRFSv47hkbJFk","Candies Dream","48.8725855","2.3542912",NA,"5","1","food point_of_interest store establishment"
"ChIJ0cx5URJu5kcRf4vMJ-HYzFU","Nonna Sima","48.8730936","2.3547036",NA,NA,NA,"point_of_interest establishment"
"ChIJY-1XtRNu5kcR6cJga57p0dg","Urfa Durum","48.8724274","2.3542717","1","4.5","1822","restaurant food point_of_interest establishment"
"ChIJAQDQUhJu5kcRZ-jFHizTGTI","julie rosier architecte","48.8731371","2.3543365",NA,NA,NA,"point_of_interest establishment"
