"Id","Name","Lat","Lng","Rating","Nb_Rating","Type"
"ChIJl5eIJH5y5kcRiDeG595Mhig","48-50 Boulevard Davout","48.8514459","2.4110887",NA,NA,"route"
"ChIJu_lgLH5y5kcRox2z93r-qCg","Wanda","48.851662","2.4114651","1","1","point_of_interest establishment"
"ChIJ3eKQMn5y5kcRXtkQRUy4e4E","Quantic Dream","48.8519652","2.4112667","4.9","51","point_of_interest establishment"
"ChIJxfe_J35y5kcR8j4qcGMU4zU","Square Paganini","48.8516218","2.4114681","3.2","14","park point_of_interest establishment"
"ChIJaUunJn5y5kcRaTuTp_Pj1u4","Fontaine Les Poings d’Eau","48.8514503","2.4111973",NA,NA,"point_of_interest establishment"
"ChIJwWYCeStz5kcR1svuuK3YaJc","Les Poings d’eau, rue Paganini","48.8513981","2.411095",NA,NA,"point_of_interest establishment"
"ChIJqb3hnIBy5kcRPliw0_-v0-Y","Schubert - Paganini","48.8515104","2.4117914","3","1","transit_station point_of_interest establishment"
"ChIJ-yi0J35y5kcRcAPlzi0OWVk","Square Paganini","48.8516146","2.411464",NA,NA,"park premise point_of_interest establishment"
"ChIJD7fiBh9u5kcRYJSMaMOCCwQ","Paris","48.856614","2.3522219",NA,NA,"locality political"
