"Id","Name","Lat","Lng","Price_level","Rating","Nb_Rating","Type"
"ChIJuUOES45t5kcRupQaIy6R2b0","15-7 Rue Emile Landrin","48.863642","2.3983365",NA,NA,NA,"route"
"ChIJuS5aN45t5kcRv2HfNEnB9hM","Hôtel Paris Gambetta","48.8641122","2.3979614",NA,"4","141","lodging point_of_interest establishment"
"ChIJUzIGOI5t5kcRItWtCx2fuJg","Janah Brahim","48.8639602","2.397898",NA,NA,NA,"grocery_or_supermarket food point_of_interest store establishment"
"ChIJH70qMY5t5kcRUYGa-p7svQk","Lichtlé Nicolas","48.8642093","2.3981141",NA,NA,NA,"point_of_interest establishment"
"ChIJ30hDnJJt5kcRPCqkm4lme_Q","Time2digital","48.8635726","2.3982805",NA,NA,NA,"point_of_interest establishment"
"ChIJUzIGOI5t5kcRIiicoYeCrns","Dr Nacasch Claude - Paris 20","48.8639602","2.397898",NA,"3.7","108","dentist health point_of_interest establishment"
"ChIJR5oWrP1t5kcRC2RnvqaPy2s","Club Vet","48.8639179","2.3988603",NA,"4.9","206","point_of_interest store establishment"
"ChIJ9VBkM0tu5kcRST9FiO8PyyA","Sineau Gregoire Osteopathe","48.8639953","2.3978509",NA,"5","2","health point_of_interest establishment"
"ChIJ34WcJY5t5kcRVGlull-2QTg","A FLOWER HILL","48.8642472","2.3981208",NA,"4.6","20","florist point_of_interest store establishment"
"ChIJNQwP41Ft5kcR5toZplw5zKU","Optel Thevon","48.8634512","2.3982595",NA,NA,NA,"point_of_interest establishment"
"ChIJAQBwtI9t5kcRY97SMFkAFHk","Coffre Privé","48.8637411","2.3986173",NA,NA,NA,"point_of_interest establishment"
"ChIJAetonJJt5kcR2f1wLHV2BEo","Adenium Paris","48.863479","2.398341",NA,NA,NA,"point_of_interest establishment"
"ChIJ2aZhvI9t5kcRoRR6Zy6CV5k","Le Narval","48.8639759","2.3990131",NA,"3.3","48","bar restaurant food point_of_interest establishment"
"ChIJyWnyR45t5kcRG0gaDCe_tJ8","Notaires, Christian BROGI et Claire CAILLOUX","48.8638119","2.3978106",NA,"3.9","76","finance point_of_interest establishment"
"ChIJH70qMY5t5kcRtYTLag4A0us","Chez Betty","48.8643034","2.3981493","2","4.4","60","restaurant food point_of_interest establishment"
"ChIJ_fzqiQZt5kcR4_7ZANQgAiU","BEBECRECHE","48.8637611","2.3982415",NA,"4","1","point_of_interest establishment"
"ChIJze7KtI9t5kcRgAAD-eUvUes","5 Horizons","48.8636982","2.3985203",NA,NA,NA,"point_of_interest establishment"
"ChIJ1zjUNY5t5kcR-7TQDMxhDBY","Enfants d'Orient","48.8640796","2.3982144",NA,"5","1","point_of_interest establishment"
"ChIJ1zjUNY5t5kcR9WXwJwOXIRw","Reteno Igor","48.8640796","2.3982144",NA,NA,NA,"point_of_interest establishment"
"ChIJD7fiBh9u5kcRYJSMaMOCCwQ","Paris","48.856614","2.3522219",NA,NA,NA,"locality political"
"ChIJ1V-rtY9t5kcRPYbkyoeSEfs","Le Moigne Claude","48.8637362","2.398767",NA,NA,NA,"doctor health point_of_interest establishment"
"ChIJHyAhSI5t5kcRdUZQaf7Q4NE","Céline, Salon de coiffure « hommes & femmes »","48.8639297","2.3979339",NA,"4.9","29","hair_care point_of_interest establishment"
"ChIJH70qMY5t5kcR7h8Bl7EBuY8","Boukaïef","48.8639563","2.3979117",NA,NA,NA,"point_of_interest establishment"
"ChIJTU8etI9t5kcR1jpWC7-j4dg","Perlowska Miroslawa","48.8636479","2.398729",NA,NA,NA,"point_of_interest establishment"
"ChIJUzIGOI5t5kcR9EWr0Z9zrac","Ruiz Brigitte","48.8639602","2.397898",NA,NA,NA,"point_of_interest establishment"
"ChIJUzIGOI5t5kcR5AoF09JHp8o","Subovici Vera","48.8639602","2.397898",NA,"5","2","doctor health point_of_interest establishment"
"ChIJUzIGOI5t5kcRhyMjQShnTR0","Peter Denis Charles","48.8639602","2.397898",NA,"5","1","restaurant bar food point_of_interest establishment"
"ChIJuWtG6i5t5kcRPEyhfVMszRo","ALEXANDRE RODZINSKI","48.8639353","2.3978638",NA,"5","4","health point_of_interest establishment"
"ChIJhdG_dGVt5kcRRyQJpY_Qtqc","Le Bear cafe","48.8640337","2.3979066",NA,"4.6","48","restaurant food point_of_interest establishment"
"ChIJX3RbTI5t5kcREA5cgdeTjtQ","Lourdin Jean-Pierre","48.8635151","2.3982881",NA,NA,NA,"point_of_interest establishment"
"ChIJNeXHNo5t5kcRyFortFdudtw","Annuaire Inverse Telecom","48.8642093","2.3981141",NA,"1","3","point_of_interest establishment"
"ChIJH70qMY5t5kcRcmpZ6_6EkcE","Joly Aline","48.8642093","2.3981141",NA,NA,NA,"point_of_interest establishment"
"ChIJvX29y49t5kcRALzO28HZvLA","KNIT IN PARIS","48.8641579","2.3987813",NA,NA,NA,"point_of_interest establishment"
"ChIJAc0myI9t5kcRzAsFnRJOZg8","Les Caves Des Grands Crus","48.8638781","2.3990123",NA,NA,NA,"restaurant bar food point_of_interest establishment"
"ChIJAc0myI9t5kcRneWYwyo0-Vo","Zuba Suleyman","48.8638781","2.3990123",NA,"1","2","point_of_interest store establishment"
"ChIJhwezTY5t5kcRkIzq4uXaqF4","CLUB 22301","48.8634512","2.3982595",NA,NA,NA,"point_of_interest establishment"
"ChIJIYb_yI9t5kcRhERJS5YQozU","Royal Fata","48.864174","2.398875","2","4.1","221","restaurant food point_of_interest establishment"
"ChIJVd9OMY5t5kcRLtBAIgmxf7s","CONCOURS DE LA FONCTION PUBLIQUE","48.8642795","2.398149",NA,NA,NA,"point_of_interest establishment"
"ChIJd7Os6UZt5kcRn4ofPxZWxq8","Isabelle DEBERNARD - Gestalt Thérapie - Membre de la Fédération de Psychothérapie et de Psychanalyse","48.8636782","2.3977535",NA,"5","7","health point_of_interest establishment"
"ChIJc4YNRo5t5kcRX47Wq18aHpE","Vassallo Odile","48.8636782","2.3977535",NA,NA,NA,"point_of_interest establishment"
"ChIJL2Diy49t5kcRTMUNEoGJmZA","Griffe-Priv","48.8641851","2.3989014",NA,NA,NA,"point_of_interest establishment"
