"Id","Name","Lat","Lng","Price_level","Rating","Nb_Rating","Type"
"ChIJuU4QTmpu5kcRQdEGRwukONU","82 Rue de Maubeuge","48.8794648","2.348776",NA,NA,NA,"route"
"ChIJF33NImpu5kcRCYQjDHypT5k","GRDF","48.8796131","2.3484073",NA,"4.4","171","point_of_interest establishment"
"ChIJ1Vb4TGpu5kcRKAfLzzxn10s","L'école Consultants Financiers","48.8797085","2.348895",NA,"3","1","school point_of_interest establishment"
"ChIJfV94fmpu5kcRunFDIAmtGCQ","object in mirror","48.8793728","2.3489535",NA,NA,NA,"point_of_interest establishment"
"ChIJSwZJTWpu5kcRZnVUvwBSyzQ","Yamadaya","48.8794767","2.3491311","1","4.7","249","meal_takeaway restaurant food point_of_interest establishment"
"ChIJBaB3QUFu5kcRpgQXnokHXrY","Agence photographique LA COLLECTION","48.879406","2.3485947",NA,NA,NA,"point_of_interest establishment"
"ChIJc4c4jkBu5kcRs4SSPUeQMEo","VFR Services","48.8793191","2.3482824",NA,NA,NA,"point_of_interest establishment"
"ChIJAQCQOmtu5kcReh2ho2hHPAM","PaperMint - Showroom","48.879172","2.348751",NA,"4.4","25","general_contractor point_of_interest establishment"
"ChIJ1Vb4TGpu5kcRIiCLtvcvoN8","Puillet Philippe","48.8796794","2.3489682",NA,NA,NA,"point_of_interest establishment"
"ChIJOSXc-51v5kcR-I0tHrBYNVg","Agence du Faubourg","48.8796794","2.3489682",NA,"5","5","real_estate_agency point_of_interest establishment"
"ChIJgeIzTWpu5kcRspow96NGIt8","FRANZ VAP","48.8794767","2.3492591",NA,"4.3","9","point_of_interest store establishment"
"ChIJAQC8smtu5kcRUlc5RJY4T10","HCO Expert","48.8794829","2.3492667",NA,NA,NA,"accounting finance point_of_interest establishment"
"ChIJgeIzTWpu5kcRjVzO795rvWg","Banette","48.8794988","2.3492879","1","4.5","63","bakery food point_of_interest store establishment"
"ChIJXSe9p0Bu5kcRbI12quVHGYU","Barber Hair'Minute","48.8791991","2.3482498",NA,"3.5","102","beauty_salon point_of_interest store establishment"
"ChIJ_bnKSOJt5kcRuyDijXE0nSI","N3RD","48.8790751","2.3484778",NA,NA,NA,"point_of_interest establishment"
"ChIJ1wy5Wmpu5kcRxDUizXe_uOU","Nes","48.8794021","2.3480883",NA,NA,NA,"point_of_interest establishment"
"ChIJ30-WWWpu5kcRqpBBjiwiO4c","STUDIO GIRAUD","48.8791629","2.3482443",NA,"5","1","point_of_interest establishment"
"ChIJAQBsTGpu5kcR0SfYJhjlebw","Projets Plus Actions","48.8796794","2.3489682",NA,"2.3","3","point_of_interest establishment"
"ChIJwSJ6MmJu5kcR5_BTNEEkP0E","Kwyk","48.879709","2.348895",NA,"3.1","68","point_of_interest establishment"
"ChIJD7fiBh9u5kcRYJSMaMOCCwQ","Paris","48.856614","2.3522219",NA,NA,NA,"locality political"
"ChIJES2iUGpu5kcRB1Ol78CE1dc","Sédat Jacques","48.8791723","2.3487505",NA,NA,NA,"health point_of_interest establishment"
"ChIJ1Vb4TGpu5kcRPoFZzkOTduc","Pharmacie Condorcet","48.8795925","2.3489036",NA,"4.7","6","pharmacy health point_of_interest store establishment"
"ChIJ31GL6jVu5kcRWWKw_D8QocQ","benedictepiedelievre","48.8796626","2.3481073",NA,NA,NA,"point_of_interest establishment"
"ChIJ-TLAXGpu5kcRX7Xbb_5cwZA","Loiselet","48.8793669","2.3480311",NA,"5","1","point_of_interest establishment"
"ChIJ-TLAXGpu5kcRFyZ5EC7SIXg","Audioprothésiste Paris 9 - VivaSon","48.8793669","2.3480311",NA,"4.7","17","doctor health point_of_interest store establishment"
"ChIJR_gHly9u5kcRcFC7bZuTb8o","BRED-Banque Populaire","48.8791698","2.3482212",NA,"2.6","14","bank atm finance point_of_interest establishment"
"ChIJqQ65TGpu5kcR589fzprtLqE","Harmony pressing","48.8797409","2.349054",NA,"3.9","13","laundry point_of_interest establishment"
"ChIJe7sz8B1u5kcR7U9C6aADp9c","Bessaih Jamila","48.879375","2.348764",NA,NA,NA,"point_of_interest establishment"
"ChIJeQMFTGpu5kcRJXlfmVGEupA","Le Lotus d'Or","48.8796325","2.348828","1","4.3","63","restaurant food point_of_interest establishment"
"ChIJt5KHUmpu5kcRruLWrW4sveA","Jobard D'avout D'auerstaedt Chloe","48.8793884","2.3490131",NA,NA,NA,"point_of_interest establishment"
"ChIJrQe3U2pu5kcROjxMuDA7-kg","Le Saint Georges","48.8792503","2.3487602",NA,"4.1","118","cafe restaurant food point_of_interest store establishment"
"ChIJZy5BUWpu5kcRMtUMFwuEHLc","Xin Kai Yue","48.8792326","2.3487052",NA,"5","2","meal_takeaway restaurant food point_of_interest establishment"
"ChIJMdVnTWpu5kcR3l0hjsKEf2I","A2l","48.87946","2.349093",NA,NA,NA,"point_of_interest establishment"
"ChIJQdTlnY1v5kcRRcpfo63_Ed4","Quatrevingtdeux","48.87946","2.349093",NA,NA,NA,"restaurant food point_of_interest establishment"
"ChIJ24ok_NZv5kcRY6a_PRgTcfA","82","48.87946","2.349093",NA,"4.7","39","restaurant food point_of_interest establishment"
"ChIJpYUlUGpu5kcR0LhwvG6OjeE","Dental Surgeon Paris 9 Carole Ancona-Zalcberg","48.87946","2.349093",NA,"4.4","23","dentist doctor health point_of_interest establishment"
"ChIJSwZJTWpu5kcRSHbDZUph_5o","R.g.g.","48.8794767","2.3492591",NA,NA,NA,"accounting finance point_of_interest establishment"
"ChIJE9_gUGpu5kcRiUM2gW_cKCQ","Resto Ilane Sandwichs & Pizza","48.8791985","2.3486497",NA,"5","2","restaurant food point_of_interest establishment"
"ChIJZcyeRWpu5kcRBMqiFwFN-7M","Wize Alliance","48.8796109","2.3484281",NA,NA,NA,"point_of_interest establishment"
"ChIJcQUHnIVv5kcRVmpLepzxcSQ","Autre voyage","48.8796109","2.348428",NA,NA,NA,"point_of_interest establishment"
"ChIJ1cGgLc1x5kcRUtQpQ3Ie4w0","Luma's Cake - Cake Design Paris - lumascake.fr","48.879334","2.349084",NA,"4.7","19","bakery home_goods_store food point_of_interest store establishment"
"ChIJkwdyVmxv5kcRp5SCljUVMtw","L'apèro du 9ème","48.8793336","2.3490838",NA,"5","8","bar restaurant food point_of_interest establishment"
"ChIJAQBsTGpu5kcR2A3syczhixk","HRIM INVEST IMMOBILIER","48.8796215","2.3490307",NA,"5","15","finance real_estate_agency point_of_interest establishment"
"ChIJXcyeRWpu5kcRGdtH0LIoFD8","Mp.lso","48.8796131","2.3484073",NA,NA,NA,"school point_of_interest establishment"
"ChIJ9YW2U2pu5kcR0oJFXKRG-lo","Benammar Jean Marc","48.8791723","2.3487505",NA,NA,NA,"point_of_interest establishment"
"ChIJn8H60jlw5kcRZXWs_l7Rt5M","SDG AUDIT","48.879172","2.348751",NA,"5","10","accounting finance point_of_interest establishment"
"ChIJAQBsTGpu5kcR8UFPOSQ440o","Pharmacie Bendayan","48.8796794","2.3489682",NA,"5","1","point_of_interest establishment"
"ChIJAQBsTGpu5kcRDInZJFmcuVY","Apostrophe & Cie","48.8796794","2.3489682",NA,NA,NA,"point_of_interest establishment"
"ChIJLbJoNfZv5kcRfpuy1RUTL50","Studio d'épilation ""Ultramarine""","48.8796794","2.3489682",NA,"5","2","beauty_salon point_of_interest establishment"
"ChIJrYXvUkJu5kcRxwRF-dWEc5A","Patrick MARTIN Psychologue","48.8796794","2.3489682",NA,"4.3","6","health point_of_interest establishment"
"ChIJ1Vb4TGpu5kcRwuBFCtp_60g","De Jaegere Antoine","48.8796794","2.3489682",NA,NA,NA,"point_of_interest establishment"
"ChIJeQMFTGpu5kcRcbiJ54RgTfU","Espace Croissance","48.8797085","2.348895",NA,"3","1","point_of_interest establishment"
"ChIJURruuUZv5kcRB0nHjb1Vyq4","Pates Artisanales","48.8795678","2.3483042",NA,"4.6","10","restaurant food point_of_interest establishment"
"ChIJ6b1aWRNv5kcRKIUDx5VoLIE","Renostyles Paris","48.8791744","2.3489809",NA,"5","7","locksmith point_of_interest establishment"
"ChIJd9XLU2pu5kcR2ieA_B9SKDw","Poivron Rouge","48.8791516","2.3489776",NA,"5","3","restaurant food point_of_interest establishment"
"ChIJpUwLr9tv5kcRqXzlCwbq5lY","Condorcet","48.8795871","2.3482551",NA,NA,NA,"point_of_interest establishment"
"ChIJv-6-smtu5kcRfoFgwVN19jw","Le Petit Fumeur","48.879483","2.3492668",NA,NA,NA,"point_of_interest establishment"
"ChIJKR-XxqFv5kcRVKl89btMwgQ","SHUN XIN","48.8797409","2.349054",NA,NA,NA,"point_of_interest establishment"
"ChIJHzl-S2pu5kcRwC86sdPmPI0","Sautier Guillaume","48.8797409","2.349054",NA,NA,NA,"point_of_interest establishment"
"ChIJqQ65TGpu5kcROyFIk8cFZiM","Francois Martine Rolande","48.8797409","2.349054",NA,NA,NA,"physiotherapist health point_of_interest establishment"
