"Id","Name","Lat","Lng","Price_level","Rating","Nb_Rating","Type"
"ChIJgROafYdy5kcRFvj42AMyI-0","Boulevard Davout","48.8477359","2.411288",NA,NA,NA,"route"
"ChIJ1_wpgn1y5kcR6KhWlEAPf84","McDonald's Porte de Vincennes","48.8475254","2.4108063","1","3.2","1225","restaurant food point_of_interest establishment"
"ChIJiWhChn1y5kcRwqkCSzYEtEc","Euro Gsm","48.8478298","2.410978",NA,NA,NA,"point_of_interest establishment"
"ChIJU39W_31y5kcRkY5YnCGLYY4","La Plateforme du Bâtiment","48.8479561","2.4110056",NA,"4.2","23","home_goods_store point_of_interest clothing_store store establishment"
"ChIJTW-1hX1y5kcRAqCyYeKCVII","Synd.copr. Du 5 Bd Davout 75020","48.8477881","2.4107909",NA,NA,NA,"point_of_interest establishment"
"ChIJVwXKhn1y5kcR7sFGdFXvlk4","Franprix","48.8476731","2.4108112",NA,"3","25","supermarket grocery_or_supermarket restaurant food point_of_interest store establishment"
"ChIJwQxyhH1y5kcRMNwx97Yxeu0","Sogi 20","48.8476629","2.4107665",NA,NA,NA,"supermarket grocery_or_supermarket food point_of_interest store establishment"
"ChIJt__uY4dy5kcRjA8s7K1qYo4","Artisan Boulanger Pâtissier","48.8481882","2.4115637",NA,"3.3","27","bakery food point_of_interest store establishment"
"ChIJT15jhn1y5kcRH56efmsN2Rc","Hugo Le Bozec","48.8477979","2.4109316",NA,NA,NA,"point_of_interest establishment"
"ChIJhwMMfIdy5kcRDYA8Y9LzRcE","La Parision","48.8476689","2.4115511",NA,NA,NA,"point_of_interest establishment"
"ChIJAQAAAIRt5kcRnoeXKCDpo5s","Kebab Urfa 63","48.8477715","2.4109748","1","4.4","146","restaurant food point_of_interest establishment"
"ChIJH-dphn1y5kcRKvvdRkbshYo","Paris Multimedia","48.8478328","2.4109717",NA,NA,NA,"point_of_interest establishment"
"ChIJTW-1hX1y5kcRrRRwXPzSLx8","Hubrix","48.8477979","2.4109316",NA,NA,NA,"point_of_interest establishment"
"ChIJCVpJ-9tz5kcRIqaBRtW5Lj4","Coiffure barbie","48.8477979","2.4109316",NA,"4.8","5","hair_care point_of_interest establishment"
"ChIJr3wbhn1y5kcR_Mz6O5QBT40","Pro Coif'G et J","48.8479818","2.4110153",NA,"4.3","33","hair_care point_of_interest establishment"
"ChIJMar_YIdy5kcRS_Xcs4rTYWM","Akderat","48.847975","2.410942",NA,"5","4","home_goods_store point_of_interest store establishment"
"ChIJVVWliH1y5kcR-rAb5JUt7PA","Hilti","48.8479754","2.4109417",NA,NA,NA,"point_of_interest store establishment"
"ChIJraC_iH1y5kcRS4bWMDMdOKc","Cohen Elena","48.8479754","2.4109417",NA,NA,NA,"doctor health point_of_interest establishment"
"ChIJraC_iH1y5kcRgv2fFCCv42o","Pomares Jean","48.8479754","2.4109417",NA,NA,NA,"point_of_interest establishment"
"ChIJD7fiBh9u5kcRYJSMaMOCCwQ","Paris","48.856614","2.3522219",NA,NA,NA,"locality political"
"ChIJr3wbhn1y5kcRGtOPuSqpuqw","Rucquoi Adeline","48.8479754","2.4109417",NA,NA,NA,"point_of_interest establishment"
"ChIJK21wY4dy5kcRI9iZFGtV9-8","Pharmacie de l'Esterel Well&Well","48.8480482","2.4116127",NA,"4.6","11","pharmacy health point_of_interest store establishment"
"ChIJ_1LYfody5kcRneZkK6gf2Dc","Super 7","48.8474617","2.4115045",NA,"5","1","store point_of_interest establishment"
"ChIJWQabY4dy5kcRTlozJWlfDgA","Boucherie Assafa.","48.8481081","2.4115583",NA,"4.2","6","food point_of_interest store establishment"
"ChIJK21wY4dy5kcRDm1S1SUVf5Q","Hachemane Djaffar","48.84812","2.4116162",NA,NA,NA,"point_of_interest establishment"
"ChIJK21wY4dy5kcRU8KIsNvudBw","Kefi Hichem","48.84812","2.4116162",NA,"5","2","point_of_interest establishment"
"ChIJfTrXsk5z5kcR2D3mTLDffNg","235th Barber Street Nation","48.8481962","2.411079",NA,"5","1","hair_care point_of_interest establishment"
"ChIJ-yyOkX1y5kcRZqeP0fua9Qs","Music hall paris","48.8481819","2.4109768",NA,"3.7","6","cafe food point_of_interest establishment"
"ChIJSa1y429z5kcRLe1aUxS6iMw","Chez Fatou","48.8481984","2.411017",NA,"1.3","3","restaurant food point_of_interest establishment"
