"Id","Name","Lat","Lng","Price_level","Rating","Nb_Rating","Type"
"ChIJU4phYlBu5kcRQD37eqZ_3Ug","47-39 Rue Caulaincourt","48.8888225","2.3344392",NA,NA,NA,"route"
"ChIJf-L_W1Bu5kcRMdUfyIyQcvA","brocante ces années-là","48.8887916","2.3342345",NA,"3.8","5","home_goods_store point_of_interest store establishment"
"ChIJY1YXXlBu5kcRsltDnNgC6tY","Pharmacie de la butte","48.8890437","2.3344285",NA,"4.9","11","pharmacy health point_of_interest store establishment"
"ChIJPWeBXlBu5kcRV1fKiSWeXU8","Ymanci - Crédit Immobilier - Paris 18","48.8888645","2.3343026",NA,"4.7","13","finance point_of_interest establishment"
"ChIJVVWhX1Bu5kcRljzMKP0yVNE","Carole Sédillot","48.8890655","2.3343614",NA,NA,NA,"point_of_interest establishment"
"ChIJ__-jX1Bu5kcRIhIdr0Vfn3c","Bernard Azzopardi","48.8890655","2.3343615",NA,NA,NA,"point_of_interest establishment"
"ChIJ8_5MZlBu5kcRAizi35QTQHo","Franprix","48.88874","2.33444",NA,"3.4","84","supermarket grocery_or_supermarket restaurant food point_of_interest store establishment"
"ChIJEfBcZ1Bu5kcRgSeqKwPYfnI","LAMYA MULTIMEDIA","48.8887763","2.3345526",NA,"3","10","point_of_interest establishment"
"ChIJhQWQ9VBu5kcRfbFyb5x5Yy0","Fromagerie Caulaincourt","48.8891641","2.3345168",NA,"4.9","16","food point_of_interest store establishment"
"ChIJyccJVM5x5kcRgMzjERx8PAw","WSI Solution Internet","48.8886395","2.3340187",NA,NA,NA,"point_of_interest establishment"
"ChIJcZhAG_dt5kcRVUd_9GZzdKU","Alexa Lacroix Sophrologue & Coach","48.888636","2.334666",NA,"5","4","point_of_interest establishment"
"ChIJk4DW9FBu5kcRmGdzP7I7RV4","acquerir","48.8893022","2.3346432",NA,"3.7","6","real_estate_agency point_of_interest establishment"
"ChIJx99oilBu5kcRjDBLA1s9fd8","Bollack Celeste","48.8891133","2.3349147",NA,"4.5","2","point_of_interest establishment"
"ChIJ__-7QlBu5kcRVtA_efIOfG4","UJI conseil","48.8884744","2.3344007",NA,NA,NA,"point_of_interest establishment"
"ChIJP_GcQlBu5kcREws891UCbcQ","Promel","48.8884744","2.3344007",NA,"4.4","15","point_of_interest establishment"
"ChIJ1yZKQ1Bu5kcRS6psj7OI3IE","Aspi Service","48.8885016","2.3343361",NA,"3.1","56","home_goods_store point_of_interest store establishment"
"ChIJxZ0eXlBu5kcRs4pJJiUTF4E","Mastino","48.888779","2.3346598","2","4.4","284","meal_takeaway bar restaurant food point_of_interest establishment"
"ChIJY1YXXlBu5kcRkEsdt62zN9c","Cordonnerie Maxime","48.8889851","2.3343894",NA,"4.7","21","point_of_interest establishment"
"ChIJAQCUXlBu5kcRhJGwWb_6sao","Les Loups de la Butte","48.8889194","2.3343167","2","4.8","103","restaurant food point_of_interest establishment"
"ChIJD7fiBh9u5kcRYJSMaMOCCwQ","Paris","48.856614","2.3522219",NA,NA,NA,"locality political"
"ChIJAQCUXlBu5kcRw9ChWIQR7_w","Onyx Immobilier","48.8889101","2.3342607",NA,NA,NA,"point_of_interest establishment"
"ChIJAQCUXlBu5kcRh3MEXOhhh6w","Credit Prem's","48.8889101","2.3342607",NA,NA,NA,"point_of_interest establishment"
"ChIJSws-XFBu5kcR505jU3AbeZQ","Blanc Vif","48.8887916","2.3342345",NA,NA,NA,"point_of_interest establishment"
"ChIJY1YXXlBu5kcR_5OJc2_NnMg","Certes Patricia","48.8890655","2.3343614",NA,"4.6","11","doctor health point_of_interest establishment"
"ChIJY1YXXlBu5kcReDrCCzh0tFQ","Sedillot Azzopardi Marie Claude","48.8890655","2.3343614",NA,NA,NA,"point_of_interest establishment"
"ChIJJ5J_Eb9v5kcRjyZm8Eddfsc","La Passerelle de l'immobilier","48.8887364","2.3340926",NA,NA,NA,"real_estate_agency point_of_interest establishment"
"ChIJX3iiW1Bu5kcRzRZPR3BdH-k","Cabinet Vuldy","48.8887364","2.3340926",NA,NA,NA,"real_estate_agency point_of_interest establishment"
"ChIJKeggZ1Bu5kcRt1kEpjioHBo","Dash Distribution","48.888779","2.3346598",NA,NA,NA,"point_of_interest establishment"
"ChIJU3MHXlBu5kcR_HYClERmpXM","Peregrini Jullien Sophie","48.888779","2.3346598",NA,NA,NA,"point_of_interest establishment"
"ChIJYyBpilBu5kcRb4NaCWzDb_E","La Cave Caulaincourt","48.8890861","2.3348053",NA,"4.9","18","liquor_store food point_of_interest store establishment"
"ChIJPenjXFBu5kcRNYtyvPbTTn0","Le Banquet 2001","48.8886302","2.3344418",NA,NA,NA,"point_of_interest establishment"
"ChIJVRnmhOZv5kcRhqFb-uwi-9Y","Le Carafon","48.8890312","2.3347499",NA,"4.9","25","restaurant bar food point_of_interest establishment"
"ChIJK-PED21v5kcRDVOwWiJoR5U","Le carafon","48.8890117","2.3347691",NA,NA,NA,"point_of_interest establishment"
"ChIJU8ehYVBu5kcROmRPZV-F2ko","Le Népo","48.8890117","2.3347691",NA,"4.5","88","cafe bar restaurant food point_of_interest establishment"
"ChIJH4CgNLRv5kcRyJW_Eodbf2s","ASG Courtage - Caulaincourt - Courtier en crédit immobilier","48.8892067","2.3343052",NA,"5","5","finance point_of_interest establishment"
"ChIJc4RAXVBu5kcRH48ohVaoTWg","Assistance Audiovisuelle","48.8886009","2.3343906",NA,NA,NA,"point_of_interest establishment"
"ChIJl_92YVBu5kcRxJrH_mXNkzI","Lumé","48.8889874","2.334805",NA,"5","1","point_of_interest establishment"
"ChIJl_92YVBu5kcRnIedqY90L5k","Boulangerie Lady Bug","48.8889874","2.334805",NA,"4.2","20","bakery food point_of_interest store establishment"
"ChIJfQSZYVBu5kcRgpsxuzAxDIY","Boris Lumé Boulangerie","48.8889874","2.334805","2","4.5","339","bakery food point_of_interest store establishment"
"ChIJDWMRYVBu5kcR_9Uv_Y3n_S4","Dubosc Baptiste","48.8889874","2.334805",NA,NA,NA,"point_of_interest establishment"
"ChIJk3PgZ1Bu5kcRnSLm79rJNH8","La Marelle","48.8885971","2.3344018",NA,NA,NA,"furniture_store home_goods_store point_of_interest store establishment"
"ChIJr4UH9VBu5kcRTbkvp3ny1N8","Mini Arty","48.8892124","2.3345441",NA,"4.4","12","point_of_interest store establishment"
"ChIJ-Wgp7M1t5kcR0_s7PdwVEAA","Alexa LACROIX","48.888636","2.334666",NA,NA,NA,"health point_of_interest establishment"
"ChIJdYm9pFRu5kcRWWOOq-QMsY0","Barnabé Design","48.8886395","2.3340187",NA,NA,NA,"point_of_interest establishment"
"ChIJx4mbXFBu5kcRm1uUHCRUFJ4","Ida Javelle Akiko","48.8886395","2.3340187",NA,NA,NA,"point_of_interest establishment"
"ChIJJZsOYFBu5kcRqZnHtdv-3f8","La Butte Vidéo","48.8892455","2.3345942",NA,"4.8","37","movie_rental point_of_interest establishment"
"ChIJh9dUo9Vv5kcRPrQMFNKeyvk","Expert Bâtiment 75","48.8891133","2.3349147",NA,"5","2","finance point_of_interest establishment"
"ChIJwZ1silBu5kcRyCPj8EmfjhA","DEBARRAS LOCAUX","48.8891133","2.3349147",NA,"4.4","16","point_of_interest establishment"
"ChIJYyBpilBu5kcRogsg1NdXuy4","Ironde Hélène","48.8891133","2.3349147",NA,NA,NA,"point_of_interest establishment"
"ChIJ__-7QlBu5kcRVQy8W6swWAw","AGEELINK","48.8884744","2.3344007",NA,"5","10","point_of_interest establishment"
"ChIJk4DW9FBu5kcRsDIKSQBitUs","La Corbeille de Caulaincourt","48.8893243","2.3346643",NA,"1.7","12","grocery_or_supermarket food point_of_interest store establishment"
