"Id","Name","Lat","Lng","Price_level","Rating","Nb_Rating","Type"
"ChIJ_aGx4N9t5kcRy-nvKcN2bhQ","12-14 Rue Vicq d'Azir","48.8761375","2.3699599",NA,NA,NA,"route"
"ChIJxcBH4d9t5kcRZ1DZ-xBZagM","Terreneuve Sarl","48.875891","2.3697947",NA,NA,NA,"point_of_interest establishment"
"ChIJZzyBrDBu5kcRcOiNcYCScCU","Aba Dan Depann","48.87593","2.3700376",NA,"3.4","25","point_of_interest establishment"
"ChIJxcBH4d9t5kcReznqNEBznZo","L'humour Au Centre","48.8760232","2.3697756",NA,NA,NA,"point_of_interest establishment"
"ChIJ32Dg499t5kcRvPLEfGjEbCg","Oscar Café","48.875965","2.369615",NA,NA,NA,"bar point_of_interest establishment"
"ChIJxy5K4d9t5kcRix6gv7nFFpw","Le Beau Songe","48.8762284","2.3696036",NA,NA,NA,"point_of_interest establishment"
"ChIJBSqS_N9t5kcRAENRr6s1EbE","CST","48.8759571","2.3694051",NA,NA,NA,"point_of_interest establishment"
"ChIJq6qqqnNu5kcRy42woy5cu3A","Bonhomme","48.875885","2.3697189",NA,"5","4","point_of_interest establishment"
"ChIJz7Pn4d9t5kcR3NrFFGVRKg4","Erilia","48.875885","2.3697189",NA,"5","1","point_of_interest establishment"
"ChIJR6oj3t9t5kcR9IEDBokw-7s","La Dolce Vita","48.876071","2.3700406",NA,"4.4","56","restaurant food point_of_interest establishment"
"ChIJATOb-99t5kcRNAElxKu5maI","Sewster","48.8762194","2.3691117",NA,"5","4","point_of_interest establishment"
"ChIJvbKG-99t5kcR_nNA6KG0M_U","Lyie","48.8762194","2.3691117",NA,"5","1","jewelry_store point_of_interest store establishment"
"ChIJIbjEVE4g5kcRhKD_F_j_BYE","Chouette","48.8758166","2.3697749",NA,NA,NA,"point_of_interest establishment"
"ChIJeTfd399t5kcRXYAKplb4jiQ","Le Pain Et Le Vin","48.87593","2.3700376",NA,NA,NA,"bar point_of_interest establishment"
"ChIJeTfd399t5kcRh8zKUHUTPCI","La Bonde","48.87593","2.3700376",NA,NA,NA,"point_of_interest establishment"
"ChIJAQAAALdv5kcRYwN0rBQ6NPo","You2You","48.87593","2.3700376",NA,"2.9","82","point_of_interest establishment"
"ChIJ0Xw6_N9t5kcRV3OqprslpIw","La cave du Ballon Rouge","48.8760659","2.3690083",NA,"5","7","liquor_store food point_of_interest store establishment"
"ChIJPSRadeBt5kcRGwG-CC8bqOA","Bodhi Vegan","48.8758246","2.3700387","1","4.6","411","restaurant food point_of_interest establishment"
"ChIJATOb-99t5kcRZu00UywRxgc","Pegasus Leadership","48.8762194","2.3691117",NA,NA,NA,"point_of_interest establishment"
"ChIJD7fiBh9u5kcRYJSMaMOCCwQ","Paris","48.856614","2.3522219",NA,NA,NA,"locality political"
"ChIJ__9vCuBt5kcRBr2b9zqDnO0","Crescendo","48.8758119","2.3697666",NA,NA,NA,"point_of_interest establishment"
"ChIJd4QL4d9t5kcRBx0Fp4tL1vI","Imprimerie à Paris - Impressions Jaurès","48.8760636","2.369708",NA,"4.4","18","point_of_interest store establishment"
"ChIJs1Oq_t9t5kcRRBQj4vHwxBM","Expert en agencement de pharmacies 75010, A3 Concept","48.8762227","2.3689217",NA,NA,NA,"point_of_interest establishment"
"ChIJ32Dg499t5kcRX36ABVSel44","Balan Gheorghe","48.875965","2.369615",NA,NA,NA,"general_contractor point_of_interest establishment"
"ChIJP8QC3t9t5kcRKV8A76gz9-E","Le Premier","48.8760719","2.3698292",NA,"3.3","3","point_of_interest establishment"
"ChIJl75It1lt5kcRi2njPF-yEGU","Delicepouletbraise","48.876183","2.3696198",NA,NA,NA,"restaurant food point_of_interest store establishment"
"ChIJcb6GhIpt5kcR0E2JSNHom5g","Délices Pizza","48.8762041","2.3696016",NA,"3","25","meal_delivery meal_takeaway restaurant food point_of_interest establishment"
"ChIJ9UsO5N9t5kcRDScQwOvQ25w","Ben Mimoun Jamel","48.8762284","2.3696036",NA,NA,NA,"restaurant food point_of_interest establishment"
"ChIJ4XSe5N9t5kcRZ3zaUtVZJAE","Ambulances Herve","48.8761877","2.3694419",NA,"3","1","health point_of_interest establishment"
"ChIJq6qO5N9t5kcRlSTJLGnKBR0","Ambulances Ebene","48.8762311","2.3694719",NA,NA,NA,"health point_of_interest establishment"
"ChIJ0aOt5t9t5kcRTnw3RCKSq6g","Restaurant La Mere Michele Café","48.8762248","2.3697791",NA,"4.4","30","cafe food point_of_interest establishment"
"ChIJC8sB3t9t5kcRfIXHiYiGFL4","Soc de Fait Haddadi Boudjema Agouazi","48.8762248","2.3697791",NA,"4","4","restaurant bar food point_of_interest establishment"
"ChIJowfo5N9t5kcRGVWgCMLG5c4","Ambulances Universelles Abdellatif","48.876224","2.3694072",NA,NA,NA,"health point_of_interest establishment"
"ChIJ5xOF4d9t5kcRKF20jhtbKXc","Agence Fondrillon","48.875977","2.3696853",NA,NA,NA,"point_of_interest establishment"
"ChIJmVjfg1xt5kcRGbbFNqbS5eg","Les Polissonnes","48.875965","2.369615",NA,NA,NA,"point_of_interest establishment"
"ChIJld7HZ7Jt5kcRAL7FjBaWvfU","Les Polissonnes","48.875965","2.369615",NA,"4.9","46","bar restaurant food point_of_interest establishment"
"ChIJmQFz4t9t5kcRF1Aqjsl8M8E","Fraîche","48.875965","2.369615","2","4.7","274","restaurant food point_of_interest establishment"
"ChIJS3ga-99t5kcRbTqry9KDUlc","Ronai David","48.8762347","2.3692964",NA,NA,NA,"point_of_interest establishment"
"ChIJFRg44N9t5kcRlQHU5JzkSWs","Leirisset Marc","48.875991","2.3698471",NA,NA,NA,"point_of_interest establishment"
"ChIJ8cMC3t9t5kcRHA81CQI0SD8","Affectio Societatis","48.875991","2.3698471",NA,NA,NA,"point_of_interest establishment"
"ChIJnZPV4t9t5kcR--xxVMmJVMw","Lsc","48.8760144","2.3693157",NA,NA,NA,"point_of_interest establishment"
"ChIJfcmHDg1t5kcRLNLbd58ii4U","artomanu","48.8760144","2.3693157",NA,NA,NA,"point_of_interest establishment"
"ChIJS3ga-99t5kcRWzrsjX66X9k","Millenium Club Chicha","48.8761839","2.3692277",NA,"3.8","70","point_of_interest establishment"
"ChIJayf44N9t5kcRajKKYrYs6Ag","Heuroia-Formation","48.875885","2.3697189",NA,"5","1","point_of_interest establishment"
"ChIJW2oBDVxt5kcR1hbSX6_CUzU","SERRURERIE COLONEL FABIEN - POINT FORT FICHET","48.8762194","2.3691117",NA,"4.8","21","locksmith general_contractor point_of_interest store establishment"
"ChIJATOb-99t5kcR9mv4w53gQDM","Emmanuel Guihard","48.8762194","2.3691117",NA,NA,NA,"point_of_interest establishment"
"ChIJ__9P-d9t5kcRXnMt8mXHLIY","A3 LED","48.8762227","2.3689217",NA,NA,NA,"point_of_interest establishment"
"ChIJmQFz4t9t5kcRFu1Lyz2Bb_k","Lucien Frederique","48.8758155","2.3695911",NA,NA,NA,"point_of_interest establishment"
"ChIJi2Yx8idt5kcReEBrW8boLHM","YOUPI Tea'M","48.8760268","2.3700782",NA,"4.8","24","cafe restaurant food point_of_interest establishment"
"ChIJi8_C3d9t5kcRp-w4ykbNHFY","Cabinet du Dr. Ari ASSOULINE","48.8762007","2.3701147",NA,NA,NA,"doctor health point_of_interest establishment"
"ChIJi8_C3d9t5kcRV6uTAYfTcxY","Les Assurances Federales Vie","48.8762007","2.3701147",NA,NA,NA,"insurance_agency point_of_interest establishment"
"ChIJe1kx1opt5kcR1tC6q8Jl_5c","Bonhomme","48.8758166","2.3697749",NA,NA,NA,"point_of_interest establishment"
"ChIJxbs7_N9t5kcRmKA-byLX6P8","Gadonneix Adeline","48.8760437","2.3690167",NA,NA,NA,"health point_of_interest establishment"
"ChIJ0Xw6_N9t5kcRlE95ITE3aJk","Raoule Production","48.8760659","2.3690083",NA,NA,NA,"point_of_interest establishment"
"ChIJf9y8_t9t5kcRxVtVrGPMcyk","Anderson Lee","48.8760659","2.3690083",NA,NA,NA,"point_of_interest establishment"
"ChIJ__9P-d9t5kcRLtaRbfs2ktM","Discloz","48.8762227","2.3689217",NA,NA,NA,"point_of_interest establishment"
"ChIJ__9P-d9t5kcRcXlO9YqurIg","Boulangerie","48.8762227","2.3689217",NA,"3.7","12","bakery food point_of_interest store establishment"
"ChIJz4I9i4Vt5kcR0qIeAergk60","AU VIEUX PAIN","48.876223","2.3689216",NA,"5","1","point_of_interest establishment"
"ChIJJd2y_t9t5kcRIVdu21YBeIE","Allo Phone","48.8761792","2.3689096",NA,NA,NA,"point_of_interest store establishment"
