"Id","Name","Lat","Lng","Price_level","Rating","Nb_Rating","Type"
"ChIJDUq5wDVu5kcRk0Vz2-0UlaA","45-11 Passage du Havre","48.875188","2.3278226",NA,NA,NA,"route"
"ChIJCzNB3TVu5kcRvoe3mpzRBGw","FOSSIL Store Paris Passage du Havre","48.8752339","2.3274694","3","4.1","126","jewelry_store point_of_interest store establishment"
"ChIJLW_xmDVu5kcRM0exlidlh0w","KIKO","48.875239","2.3279596",NA,"4","81","point_of_interest store establishment"
"ChIJP9UApTVu5kcRoQdcTF7EWss","Starbucks","48.8751202","2.3271985","2","3.7","362","bakery cafe restaurant food point_of_interest store establishment"
"ChIJjbgxnzVu5kcRvXCdvqY7DNk","Claire's","48.8751336","2.3276772","2","3.6","138","jewelry_store point_of_interest store establishment"
"ChIJX7-ywTVu5kcRN-m1pPNNnZI","Nature and Discoveries","48.8751344","2.3283252",NA,"4.2","817","home_goods_store food point_of_interest store establishment"
"ChIJCx5gvDVu5kcRt9pnPyTZ9Ss","Darjeeling","48.8752655","2.3278279",NA,"4.2","23","point_of_interest clothing_store store establishment"
"ChIJLW_xmDVu5kcRA44J8XsRkss","celio","48.8751965","2.3272032",NA,"3.8","109","point_of_interest clothing_store store establishment"
"ChIJ-2vNlDVu5kcR3ZtmQLlec_w","Epigone","48.875292","2.3275842",NA,NA,NA,"point_of_interest establishment"
"ChIJKbaSvzVu5kcRr1_3T_u4DGA","I AM","48.8751427","2.327857",NA,"3","10","point_of_interest store establishment"
"ChIJN9bAwDVu5kcR6llA4V65FeM","The Body Shop","48.8751552","2.3278062",NA,"4.3","104","point_of_interest store establishment"
"ChIJRTchuTVu5kcRO5nsEshFx_o","Montre Service Paris Passage Du Havre","48.8752978","2.3277829",NA,"3.5","73","point_of_interest establishment"
"ChIJv8S2bFx65kcRJM0iO8KzTj8","MAESTRIA CONSULTING","48.8752153","2.3281096",NA,NA,NA,"point_of_interest establishment"
"ChIJs3YfvzVu5kcRMlTENRkBTco","Pret A Manger","48.8752212","2.3276119","2","4.1","283","cafe restaurant food point_of_interest store establishment"
"ChIJQWSolzVu5kcRIfOwZ7jtQO8","Sergent Major","48.8751044","2.3280996",NA,"3.6","18","point_of_interest clothing_store store establishment"
"ChIJCx5gvDVu5kcRRC38JhOIH7M","Guérin","48.8752528","2.3281137",NA,"4.2","34","jewelry_store point_of_interest store establishment"
"ChIJAQAAvzVu5kcRMVvZK6iNGJ4","Thérapie par hypnose à Paris","48.875292","2.3275842",NA,NA,NA,"health point_of_interest establishment"
"ChIJc2PtvzVu5kcR_oZmzYk3vA4","NAF NAF","48.8751268","2.3275554",NA,"3.7","63","point_of_interest clothing_store store establishment"
"ChIJFWT7mDVu5kcROlUp3c2rxG0","Gap","48.8753821","2.3273081","2","3.7","193","clothing_store point_of_interest store establishment"
"ChIJD7fiBh9u5kcRYJSMaMOCCwQ","Paris","48.856614","2.3522219",NA,NA,NA,"locality political"
"ChIJ_3sgwjVu5kcRmHoVCwcvyLc","BOUYGUES TELECOM","48.87535","2.32811",NA,"3.3","89","point_of_interest store establishment"
"ChIJgWvNlDVu5kcRBMngAbT-FFw","BSA","48.8755194","2.327935",NA,NA,NA,"insurance_agency point_of_interest establishment"
"ChIJm2avojVu5kcREH9haP0A2Hc","Devialet","48.8753113","2.3274406",NA,"4","38","electronics_store point_of_interest store establishment"
"ChIJoTDppjVu5kcRZq1e7zWBs74","CAROLL Paris Havre","48.8751211","2.3273972",NA,"3.8","43","point_of_interest clothing_store store establishment"
"ChIJ31GL6jVu5kcRyp-oQ30HtaM","Odéolis","48.8755194","2.327935",NA,NA,NA,"point_of_interest establishment"
"ChIJvYQo1xhv5kcRBl__hi7fHvw","Eurocommercial Properties","48.8753056","2.3273632",NA,NA,NA,"point_of_interest establishment"
"ChIJ31GL6jVu5kcRaPM-vs__aSU","Flam's","48.8755353","2.3279297",NA,"3.9","821","restaurant food point_of_interest establishment"
"ChIJPZwy6DVu5kcR6pa8s-iwHjc","McDonald's","48.875467","2.3282501","1","3.3","453","restaurant food point_of_interest establishment"
"ChIJSQ5xmDVu5kcRpIg4R8XuWic","Parking Indigo Paris Passage Du Havre","48.8755229","2.3275367",NA,"1.8","22","parking point_of_interest establishment"
"ChIJM4q-vTVu5kcRf6KHqd9-8_0","babyGap","48.8753658","2.3273091","2","3","1","point_of_interest clothing_store store establishment"
"ChIJiYltljVu5kcRVklxYDaIKeA","Maison Pradier","48.8755199","2.3274984","2","3.6","178","restaurant bakery cafe food point_of_interest store establishment"
"ChIJC-AG6zVu5kcRBZRnNswwADM","Les 5 Caumartin","48.8756082","2.327922",NA,"4.1","422","movie_theater point_of_interest establishment"
"ChIJ15mt4XFy5kcR4g4p2O-RaPA","Synadiet","48.8756203","2.3279182",NA,NA,NA,"point_of_interest establishment"
"ChIJg7hhEjVu5kcRzR3cfLtYKN0","Docteur Amar","48.8754519","2.3283869",NA,NA,NA,"dentist health point_of_interest establishment"
"ChIJCx5gvDVu5kcRw7qvUnoVdAw","Histoire d'Or","48.8751284","2.3276927",NA,"3.9","112","jewelry_store finance point_of_interest store establishment"
"ChIJXRtuljVu5kcRNKqtYS1-OzY","Financo","48.8755305","2.3274204",NA,"1","6","finance point_of_interest establishment"
"ChIJ4VVRmDVu5kcR0cb7NvX5ats","Orcanta","48.8753056","2.3273632",NA,"4","78","point_of_interest clothing_store store establishment"
"ChIJAc385zVu5kcRzWzltbI1EAI","Cautext","48.8755583","2.3282589",NA,NA,NA,"point_of_interest establishment"
"ChIJlRqnwjVu5kcRgRCegw0h_PY","Mercier Jean-Baptiste","48.8753223","2.3284213",NA,"4.9","15","doctor health point_of_interest establishment"
"ChIJ-2vNlDVu5kcRYbYnnXLMKI4","delaveine","48.8755955","2.3278542",NA,"3.9","79","point_of_interest clothing_store store establishment"
"ChIJG88ZhDVu5kcRTpU6NN2DZs8","Jules","48.8751361","2.3280833",NA,"4.1","134","point_of_interest clothing_store store establishment"
"ChIJb3FWwzVu5kcR5Tv-_fF0vV4","Tie Rack","48.8750583","2.3283626",NA,"4.1","42","point_of_interest clothing_store store establishment"
"ChIJoTDppjVu5kcR5gQSZGPZ3gM","Minelli","48.8751366","2.3273861",NA,"3.8","52","shoe_store point_of_interest store establishment"
"ChIJWSBywzVu5kcR0Tk-FHkHPXk","Pascal Coste Coiffure","48.8752533","2.3281471",NA,"2.9","87","hair_care point_of_interest establishment"
"ChIJJYiHljVu5kcROuNPP8QMPTM","Nacarat Direction Paris - Ile de France","48.8753056","2.3273632",NA,"2.9","25","real_estate_agency point_of_interest establishment"
"ChIJL9-mlzVu5kcRNWwvtgW4eEY","Yves Rocher","48.8753637","2.3273511",NA,"3.6","196","beauty_salon point_of_interest establishment"
"ChIJ5cTI6DVu5kcRq8ZqhnytWBw","Dr. Emmanuel Ganem","48.875292","2.3275842",NA,"4.1","18","dentist health point_of_interest establishment"
"ChIJ8aEowzVu5kcRuvFwlDiQjNw","Brulerie Caumartin","48.8753685","2.328409","2","3.7","322","restaurant cafe bar food point_of_interest establishment"
"ChIJlRqnwjVu5kcR5QYfUEfacBU","Chivas Georges","48.875467","2.3282501",NA,"4","13","doctor health point_of_interest establishment"
"ChIJ-e1gvzVu5kcR8Q7FtEcNGlw","AGATHA Passage du Havre","48.8753056","2.3273632",NA,"3.8","25","jewelry_store point_of_interest store establishment"
"ChIJ-eZl__1v5kcRC0eTvj4CnaY","Courir","48.8752886","2.3276922",NA,"4.8","34","shoe_store point_of_interest clothing_store store establishment"
"ChIJnWbUvjVu5kcR0qKvL7bTrdU","PoooW!","48.8751334","2.3275615",NA,"4.1","28","jewelry_store general_contractor point_of_interest store establishment"
"ChIJz-F06jVu5kcRqInrZ-RXu9g","Enjöy PDH","48.8754504","2.3280301",NA,"3.7","12","food point_of_interest store establishment"
"ChIJlRqnwjVu5kcRVswBf7__w-A","Dreyfus Eve","48.875467","2.3282501",NA,NA,NA,"lawyer finance point_of_interest establishment"
"ChIJ31GL6jVu5kcRSf8A9WoKf6Q","Coeur & ACT","48.8755194","2.327935",NA,"5","2","point_of_interest establishment"
"ChIJI06L6jVu5kcR1jKyoIhdZ1c","Groupe FL Finance","48.8755194","2.3279351",NA,NA,NA,"point_of_interest establishment"
"ChIJ89NtPk9v5kcRf6lEEkMdqsQ","Caroll Paris Passage du Havre","48.8753056","2.3273632",NA,NA,NA,"point_of_interest clothing_store store establishment"
"ChIJzXnNvTVu5kcRh_dI_lAd238","Ass Des Commercants Du Passage Du Havr","48.8753056","2.3273632",NA,NA,NA,"point_of_interest establishment"
"ChIJzXnNvTVu5kcRz4JeG3w1lWQ","Aser SAS","48.8753056","2.3273632",NA,"5","1","point_of_interest establishment"
"ChIJJc8PNBRv5kcRbzVaFd693wM","WeAreArchitect","48.8750728","2.3284032",NA,"5","1","point_of_interest establishment"
