"Id","Name","Lat","Lng","Price_level","Rating","Nb_Rating","Type"
"ChIJJzeyEERu5kcRHhmIfNXDsNU","120-126 Boulevard de Rochechouart","48.8821992","2.3400668",NA,NA,NA,"route"
"ChIJe53HEURu5kcRJP3c6jP8pj8","La Cantine de la Cigale","48.8822567","2.339929","2","4","304","cafe food point_of_interest establishment"
"ChIJOx7tF0Ru5kcRFYvebSNg7uk","La Marmite","48.88237","2.3395007","2","3.8","894","restaurant cafe food point_of_interest establishment"
"ChIJKezIFURu5kcR4mWybT0TsvM","La Fourmi","48.882304","2.3397543","2","4","1056","cafe bar food point_of_interest establishment"
"ChIJ5R3lFkRu5kcRA0HEsP2aqo0","Pierre Roman Coach","48.8823422","2.3398692",NA,"1","1","health point_of_interest establishment"
"ChIJ-37ID0Ru5kcRylbGlRo05Yc","La Cigale","48.8825186","2.3401626",NA,"4.4","3318","point_of_interest establishment"
"ChIJLePDFkRu5kcR0fbSB9zj6z0","Montet Benoît","48.8823422","2.3398692",NA,NA,NA,"point_of_interest establishment"
"ChIJK_IWCURu5kcROQRIxFsUPqE","Agence Low Cost SAP","48.882468","2.34052",NA,"4.6","20","real_estate_agency finance point_of_interest establishment"
"ChIJAQBAWahj5kcRBG5HqkmYEn8","Vladimir Marchitan","48.882468","2.34052",NA,"5","1","point_of_interest establishment"
"ChIJ4xuKPURu5kcRpyx0-68y2l4","PROJETS PRIVÉS","48.8823501","2.3395829",NA,NA,NA,"point_of_interest establishment"
"ChIJE3rmDERu5kcR1w2Q2C_1ypg","Bulle Santé","48.8825927","2.3404901",NA,NA,NA,"point_of_interest establishment"
"ChIJE3rmDERu5kcRVOGQErYKC3U","BIo Energie Center","48.8825927","2.3404901",NA,NA,NA,"point_of_interest establishment"
"ChIJ__-vPURu5kcRRetcgqWLeYQ","Academy Des Nouveaux Sports","48.8823316","2.3394536",NA,"4.7","6","airport gym health point_of_interest establishment"
"ChIJyWCWGkRu5kcRgdKHCl7EM-E","Rochechouart - Martyrs","48.882066","2.340169",NA,NA,NA,"transit_station point_of_interest establishment"
"ChIJgc9iiF5u5kcR1q_HSQ9veqM","Segaud Cailliau Sophie","48.8823228","2.3398923",NA,NA,NA,"point_of_interest establishment"
"ChIJ5R3lFkRu5kcRTPcC48nYfQA","Le Royal Bar","48.8823228","2.3398923",NA,"3.5","11","bar restaurant food point_of_interest establishment"
"ChIJLePDFkRu5kcRhoS1eUuHGl4","guide management","48.8823422","2.3398692",NA,NA,NA,"point_of_interest establishment"
"ChIJLePDFkRu5kcRZNA85FbMWPs","Bonnet Leslie","48.8823422","2.3398692",NA,NA,NA,"point_of_interest establishment"
"ChIJb1hxGkRu5kcRKRttF_UBQtA","Kiosque à Journaux","48.8821007","2.340028",NA,NA,NA,"point_of_interest store establishment"
"ChIJD7fiBh9u5kcRYJSMaMOCCwQ","Paris","48.856614","2.3522219",NA,NA,NA,"locality political"
"ChIJ8br0FkRu5kcRJY1GSL6aJRs","Mois Off","48.8823615","2.3397824",NA,NA,NA,"point_of_interest establishment"
"ChIJ8br0FkRu5kcRmzyQ2pAciLg","LeMinor consulting","48.8823615","2.3397824",NA,NA,NA,"point_of_interest establishment"
"ChIJ8br0FkRu5kcRb0iB74S5f5o","sophie Segaud","48.8823615","2.3397824",NA,NA,NA,"point_of_interest establishment"
"ChIJAQAAAAVy5kcRpiPNx9A6-Wk","Périmètre","48.8823581","2.339768",NA,NA,NA,"point_of_interest establishment"
"ChIJpSv5DkRu5kcR5Gxo2o_EMjw","Hm Optique","48.8822921","2.3404729",NA,NA,NA,"health point_of_interest store establishment"
"ChIJT414F0Ru5kcRHGu3R62dIt8","Chen Chi Hoa","48.8821561","2.3397521",NA,NA,NA,"point_of_interest establishment"
"ChIJT414F0Ru5kcRuXtBb-iyIIM","Mbf Decoration","48.8821561","2.3397521",NA,NA,NA,"point_of_interest establishment"
"ChIJGVYpFERu5kcR7vrnoBsL3ro","Martyrs","48.882375","2.3397007",NA,NA,NA,"transit_station point_of_interest establishment"
"ChIJbZBOFERu5kcR8J-K1fP_RzI","Art de Management","48.882548","2.339804",NA,NA,NA,"point_of_interest establishment"
"ChIJKezIFURu5kcR_CifgLgDkt4","Bergheaud et Compagnie","48.882548","2.339804",NA,NA,NA,"restaurant food point_of_interest establishment"
"ChIJKezIFURu5kcRNxlGQSU3cgc","Barton Henry","48.882548","2.339804",NA,NA,NA,"point_of_interest establishment"
"ChIJ92rREURu5kcRA4O4nLveijs","Rochechouart - Martyrs","48.882294","2.3405777",NA,NA,NA,"bus_station transit_station point_of_interest establishment"
"ChIJWd14G0Ru5kcRGS1ViYxdOKk","Rochechouart - Martyrs","48.8819875","2.3402346",NA,"5","1","bus_station transit_station point_of_interest establishment"
"ChIJfUGYTzVv5kcRKkWEPRbyzkc","Evelyne PERRONNET - Massage & Naturopathie","48.8824675","2.3405195",NA,NA,NA,"health point_of_interest establishment"
"ChIJq6o6DERu5kcR-u8PUlS4rJ0","Lieben","48.8824675","2.3405195",NA,NA,NA,"point_of_interest establishment"
"ChIJyT9SZdlv5kcRulO-dyvSMzc","Evoke Dance for All Latin Styles |Salsa| Bachata| Burlesque & Wedding Choreoraphies, Classes and lessons","48.882468","2.34052",NA,"5","10","school point_of_interest establishment"
"ChIJq6o6DERu5kcRtBZZ6ebf9oc","Psychologue Hypnose Paris 18 : Sébastien GALLAND psychologue du travail Gay Friendly","48.882468","2.34052",NA,"5","1","health point_of_interest establishment"
"ChIJ__9vPkRu5kcRz0spSynYQJs","rendez vous presse","48.8824888","2.3394666",NA,NA,NA,"point_of_interest establishment"
"ChIJ93l5PURu5kcRzKVTQeSdzSM","Paris Recharge Charging Station","48.882273","2.339549",NA,NA,NA,"point_of_interest establishment"
"ChIJ2c9TCURu5kcRoJXjbgBFVmU","Zoum","48.8823977","2.3406647",NA,NA,NA,"point_of_interest establishment"
"ChIJDzAOCURu5kcRjtpGEw4Niy4","Etevenon Magdeleine","48.8825927","2.3404901",NA,NA,NA,"point_of_interest establishment"
"ChIJCTQyKsBv5kcRzjdkJz7ldA8","La Fabrique Royale","48.8823316","2.3394536",NA,NA,NA,"point_of_interest establishment"
"ChIJd9Rr0LNv5kcRBfY4BhGx1Y0","Academy Des Nouveaux Sports","48.8823316","2.3394536",NA,NA,NA,"gym health point_of_interest establishment"
"ChIJe8byF0Ru5kcRA0BWl6zdi6w","Jospin Hugo","48.8823316","2.3394536",NA,NA,NA,"point_of_interest establishment"
"ChIJQ2PTEkRu5kcR3w6iB9NxKec","Write On","48.8827429","2.3401698",NA,NA,NA,"point_of_interest establishment"
"ChIJgeuvNRVv5kcRx8OaoJSRwEk","Carrefour Market","48.8818512","2.3400417",NA,"4.5","6","grocery_or_supermarket food point_of_interest store establishment"
"ChIJzZJSE0Ru5kcR_xyvwbgcYVE","Chez M","48.8827463","2.3400097",NA,NA,NA,"point_of_interest establishment"
"ChIJ__9vPkRu5kcRxCN9ouwHoLo","Atalou","48.8824888","2.3394666",NA,NA,NA,"point_of_interest establishment"
"ChIJV7LaBURu5kcRfQWJhbuEc-E","Earvin Ngapeth organise un tournoi de beach volley sur la plage de Saint-Jean-de-Monts","48.8819752","2.3405792",NA,NA,NA,"point_of_interest establishment"
"ChIJrZ10G0Ru5kcR6xe9-3Ppgwc","Le Bouglione","48.8818407","2.3401189",NA,NA,NA,"point_of_interest establishment"
