"Id","Name","Lat","Lng","Rating","Nb_Rating","Type"
"ChIJP0yqWdht5kcRXmgwTDS4ZMs","5 Quai de la Loire","48.8835575","2.3711581",NA,NA,"route"
"ChIJ39glV9ht5kcROAj2TEG39Gc","Paginic","48.8836398","2.3714973","4","1","point_of_interest establishment"
"ChIJewoi-tht5kcRJssKgJnP1Fw","Le 25° Est","48.8838246","2.3708569","3.9","566","food point_of_interest establishment"
"ChIJpR_imKZt5kcRg2x6hW3ynJU","Réseau Cosi","48.8836398","2.3714973","4.5","2","point_of_interest establishment"
"ChIJyfME9tht5kcRgL0Y_L8gI-w","Velib Station","48.8833553","2.3710034","2.5","2","point_of_interest establishment"
"ChIJy6VvUdht5kcRjTK9O5yhF_I","MK2 Cafe","48.883792","2.371657",NA,NA,"cafe food point_of_interest establishment"
"ChIJsy7I99ht5kcRi6PksVwPs2E","24 Images Secondes","48.8832999","2.3711743",NA,NA,"point_of_interest establishment"
"ChIJD7fiBh9u5kcRYJSMaMOCCwQ","Paris","48.856614","2.3522219",NA,NA,"locality political"
