"Id","Name","Lat","Lng","Price_level","Rating","Nb_Rating","Type"
"ChIJ8ZOWAEBu5kcRVi8PT4gpDDY","78-82 Rue la Fayette","48.8763832","2.3458843",NA,NA,NA,"route"
"ChIJE6z0_z9u5kcR22QiSItrT7o","Hôtel Opera Lafayette","48.8762918","2.3460725",NA,"3.6","339","lodging point_of_interest establishment"
"ChIJI3d7A0Bu5kcRq1mcnC4RcUY","Hotel Williams Opera","48.8768209","2.3456612",NA,"3","98","lodging point_of_interest establishment"
"ChIJi9piAUBu5kcRXB5YhoU7zc8","AG2R LA MONDIALE - Bureau administratif","48.8766666","2.3459215",NA,"2","11","insurance_agency health point_of_interest establishment"
"ChIJv2gINUBu5kcRh-htKvRUlx4","Alterfina","48.8764796","2.3457153",NA,NA,NA,"point_of_interest establishment"
"ChIJOdH-cT9u5kcRMMdhm2fJPqg","La Rosarina","48.8764878","2.3456294","1","4.4","126","restaurant food point_of_interest establishment"
"ChIJyTS5BUBu5kcR0qv633iM3tU","Gie AG2R Reunica","48.8767364","2.3455749",NA,NA,NA,"lawyer point_of_interest establishment"
"ChIJAYG4BUBu5kcRQ9AVLPJrzbg","association APREP","48.8767389","2.3455391",NA,NA,NA,"point_of_interest establishment"
"ChIJeSJrCEBu5kcRc5v-WvvdeaQ","Cabinet d'avocat Marion HAVARD","48.8764475","2.3453612",NA,NA,NA,"lawyer point_of_interest establishment"
"ChIJOd3F_j9u5kcR2HzLG4D0vk8","Coiff&Co - Coiffeur Paris","48.8762495","2.3457591",NA,"3.7","77","beauty_salon hair_care point_of_interest establishment"
"ChIJeSJrCEBu5kcRu0D7LmfvXX8","Parallaxe","48.8764329","2.3453509",NA,NA,NA,"point_of_interest establishment"
"ChIJw3YQfTdu5kcRcqLHLG9YBzQ","Officéo - Aide administrative partout en France","48.8764329","2.3453509",NA,"4.5","123","point_of_interest establishment"
"ChIJOd3F_j9u5kcR58fp0EX2S2c","Veggie Tasty","48.876238","2.345903","1","4.7","282","restaurant food point_of_interest establishment"
"ChIJy0Gxcp68rhIRKr_wrL3paBI","Sarl Copiprint","48.8763877","2.3463668",NA,"4.3","8","point_of_interest establishment"
"ChIJN0EBCEBu5kcR1SWFaq4ygjw","Actuel Sté","48.8763609","2.3453741",NA,"3.3","26","real_estate_agency point_of_interest establishment"
"ChIJJwkWB0Bu5kcRFwBj5tmXrdE","Salsavista","48.8764419","2.3456868",NA,NA,NA,"point_of_interest establishment"
"ChIJvy8FZgFl5kcR_dWmia4ZMw0","Montholon","48.8768998","2.3459251",NA,"3.1","45","parking point_of_interest establishment"
"ChIJeSJrCEBu5kcR5-F-sKK1_Dg","Cabinet NKS","48.8764329","2.3453509",NA,NA,NA,"lawyer point_of_interest establishment"
"ChIJeSJrCEBu5kcRcpDuISy0rGk","Cabinet Marie FAVA","48.8764329","2.3453509",NA,"4.5","8","lawyer point_of_interest establishment"
"ChIJD7fiBh9u5kcRYJSMaMOCCwQ","Paris","48.856614","2.3522219",NA,NA,NA,"locality political"
"ChIJYfumG0Bu5kcRAWl62m_JsD0","France Global Relocation","48.877075","2.345669",NA,NA,NA,"point_of_interest establishment"
"ChIJcdKxGkBu5kcRV5VQATZx_aU","Marie DURAND DUBUC Nothingbutfrench","48.8770266","2.3454979",NA,"5","1","point_of_interest establishment"
"ChIJt3znBkBu5kcRQm7ctG74o20","Le corail","48.8765066","2.3458838","2","4","426","restaurant bar food point_of_interest establishment"
"ChIJYfumG0Bu5kcRb2KDykuns84","Afij Paris 9","48.8769921","2.3455274",NA,NA,NA,"point_of_interest establishment"
"ChIJAWxZr2pu5kcRjKTsTEKOQwI","Les catherinettes","48.8764796","2.3457153",NA,NA,NA,"point_of_interest establishment"
"ChIJcakOA0Bu5kcRmu0EGAsXQ0U","Izivia Charging Station","48.876831","2.345921",NA,NA,NA,"point_of_interest establishment"
"ChIJcakOA0Bu5kcRNOdGvzGBwhY","Indigo Charging Station","48.876831","2.345921",NA,NA,NA,"point_of_interest establishment"
"ChIJt3znBkBu5kcRYxSxsX60Jlc","Docteur Cardiologue Demir ONGER","48.876439","2.3456701",NA,"4.2","5","doctor health point_of_interest establishment"
"ChIJZ7QiA0Bu5kcRkTvwVX2V1qs","Spie Autocité Charging Station","48.876892","2.345948",NA,NA,NA,"point_of_interest establishment"
"ChIJAQDMB0Bu5kcR_TFYQh_dqsI","Cabinet Marx","48.8764841","2.345496",NA,"1","1","lawyer point_of_interest establishment"
"ChIJa02MB0Bu5kcRESgMvHLnfZY","Illinois Institute Of Technology-France","48.8764841","2.345496",NA,NA,NA,"point_of_interest establishment"
"ChIJq6rOB0Bu5kcR9xUjlVM7N3U","Cabinet Bordaçahar - Avocat Paris 9","48.876484","2.345496",NA,"3.5","14","lawyer point_of_interest establishment"
"ChIJW16bqmpu5kcRS1IlaRYBSu8","Sabountchian Gérard","48.8764235","2.346399",NA,"5","2","dentist health point_of_interest establishment"
"ChIJ4cr8B0Bu5kcRD-7tmgVSeJ4","Analyses Medicales","48.8763865","2.3454379",NA,NA,NA,"laundry point_of_interest establishment"
"ChIJeSJrCEBu5kcRMQUZXTRwMnE","Groupe Officeo","48.8764329","2.3453509",NA,NA,NA,"point_of_interest establishment"
"ChIJYfHl-dlv5kcRWrGoUdpzVwo","Avocat Droit Maritime - Tarin Lemarié - Paris","48.8764329","2.3453509",NA,NA,NA,"lawyer point_of_interest establishment"
"ChIJ4x5aTbFv5kcRuGTtlxPnkhw","YVER AVOCAT","48.8764329","2.3453509",NA,NA,NA,"lawyer point_of_interest establishment"
"ChIJfYo7VqFv5kcRGHoxsbA1goI","Laboratoire de Biologie Médicale - La Fayette - Cerballiance","48.8764329","2.3453509",NA,"2.3","3","health point_of_interest establishment"
"ChIJVxqOwKJv5kcRFuIVV2HBup4","Cyril ZEKRI","48.8764329","2.3453509",NA,NA,NA,"lawyer point_of_interest establishment"
"ChIJ2fSg0Odv5kcRm_tyFgE11eg","Lecoq Eric","48.8764329","2.3453509",NA,"5","1","lawyer finance point_of_interest establishment"
"ChIJN0EBCEBu5kcRB_l7vCP_oWg","Cotica-Boissy","48.8764329","2.3453509",NA,NA,NA,"point_of_interest establishment"
"ChIJN0EBCEBu5kcRjULuXRyw5rA","Cabinet","48.8764329","2.3453509",NA,NA,NA,"insurance_agency point_of_interest establishment"
"ChIJc_2Z8hpv5kcRi28ryDRaWw0","Juice & Tasty","48.876238","2.345903",NA,NA,NA,"point_of_interest establishment"
"ChIJVdTZGkBu5kcR7cnmYp7yyEw","MEDIASHAKE","48.877013","2.3456379",NA,NA,NA,"point_of_interest establishment"
"ChIJNd6S9I5v5kcR0DyyVc7P7ww","Agathe Beauty","48.8764235","2.346399",NA,"4.4","27","beauty_salon hair_care point_of_interest establishment"
"ChIJO5ACCUBu5kcR1pUvv1HW6pQ","Alizee","48.8765162","2.3452558",NA,NA,NA,"point_of_interest establishment"
"ChIJQ3gAEEBu5kcRW2SLGkyDy1k","Pour Que Tu Marches","48.8769842","2.3454711",NA,NA,NA,"point_of_interest establishment"
"ChIJL8Pg-D9u5kcRzEh1e1Bg_Us","Restaurant Hong Kong","48.876201","2.3456637",NA,"4","8","restaurant food point_of_interest establishment"
"ChIJh8a8GkBu5kcRBwZMvGl4oo0","Ouvrages D'Art","48.8770404","2.3455235",NA,NA,NA,"point_of_interest establishment"
