"Id","Name","Lat","Lng","Rating","Nb_Rating","Type"
"ChIJcf1YyLht5kcRYRuuof9INng","25-13 Rue de la Liberté","48.8809305","2.3930969",NA,NA,"route"
"ChIJn40irrht5kcRoTdZF6gVHx8","Mairie","48.8808238","2.3921835",NA,NA,"city_hall local_government_office point_of_interest establishment"
"ChIJAQAQyrht5kcRrc8JYhPEHOU","Maryline Giraud Gestion","48.8808126","2.3930207","5","1","real_estate_agency point_of_interest establishment"
"ChIJz0Tasrht5kcRF8U9I2tBfxc","Ylyatech","48.8804874","2.3923169","1","11","point_of_interest establishment"
"ChIJ2wgGyrht5kcReOI6z8NJcqI","Defrance Isabelle","48.8806446","2.3929269",NA,NA,"point_of_interest establishment"
"ChIJZ-Act7ht5kcR-LXFVEiMtZs","Mahé Marie","48.8807805","2.3926441",NA,NA,"point_of_interest establishment"
"ChIJlwDOs7ht5kcR7EFSAnA6XP4","Friedman Troper Mathilde","48.8807426","2.3924508",NA,NA,"health point_of_interest establishment"
"ChIJH2aYybht5kcRWW5opmAyUOg","Perrault Dominique Maurice","48.8807974","2.3930608",NA,NA,"general_contractor point_of_interest establishment"
"ChIJD7fiBh9u5kcRYJSMaMOCCwQ","Paris","48.856614","2.3522219",NA,NA,"locality political"
