"Id","Name","Lat","Lng","Rating","Nb_Rating","Type"
"ChIJ-x9GSZVt5kcRESA6zYTqx2E","8-44 Rue Levert","48.8744089","2.3913868",NA,NA,"route"
"ChIJV3BpSZVt5kcRi72TxJ0iF4o","Foyer de l'Enfance Melingue","48.8743527","2.3914227","4.5","8","point_of_interest establishment"
"ChIJ_dRRTJVt5kcRfwjOOEkmWC8","MICHELE ROBINE","48.8745937","2.3912091",NA,NA,"point_of_interest establishment"
"ChIJdyWySpVt5kcR6t6cCyB_w40","aMUA - atelier Morphose Urbaine & Architecturale","48.8742019","2.3909768",NA,NA,"local_government_office point_of_interest establishment"
"ChIJSUO4TpVt5kcR9bBb92ILvdw","Netebru","48.8745077","2.3914159",NA,NA,"point_of_interest store establishment"
"ChIJSfIvy-pt5kcROJr4q4smrOQ","Frédéric Bergue","48.873885","2.3909389",NA,NA,"point_of_interest establishment"
"ChIJD7fiBh9u5kcRYJSMaMOCCwQ","Paris","48.856614","2.3522219",NA,NA,"locality political"
