"Id","Name","Lat","Lng","Rating","Nb_Rating","Type"
"ChIJvYBKnKJt5kcRNkllPQLudCg","6-12 Passage des Tourelles","48.8753129","2.4041569",NA,NA,"route"
"ChIJqcEinKJt5kcRRpMeo2uqHg8","Halte Garderie des Tourelles","48.8753724","2.4041147","3","2","point_of_interest establishment"
"ChIJqz1fnaJt5kcR4ZUP3To4U-M","Diarra Hawa","48.8751292","2.4042454",NA,NA,"point_of_interest establishment"
"ChIJhzt3eZht5kcRXCh_RIjwMr4","Apal Formation","48.8748635","2.4045783",NA,NA,"point_of_interest establishment"
"ChIJyQoKacJt5kcRXoubwGQu8G8","Africa Foot United","48.8755941","2.4042628",NA,NA,"point_of_interest establishment"
"ChIJMyJ4gqJt5kcRBOBlOqA-mNQ","Federspiel Arthur Louis Stanislas","48.875019","2.40471",NA,NA,"point_of_interest establishment"
"ChIJowSgcJht5kcRkq1lVRn1TWg","Aux Brochettes","48.8747826","2.4044364","4.2","15","restaurant food point_of_interest establishment"
"ChIJD7fiBh9u5kcRYJSMaMOCCwQ","Paris","48.856614","2.3522219",NA,NA,"locality political"
